[
  {
    "id": "osm-node-105459350-zeughauskeller",
    "name": "Zeughauskeller",
    "lat": 47.3703727,
    "lng": 8.5399233,
    "candidateSource": "osm",
    "candidateFoundAt": "2026-02-11",
    "candidateOsmType": "node",
    "candidateOsmId": 105459350,
    "candidateUrl": "https://www.zeughauskeller.ch/",
    "candidatePhone": "+41 44 220 15 15",
    "candidateHours": "Mo-Su 11:30-23:00",
    "source": "https://www.zeughauskeller.ch/",
    "lastVerified": "2026-02-11"
  },
  {
    "id": "osm-node-242557373-rössli",
    "name": "Rössli",
    "lat": 47.239464,
    "lng": 8.7188798,
    "candidateSource": "osm",
    "candidateFoundAt": "2026-02-11",
    "candidateOsmType": "node",
    "candidateOsmId": 242557373,
    "candidateUrl": "https://www.roesslibeiz.ch",
    "source": "https://www.roesslibeiz.ch",
    "lastVerified": "2026-02-11"
  },
  {
    "id": "osm-node-262594347-thai-orchid",
    "name": "Thai Orchid",
    "lat": 47.2678861,
    "lng": 8.6450038,
    "candidateSource": "osm",
    "candidateFoundAt": "2026-02-11",
    "candidateOsmType": "node",
    "candidateOsmId": 262594347,
    "candidateUrl": "https://www.thai-orchid.ch/",
    "source": "https://www.thai-orchid.ch/",
    "lastVerified": "2026-02-11"
  },
  {
    "id": "osm-node-268467807-kronenhalle",
    "name": "Kronenhalle",
    "lat": 47.3675511,
    "lng": 8.5457188,
    "candidateSource": "osm",
    "candidateFoundAt": "2026-02-11",
    "candidateOsmType": "node",
    "candidateOsmId": 268467807,
    "candidateUrl": "https://www.kronenhalle.com",
    "candidatePhone": "+41 44 262 99 00",
    "candidateHours": "Mo-Su 12:00-24:00",
    "source": "https://www.kronenhalle.com",
    "lastVerified": "2026-02-11"
  },
  {
    "id": "osm-node-268467884-terrasse-restaurant",
    "name": "Terrasse Restaurant",
    "lat": 47.3678872,
    "lng": 8.5443882,
    "candidateSource": "osm",
    "candidateFoundAt": "2026-02-11",
    "candidateOsmType": "node",
    "candidateOsmId": 268467884,
    "candidateUrl": "https://www.bindella.ch/de/terrasse-restaurant.html",
    "candidatePhone": "+41 44 251 10 74",
    "candidateHours": "Mo-Th 11:30-23:00; Fr-Sa 11:30-24:00; Su 10:00-14:00 \"Brunch\", 14:15-23:00",
    "source": "https://www.bindella.ch/gastronomie/terrasse-restaurant",
    "lastVerified": "2026-02-11"
  },
  {
    "id": "osm-node-268468109-caf-bar-odeon",
    "name": "Café Bar ODEON",
    "lat": 47.3677942,
    "lng": 8.5451446,
    "candidateSource": "osm",
    "candidateFoundAt": "2026-02-11",
    "candidateOsmType": "node",
    "candidateOsmId": 268468109,
    "candidateUrl": "https://odeon.ch/",
    "candidateHours": "Mo-Th 07:00-24:00, Fr-Sa 07:00-02:00, Su 09:00-24:00",
    "source": "https://odeon.ch/",
    "lastVerified": "2026-02-11"
  },
  {
    "id": "osm-node-268468215-rosaly-s",
    "name": "Rosaly's",
    "lat": 47.3673843,
    "lng": 8.5458541,
    "candidateSource": "osm",
    "candidateFoundAt": "2026-02-11",
    "candidateOsmType": "node",
    "candidateOsmId": 268468215,
    "candidateUrl": "https://www.rosalys.ch/",
    "candidateHours": "Mo-Fr 11:30-14:30, 17:00-24:00; Sa 17:00-01:00; Su 17:00-24:00",
    "source": "https://www.rosalys.ch/",
    "lastVerified": "2026-02-11"
  },
  {
    "id": "osm-node-269913252-weisse-rose",
    "name": "Weisse Rose",
    "lat": 47.3682061,
    "lng": 8.5456652,
    "candidateSource": "osm",
    "candidateFoundAt": "2026-02-11",
    "candidateOsmType": "node",
    "candidateOsmId": 269913252,
    "candidateUrl": "https://www.weissero.se",
    "candidateHours": "Tu-Sa 17:00+; PH closed",
    "source": "https://www.weissero.se",
    "lastVerified": "2026-02-11"
  },
  {
    "id": "osm-node-270799836-blockhus",
    "name": "Blockhus",
    "lat": 47.3681833,
    "lng": 8.5451811,
    "candidateSource": "osm",
    "candidateFoundAt": "2026-02-11",
    "candidateOsmType": "node",
    "candidateOsmId": 270799836,
    "candidateUrl": "https://restaurant-blockhus.ch/",
    "candidatePhone": "+41 44 252 14 53",
    "candidateHours": "Mo-Tu 11:30-14:00,17:30-23:00; We-Sa 11:30-24:00",
    "source": "https://restaurant-blockhus.ch/",
    "lastVerified": "2026-02-11"
  },
  {
    "id": "osm-node-270800540-weisser-wind",
    "name": "Weisser Wind",
    "lat": 47.3688249,
    "lng": 8.5455086,
    "candidateSource": "osm",
    "candidateFoundAt": "2026-02-11",
    "candidateOsmType": "node",
    "candidateOsmId": 270800540,
    "candidateUrl": "https://weisserwind.ch/",
    "candidateHours": "Mo-Fr 11:30-14:00,17:30-23:00; Sa 12:00-23:00",
    "source": "https://weisserwind.ch/",
    "lastVerified": "2026-02-11"
  },
  {
    "id": "osm-node-270800743-papa-joe-s-zürich",
    "name": "Papa Joe's Zürich",
    "lat": 47.3687595,
    "lng": 8.5445743,
    "candidateSource": "osm",
    "candidateFoundAt": "2026-02-11",
    "candidateOsmType": "node",
    "candidateOsmId": 270800743,
    "candidateUrl": "https://www.papajoes.ch/de/Restaurants/",
    "candidateHours": "Fr-Sa 11:30-01:00; Su-Th 11:30-23:00",
    "source": "https://www.papajoes.ch/de/Restaurants/",
    "lastVerified": "2026-02-11"
  },
  {
    "id": "osm-node-270800785-molino",
    "name": "Molino",
    "lat": 47.3690472,
    "lng": 8.5439586,
    "candidateSource": "osm",
    "candidateFoundAt": "2026-02-11",
    "candidateOsmType": "node",
    "candidateOsmId": 270800785,
    "candidateUrl": "https://molino.ch/de/pizzeria-ristorante-molino-select",
    "candidateHours": "10:00-23:00",
    "source": "https://molino.ch/de/pizzeria-ristorante-molino-select",
    "lastVerified": "2026-02-11"
  },
  {
    "id": "osm-node-270803256-zunfthaus-zur-meisen",
    "name": "Zunfthaus zur Meisen",
    "lat": 47.3700612,
    "lng": 8.5416945,
    "candidateSource": "osm",
    "candidateFoundAt": "2026-02-11",
    "candidateOsmType": "node",
    "candidateOsmId": 270803256,
    "candidateUrl": "https://www.zunfthaus-zur-meisen.ch/",
    "source": "https://www.zunfthaus-zur-meisen.ch/",
    "lastVerified": "2026-02-11"
  },
  {
    "id": "osm-node-270938371-zunfthaus-zur-waag",
    "name": "Zunfthaus zur Waag",
    "lat": 47.3702401,
    "lng": 8.5403116,
    "candidateSource": "osm",
    "candidateFoundAt": "2026-02-11",
    "candidateOsmType": "node",
    "candidateOsmId": 270938371,
    "candidateUrl": "https://zunfthaus-zur-waag.ch/",
    "candidateHours": "Mo-Sa 11:30-14:00, 18:00-22:00; Nov-Dec Su 11:30-14:00",
    "source": "https://zunfthaus-zur-waag.ch/",
    "lastVerified": "2026-02-11"
  },
  {
    "id": "osm-node-270938393-münsterhöfli",
    "name": "Münsterhöfli",
    "lat": 47.3700175,
    "lng": 8.5403598,
    "candidateSource": "osm",
    "candidateFoundAt": "2026-02-11",
    "candidateOsmType": "node",
    "candidateOsmId": 270938393,
    "candidateUrl": "https://www.muensterhoefli.ch/",
    "candidateHours": "Mo-Fr 11:30-14:00,18:00-24:00, Sa 11:30-24:00",
    "source": "https://www.muensterhoefli.ch/",
    "lastVerified": "2026-02-11"
  },
  {
    "id": "osm-node-270938652-n-n",
    "name": "Ăn Ăn",
    "lat": 47.3693,
    "lng": 8.5405687,
    "candidateSource": "osm",
    "candidateFoundAt": "2026-02-11",
    "candidateOsmType": "node",
    "candidateOsmId": 270938652,
    "candidateUrl": "https://www.anan.ch/",
    "candidateHours": "Mo-Th 10:00-23:00; Fr,Sa 10:00-00:00",
    "source": "https://www.anan.ch/",
    "lastVerified": "2026-02-11"
  },
  {
    "id": "osm-node-270938706-milchbar",
    "name": "Milchbar",
    "lat": 47.3689961,
    "lng": 8.5402339,
    "candidateSource": "osm",
    "candidateFoundAt": "2026-02-11",
    "candidateOsmType": "node",
    "candidateOsmId": 270938706,
    "candidateUrl": "https://www.milchbar.ch/",
    "source": "https://www.milchbar.ch/",
    "lastVerified": "2026-02-11"
  },
  {
    "id": "osm-node-270938826-old-fashion-bar",
    "name": "Old Fashion Bar",
    "lat": 47.3686626,
    "lng": 8.5407519,
    "candidateSource": "osm",
    "candidateFoundAt": "2026-02-11",
    "candidateOsmType": "node",
    "candidateOsmId": 270938826,
    "candidateUrl": "https://old-fashion-bar.ch/",
    "candidatePhone": "+41 44 225 18 86",
    "candidateHours": "Mo 11:30-24:00; Tu 11:30-01:00; We-Sa 11:30-02:00",
    "source": "https://old-fashion-bar.ch/",
    "lastVerified": "2026-02-11"
  },
  {
    "id": "osm-node-272354078-belcafe",
    "name": "Belcafe",
    "lat": 47.3670907,
    "lng": 8.5451486,
    "candidateSource": "osm",
    "candidateFoundAt": "2026-02-11",
    "candidateOsmType": "node",
    "candidateOsmId": 272354078,
    "candidateUrl": "https://www.belcafe.ch/",
    "candidateHours": "Mo-Fr 06:00-21:00; Sa 07:00-21:00",
    "source": "https://www.belcafe.ch/",
    "lastVerified": "2026-02-11"
  },
  {
    "id": "osm-node-289669633-l-altro",
    "name": "L'Altro",
    "lat": 47.3600645,
    "lng": 8.5340786,
    "candidateSource": "osm",
    "candidateFoundAt": "2026-02-11",
    "candidateOsmType": "node",
    "candidateOsmId": 289669633,
    "candidateUrl": "https://www.l-altro.ch/",
    "candidateHours": "Mo-Fr 11:30-14:30,18:00-24:00",
    "source": "https://www.l-altro.ch/",
    "lastVerified": "2026-02-11"
  }
]
