[
  {
    "id": "osm-node-105459350-zeughauskeller",
    "name": "Zeughauskeller",
    "lat": 47.3703727,
    "lng": 8.5399233,
    "candidateSource": "osm",
    "candidateFoundAt": "2026-02-11",
    "candidateOsmType": "node",
    "candidateOsmId": 105459350,
    "candidateUrl": "https://www.zeughauskeller.ch/",
    "candidatePhone": "+41 44 220 15 15",
    "candidateHours": "Mo-Su 11:30-23:00",
    "source": "https://www.zeughauskeller.ch/",
    "lastVerified": "2026-02-11"
  },
  {
    "id": "osm-node-105460220-sprüngli-caf-bar",
    "name": "Sprüngli Café-Bar",
    "lat": 47.3692939,
    "lng": 8.5392157,
    "candidateSource": "osm",
    "candidateFoundAt": "2026-02-11",
    "candidateOsmType": "node",
    "candidateOsmId": 105460220,
    "candidateHours": "Mo-Fr 07:00-18:30; Sa 08:00-18:00; Su 09:30-17:30",
    "candidateUrl": ""
  },
  {
    "id": "osm-node-242557373-rössli",
    "name": "Rössli",
    "lat": 47.239464,
    "lng": 8.7188798,
    "candidateSource": "osm",
    "candidateFoundAt": "2026-02-11",
    "candidateOsmType": "node",
    "candidateOsmId": 242557373,
    "candidateUrl": "https://www.roesslibeiz.ch",
    "source": "https://www.roesslibeiz.ch",
    "lastVerified": "2026-02-11"
  },
  {
    "id": "osm-node-262594347-thai-orchid",
    "name": "Thai Orchid",
    "lat": 47.2678861,
    "lng": 8.6450038,
    "candidateSource": "osm",
    "candidateFoundAt": "2026-02-11",
    "candidateOsmType": "node",
    "candidateOsmId": 262594347,
    "candidateUrl": "https://www.thai-orchid.ch/",
    "source": "https://www.thai-orchid.ch/",
    "lastVerified": "2026-02-11"
  },
  {
    "id": "osm-node-268467807-kronenhalle",
    "name": "Kronenhalle",
    "lat": 47.3675511,
    "lng": 8.5457188,
    "candidateSource": "osm",
    "candidateFoundAt": "2026-02-11",
    "candidateOsmType": "node",
    "candidateOsmId": 268467807,
    "candidateUrl": "https://www.kronenhalle.com",
    "candidatePhone": "+41 44 262 99 00",
    "candidateHours": "Mo-Su 12:00-24:00",
    "source": "https://www.kronenhalle.com",
    "lastVerified": "2026-02-11"
  },
  {
    "id": "osm-node-268467884-terrasse-restaurant",
    "name": "Terrasse Restaurant",
    "lat": 47.3678872,
    "lng": 8.5443882,
    "candidateSource": "osm",
    "candidateFoundAt": "2026-02-11",
    "candidateOsmType": "node",
    "candidateOsmId": 268467884,
    "candidateUrl": "https://www.bindella.ch/de/terrasse-restaurant.html",
    "candidatePhone": "+41 44 251 10 74",
    "candidateHours": "Mo-Th 11:30-23:00; Fr-Sa 11:30-24:00; Su 10:00-14:00 \"Brunch\", 14:15-23:00"
  },
  {
    "id": "osm-node-268468109-caf-bar-odeon",
    "name": "Café Bar ODEON",
    "lat": 47.3677942,
    "lng": 8.5451446,
    "candidateSource": "osm",
    "candidateFoundAt": "2026-02-11",
    "candidateOsmType": "node",
    "candidateOsmId": 268468109,
    "candidateUrl": "https://odeon.ch/",
    "candidateHours": "Mo-Th 07:00-24:00, Fr-Sa 07:00-02:00, Su 09:00-24:00",
    "source": "https://odeon.ch/",
    "lastVerified": "2026-02-11"
  },
  {
    "id": "osm-node-268468215-rosaly-s",
    "name": "Rosaly's",
    "lat": 47.3673843,
    "lng": 8.5458541,
    "candidateSource": "osm",
    "candidateFoundAt": "2026-02-11",
    "candidateOsmType": "node",
    "candidateOsmId": 268468215,
    "candidateUrl": "https://www.rosalys.ch/",
    "candidateHours": "Mo-Fr 11:30-14:30, 17:00-24:00; Sa 17:00-01:00; Su 17:00-24:00",
    "source": "https://www.rosalys.ch/",
    "lastVerified": "2026-02-11"
  },
  {
    "id": "osm-node-268468702-yume-ramen",
    "name": "Yume Ramen",
    "lat": 47.3670484,
    "lng": 8.5462454,
    "candidateSource": "osm",
    "candidateFoundAt": "2026-02-11",
    "candidateOsmType": "node",
    "candidateOsmId": 268468702,
    "candidateUrl": "https://www.yume-ramen.ch",
    "candidatePhone": "+41 44 518 03 60",
    "candidateHours": "Mo-Fr 11:30-13:30,18:00-21:30; Sa 12:00-13:30,18:00-21:30"
  },
  {
    "id": "osm-node-269913252-weisse-rose",
    "name": "Weisse Rose",
    "lat": 47.3682061,
    "lng": 8.5456652,
    "candidateSource": "osm",
    "candidateFoundAt": "2026-02-11",
    "candidateOsmType": "node",
    "candidateOsmId": 269913252,
    "candidateUrl": "https://www.weissero.se",
    "candidateHours": "Tu-Sa 17:00+; PH closed",
    "source": "https://www.weissero.se",
    "lastVerified": "2026-02-11"
  },
  {
    "id": "osm-node-270799836-blockhus",
    "name": "Blockhus",
    "lat": 47.3681833,
    "lng": 8.5451811,
    "candidateSource": "osm",
    "candidateFoundAt": "2026-02-11",
    "candidateOsmType": "node",
    "candidateOsmId": 270799836,
    "candidateUrl": "https://restaurant-blockhus.ch/",
    "candidatePhone": "+41 44 252 14 53",
    "candidateHours": "Mo-Tu 11:30-14:00,17:30-23:00; We-Sa 11:30-24:00"
  },
  {
    "id": "osm-node-270799850-hotel-hechtplatz-bar",
    "name": "Hotel Hechtplatz Bar",
    "lat": 47.3682148,
    "lng": 8.5452505,
    "candidateSource": "osm",
    "candidateFoundAt": "2026-02-11",
    "candidateOsmType": "node",
    "candidateOsmId": 270799850,
    "candidateUrl": ""
  },
  {
    "id": "osm-node-270800540-weisser-wind",
    "name": "Weisser Wind",
    "lat": 47.3688249,
    "lng": 8.5455086,
    "candidateSource": "osm",
    "candidateFoundAt": "2026-02-11",
    "candidateOsmType": "node",
    "candidateOsmId": 270800540,
    "candidateUrl": "https://weisserwind.ch/",
    "candidateHours": "Mo-Fr 11:30-14:00,17:30-23:00; Sa 12:00-23:00"
  },
  {
    "id": "osm-node-270800553-oberdorf-beck",
    "name": "Oberdorf Beck",
    "lat": 47.3686693,
    "lng": 8.545625,
    "candidateSource": "osm",
    "candidateFoundAt": "2026-02-11",
    "candidateOsmType": "node",
    "candidateOsmId": 270800553,
    "candidatePhone": "+41 44 252 49 19",
    "candidateHours": "Tu-Fr 08:00-15:00",
    "candidateUrl": ""
  },
  {
    "id": "osm-node-270800743-papa-joe-s-zürich",
    "name": "Papa Joe's Zürich",
    "lat": 47.3687595,
    "lng": 8.5445743,
    "candidateSource": "osm",
    "candidateFoundAt": "2026-02-11",
    "candidateOsmType": "node",
    "candidateOsmId": 270800743,
    "candidateUrl": "https://www.papajoes.ch/de/Restaurants/",
    "candidateHours": "Fr-Sa 11:30-01:00; Su-Th 11:30-23:00"
  },
  {
    "id": "osm-node-270800785-molino",
    "name": "Molino",
    "lat": 47.3690472,
    "lng": 8.5439586,
    "candidateSource": "osm",
    "candidateFoundAt": "2026-02-11",
    "candidateOsmType": "node",
    "candidateOsmId": 270800785,
    "candidateUrl": "https://molino.ch/de/pizzeria-ristorante-molino-select",
    "candidateHours": "10:00-23:00"
  },
  {
    "id": "osm-node-270803256-zunfthaus-zur-meisen",
    "name": "Zunfthaus zur Meisen",
    "lat": 47.3700612,
    "lng": 8.5416945,
    "candidateSource": "osm",
    "candidateFoundAt": "2026-02-11",
    "candidateOsmType": "node",
    "candidateOsmId": 270803256,
    "candidateUrl": "https://www.zunfthaus-zur-meisen.ch/"
  },
  {
    "id": "osm-node-270938312-orsini",
    "name": "Orsini",
    "lat": 47.3701032,
    "lng": 8.5401242,
    "candidateSource": "osm",
    "candidateFoundAt": "2026-02-11",
    "candidateOsmType": "node",
    "candidateOsmId": 270938312
  },
  {
    "id": "osm-node-270938320-santa-lucia",
    "name": "Santa Lucia",
    "lat": 47.3700603,
    "lng": 8.5398264,
    "candidateSource": "osm",
    "candidateFoundAt": "2026-02-11",
    "candidateOsmType": "node",
    "candidateOsmId": 270938320,
    "candidateUrl": "https://www.bindella.ch/de/santa-lucia-paradeplatz.html",
    "candidateHours": "Mo-Sa 11:30-22:30; Su off"
  },
  {
    "id": "osm-node-270938366-heugümper",
    "name": "Heugümper",
    "lat": 47.3702715,
    "lng": 8.5401314,
    "candidateSource": "osm",
    "candidateFoundAt": "2026-02-11",
    "candidateOsmType": "node",
    "candidateOsmId": 270938366,
    "candidateUrl": "https://www.restaurantheuguemper.ch/"
  },
  {
    "id": "osm-node-270938371-zunfthaus-zur-waag",
    "name": "Zunfthaus zur Waag",
    "lat": 47.3702401,
    "lng": 8.5403116,
    "candidateSource": "osm",
    "candidateFoundAt": "2026-02-11",
    "candidateOsmType": "node",
    "candidateOsmId": 270938371,
    "candidateUrl": "https://zunfthaus-zur-waag.ch/",
    "candidateHours": "Mo-Sa 11:30-14:00, 18:00-22:00; Nov-Dec Su 11:30-14:00"
  },
  {
    "id": "osm-node-270938393-münsterhöfli",
    "name": "Münsterhöfli",
    "lat": 47.3700175,
    "lng": 8.5403598,
    "candidateSource": "osm",
    "candidateFoundAt": "2026-02-11",
    "candidateOsmType": "node",
    "candidateOsmId": 270938393,
    "candidateUrl": "https://www.muensterhoefli.ch/",
    "candidateHours": "Mo-Fr 11:30-14:00,18:00-24:00, Sa 11:30-24:00"
  },
  {
    "id": "osm-node-270938652-n-n",
    "name": "Ăn Ăn",
    "lat": 47.3693,
    "lng": 8.5405687,
    "candidateSource": "osm",
    "candidateFoundAt": "2026-02-11",
    "candidateOsmType": "node",
    "candidateOsmId": 270938652,
    "candidateUrl": "https://www.anan.ch/",
    "candidateHours": "Mo-Th 10:00-23:00; Fr,Sa 10:00-00:00"
  },
  {
    "id": "osm-node-270938706-milchbar",
    "name": "Milchbar",
    "lat": 47.3689961,
    "lng": 8.5402339,
    "candidateSource": "osm",
    "candidateFoundAt": "2026-02-11",
    "candidateOsmType": "node",
    "candidateOsmId": 270938706,
    "candidateUrl": "https://www.milchbar.ch/"
  },
  {
    "id": "osm-node-270938826-old-fashion-bar",
    "name": "Old Fashion Bar",
    "lat": 47.3686626,
    "lng": 8.5407519,
    "candidateSource": "osm",
    "candidateFoundAt": "2026-02-11",
    "candidateOsmType": "node",
    "candidateOsmId": 270938826,
    "candidateUrl": "https://old-fashion-bar.ch/",
    "candidatePhone": "+41 44 225 18 86",
    "candidateHours": "Mo 11:30-24:00; Tu 11:30-01:00; We-Sa 11:30-02:00"
  },
  {
    "id": "osm-node-271203888-bar-lounge-tietzes",
    "name": "Bar Lounge Tietzes",
    "lat": 47.3440548,
    "lng": 8.5670721,
    "candidateSource": "osm",
    "candidateFoundAt": "2026-02-11",
    "candidateOsmType": "node",
    "candidateOsmId": 271203888,
    "candidateUrl": ""
  },
  {
    "id": "osm-node-272354078-belcafe",
    "name": "Belcafe",
    "lat": 47.3670907,
    "lng": 8.5451486,
    "candidateSource": "osm",
    "candidateFoundAt": "2026-02-11",
    "candidateOsmType": "node",
    "candidateOsmId": 272354078,
    "candidateUrl": "https://www.belcafe.ch/",
    "candidateHours": "Mo-Fr 06:00-21:00; Sa 07:00-21:00"
  },
  {
    "id": "osm-node-281384749-horn",
    "name": "Horn",
    "lat": 47.2108721,
    "lng": 8.7057457,
    "candidateSource": "osm",
    "candidateFoundAt": "2026-02-11",
    "candidateOsmType": "node",
    "candidateOsmId": 281384749
  },
  {
    "id": "osm-node-289669563-il-tartufo",
    "name": "Il Tartufo",
    "lat": 47.360198,
    "lng": 8.5333948,
    "candidateSource": "osm",
    "candidateFoundAt": "2026-02-11",
    "candidateOsmType": "node",
    "candidateOsmId": 289669563,
    "candidateHours": "Mo-Sa 18:00-24:00"
  },
  {
    "id": "osm-node-289669633-l-altro",
    "name": "L'Altro",
    "lat": 47.3600645,
    "lng": 8.5340786,
    "candidateSource": "osm",
    "candidateFoundAt": "2026-02-11",
    "candidateOsmType": "node",
    "candidateOsmId": 289669633,
    "candidateUrl": "https://www.l-altro.ch/",
    "candidateHours": "Mo-Fr 11:30-14:30,18:00-24:00"
  },
  {
    "id": "osm-node-297747293-seebad-enge",
    "name": "Seebad Enge",
    "lat": 47.3617348,
    "lng": 8.5370495,
    "candidateSource": "osm",
    "candidateFoundAt": "2026-02-11",
    "candidateOsmType": "node",
    "candidateOsmId": 297747293,
    "candidateUrl": ""
  },
  {
    "id": "osm-node-308131133-du-lac",
    "name": "Du Lac",
    "lat": 47.2284429,
    "lng": 8.6752832,
    "candidateSource": "osm",
    "candidateFoundAt": "2026-02-11",
    "candidateOsmType": "node",
    "candidateOsmId": 308131133,
    "candidateUrl": "https://dulac-waedenswil.ch/"
  },
  {
    "id": "osm-node-308133192-gambrinus",
    "name": "Gambrinus",
    "lat": 47.2274013,
    "lng": 8.675758,
    "candidateSource": "osm",
    "candidateFoundAt": "2026-02-11",
    "candidateOsmType": "node",
    "candidateOsmId": 308133192
  },
  {
    "id": "osm-node-317774611-karl-der-grosse",
    "name": "Karl der Grosse",
    "lat": 47.3697813,
    "lng": 8.5445846,
    "candidateSource": "osm",
    "candidateFoundAt": "2026-02-11",
    "candidateOsmType": "node",
    "candidateOsmId": 317774611,
    "candidateUrl": "https://www.stadt-zuerich.ch/karldergrosse",
    "candidateHours": "Mo 09:00-17:00; Tu-Fr 09:00-23:00; Sa 11:00-24:00"
  },
  {
    "id": "osm-node-318350213-gasthof-zur-krone",
    "name": "Gasthof zur Krone",
    "lat": 47.3655519,
    "lng": 8.6759618,
    "candidateSource": "osm",
    "candidateFoundAt": "2026-02-11",
    "candidateOsmType": "node",
    "candidateOsmId": 318350213,
    "candidateUrl": "https://www.zur-krone.ch/",
    "candidatePhone": "+41 44 905 46 56",
    "candidateHours": "Mo-Fr 09:00-22:00; Sa-Su,PH 10:00-22:00"
  },
  {
    "id": "osm-node-320149547-moni-hanspi-s-bäsebeiz",
    "name": "Moni + Hanspi's Bäsebeiz",
    "lat": 47.3441046,
    "lng": 8.693592,
    "candidateSource": "osm",
    "candidateFoundAt": "2026-02-11",
    "candidateOsmType": "node",
    "candidateOsmId": 320149547,
    "candidateUrl": "https://www.baesebeiz-uster.ch/",
    "candidateHours": "\"April - August: Samstag, Sonntag ab 12:00 bis Sonnenuntergang bei schönem Wetter geöffnet\""
  },
  {
    "id": "osm-node-370522868-rösslibar",
    "name": "Rösslibar",
    "lat": 47.3692463,
    "lng": 8.5443681,
    "candidateSource": "osm",
    "candidateFoundAt": "2026-02-11",
    "candidateOsmType": "node",
    "candidateOsmId": 370522868,
    "candidateUrl": "https://roessli-bar.ch/",
    "candidateHours": "Tu-We 16:00-23:00, Th-Sa 16:00-24:00; PH off"
  },
  {
    "id": "osm-node-372762306-wöschi",
    "name": "Wöschi",
    "lat": 47.3405767,
    "lng": 8.5381016,
    "candidateSource": "osm",
    "candidateFoundAt": "2026-02-11",
    "candidateOsmType": "node",
    "candidateOsmId": 372762306,
    "candidateUrl": "https://www.woeschi.ch/",
    "candidateHours": "Tu-Sa 18:30-18:00+"
  },
  {
    "id": "osm-node-373522259-frohsinn",
    "name": "Frohsinn",
    "lat": 47.239119,
    "lng": 8.7195317,
    "candidateSource": "osm",
    "candidateFoundAt": "2026-02-11",
    "candidateOsmType": "node",
    "candidateOsmId": 373522259,
    "candidateUrl": "https://www.frohsinn-staefa.ch/",
    "candidatePhone": "+41 44 926 13 40"
  },
  {
    "id": "osm-node-383890175-pieroschka",
    "name": "Pieroschka",
    "lat": 47.2394043,
    "lng": 8.7182034,
    "candidateSource": "osm",
    "candidateFoundAt": "2026-02-11",
    "candidateOsmType": "node",
    "candidateOsmId": 383890175
  },
  {
    "id": "osm-node-383891068-seeperle",
    "name": "Seeperle",
    "lat": 47.2393879,
    "lng": 8.7182767,
    "candidateSource": "osm",
    "candidateFoundAt": "2026-02-11",
    "candidateOsmType": "node",
    "candidateOsmId": 383891068,
    "candidateUrl": "https://seeperle.ch",
    "candidatePhone": "+41 44 926 12 31",
    "candidateHours": "Tu - Sa 17:00 - 23:00"
  },
  {
    "id": "osm-node-383931304-kunming-garten",
    "name": "Kunming Garten",
    "lat": 47.2393541,
    "lng": 8.7183933,
    "candidateSource": "osm",
    "candidateFoundAt": "2026-02-11",
    "candidateOsmType": "node",
    "candidateOsmId": 383931304,
    "candidateUrl": "https://kunminggarten.ch/",
    "candidatePhone": "+41 43 818 05 21",
    "candidateHours": "Tu-Fr 11:30-14:00, 17:30-22:30; Su 11:30-14:00, 17:30-22:30; Sa 17:30-22:30"
  },
  {
    "id": "osm-node-391015242-hafenrestaurant",
    "name": "Hafenrestaurant",
    "lat": 47.1727745,
    "lng": 8.5046063,
    "candidateSource": "osm",
    "candidateFoundAt": "2026-02-11",
    "candidateOsmType": "node",
    "candidateOsmId": 391015242,
    "candidateUrl": "https://www.hafenrestaurant.ch/",
    "candidatePhone": "+41 41 711 90 70",
    "candidateHours": "Mo-Su 08:00-24:00"
  },
  {
    "id": "osm-node-391015244-podium-41",
    "name": "Podium 41",
    "lat": 47.1731574,
    "lng": 8.506438,
    "candidateSource": "osm",
    "candidateFoundAt": "2026-02-11",
    "candidateOsmType": "node",
    "candidateOsmId": 391015244,
    "candidatePhone": "+41 41 710 53 83"
  },
  {
    "id": "osm-node-394039624-flohmi-caf",
    "name": "Flohmi-Cafè",
    "lat": 47.2541869,
    "lng": 8.6907877,
    "candidateSource": "osm",
    "candidateFoundAt": "2026-02-11",
    "candidateOsmType": "node",
    "candidateOsmId": 394039624,
    "candidateUrl": ""
  },
  {
    "id": "osm-node-394039628-choi-s",
    "name": "Choi's",
    "lat": 47.2538901,
    "lng": 8.6902208,
    "candidateSource": "osm",
    "candidateFoundAt": "2026-02-11",
    "candidateOsmType": "node",
    "candidateOsmId": 394039628
  },
  {
    "id": "osm-node-471352741-ristorante-da-mamma-lisetta",
    "name": "Ristorante da Mamma Lisetta",
    "lat": 47.2526815,
    "lng": 8.6916103,
    "candidateSource": "osm",
    "candidateFoundAt": "2026-02-11",
    "candidateOsmType": "node",
    "candidateOsmId": 471352741,
    "candidateUrl": "https://www.damammalisetta.ch",
    "candidatePhone": "+41 44 542 37 74"
  },
  {
    "id": "osm-node-473445115-felix",
    "name": "Felix",
    "lat": 47.3674528,
    "lng": 8.544578,
    "candidateSource": "osm",
    "candidateFoundAt": "2026-02-11",
    "candidateOsmType": "node",
    "candidateOsmId": 473445115,
    "candidateUrl": "https://cafefelix.ch/",
    "candidatePhone": "+41 44 251 80 60",
    "candidateHours": "Mo-Th 09:00-21:00; Fr,Sa 09:00-23:00; Su 09:00-21:00"
  },
  {
    "id": "osm-node-479896030-zehn-eat-shop",
    "name": "Zehn Eat & Shop",
    "lat": 47.2592564,
    "lng": 8.6795228,
    "candidateSource": "osm",
    "candidateFoundAt": "2026-02-11",
    "candidateOsmType": "node",
    "candidateOsmId": 479896030,
    "candidateUrl": "https://www.zehn10.ch/",
    "candidatePhone": "+41 44 920 03 86",
    "candidateHours": "Tu-Sa 10:00-21:00"
  },
  {
    "id": "osm-node-490045540-da-toni",
    "name": "da Toni",
    "lat": 47.3090025,
    "lng": 8.5544369,
    "candidateSource": "osm",
    "candidateFoundAt": "2026-02-11",
    "candidateOsmType": "node",
    "candidateOsmId": 490045540,
    "candidateUrl": "https://www.datoni.ch/",
    "candidatePhone": "+41 44 724 33 32"
  },
  {
    "id": "osm-node-490045543-rose",
    "name": "Rose",
    "lat": 47.3089881,
    "lng": 8.5551974,
    "candidateSource": "osm",
    "candidateFoundAt": "2026-02-11",
    "candidateOsmType": "node",
    "candidateOsmId": 490045543,
    "candidateUrl": "http://die-rose.ch/"
  },
  {
    "id": "osm-node-498851423-engel",
    "name": "Engel",
    "lat": 47.2300568,
    "lng": 8.6745598,
    "candidateSource": "osm",
    "candidateFoundAt": "2026-02-11",
    "candidateOsmType": "node",
    "candidateOsmId": 498851423
  },
  {
    "id": "osm-node-565452540-red-snapper",
    "name": "Red Snapper",
    "lat": 47.2550262,
    "lng": 8.61738,
    "candidateSource": "osm",
    "candidateFoundAt": "2026-02-11",
    "candidateOsmType": "node",
    "candidateOsmId": 565452540,
    "candidateUrl": ""
  },
  {
    "id": "osm-node-566601119-dorfbeiz-schinzenhof",
    "name": "Dorfbeiz Schinzenhof",
    "lat": 47.2604991,
    "lng": 8.5969807,
    "candidateSource": "osm",
    "candidateFoundAt": "2026-02-11",
    "candidateOsmType": "node",
    "candidateOsmId": 566601119,
    "candidateUrl": "https://schinzenhof.ch/"
  },
  {
    "id": "osm-node-571614406-höfli",
    "name": "Höfli",
    "lat": 47.2939363,
    "lng": 8.5673718,
    "candidateSource": "osm",
    "candidateFoundAt": "2026-02-11",
    "candidateOsmType": "node",
    "candidateOsmId": 571614406
  },
  {
    "id": "osm-node-638389142-raffael-s-cafe-bistro",
    "name": "Raffael's Cafe & Bistro",
    "lat": 47.3680759,
    "lng": 8.5453811,
    "candidateSource": "osm",
    "candidateFoundAt": "2026-02-11",
    "candidateOsmType": "node",
    "candidateOsmId": 638389142,
    "candidateUrl": "https://raffaels-cafe.ch/",
    "candidateHours": "Mo-Th,Su 09:00-22:00; Fr-Sa 09:00-24:00"
  },
  {
    "id": "osm-node-638389143-starbucks",
    "name": "Starbucks",
    "lat": 47.3680495,
    "lng": 8.5448701,
    "candidateSource": "osm",
    "candidateFoundAt": "2026-02-11",
    "candidateOsmType": "node",
    "candidateOsmId": 638389143,
    "candidateUrl": "https://www.starbucks.ch/",
    "candidateHours": "Mo-Th 06:30-20:00, Fr 06:30-22:00, Sa 07:00-22:00, Su 08:00-20:00"
  },
  {
    "id": "osm-node-648918654-coco-grill-bar",
    "name": "Coco Grill & Bar",
    "lat": 47.3689525,
    "lng": 8.5384389,
    "candidateSource": "osm",
    "candidateFoundAt": "2026-02-11",
    "candidateOsmType": "node",
    "candidateOsmId": 648918654,
    "candidateUrl": "https://www.restaurant-coco.ch/",
    "candidatePhone": "+41 44 211 98 98",
    "candidateHours": "Mo-Fr 11:30-14:30, Mo-Sa 17:00-24:00"
  },
  {
    "id": "osm-node-781864510-gasthof-seefeld",
    "name": "Gasthof Seefeld",
    "lat": 47.2093645,
    "lng": 8.7956786,
    "candidateSource": "osm",
    "candidateFoundAt": "2026-02-11",
    "candidateOsmType": "node",
    "candidateOsmId": 781864510,
    "candidateUrl": "https://www.gasthofseefeld.ch/",
    "candidateHours": "Mo-Th 17:00-24:00; Fr 17:00-02:00; Sa 16:00-02:00; Su 16:00-23:00"
  },
  {
    "id": "osm-node-789948939-sonderbar",
    "name": "Sonderbar",
    "lat": 47.2092409,
    "lng": 8.7954799,
    "candidateSource": "osm",
    "candidateFoundAt": "2026-02-11",
    "candidateOsmType": "node",
    "candidateOsmId": 789948939,
    "candidateUrl": "https://www.sonderbar-hurden.ch/"
  },
  {
    "id": "osm-node-853017712-obstgarten",
    "name": "Obstgarten",
    "lat": 47.2484185,
    "lng": 8.7080681,
    "candidateSource": "osm",
    "candidateFoundAt": "2026-02-11",
    "candidateOsmType": "node",
    "candidateOsmId": 853017712,
    "candidateHours": "Tu-Su 10:00-14:00,17:00-23:00"
  },
  {
    "id": "osm-node-895750299-le-d-zaley-restaurant-vaudois",
    "name": "Le Dézaley Restaurant Vaudois",
    "lat": 47.3705962,
    "lng": 8.5438655,
    "candidateSource": "osm",
    "candidateFoundAt": "2026-02-11",
    "candidateOsmType": "node",
    "candidateOsmId": 895750299,
    "candidateUrl": "https://le-dezaley.ch/",
    "candidateHours": "Mo-Sa 11:30-14:00,18:00-23:00"
  },
  {
    "id": "osm-node-916616151-tschingg",
    "name": "Tschingg",
    "lat": 47.3682658,
    "lng": 8.5459508,
    "candidateSource": "osm",
    "candidateFoundAt": "2026-02-11",
    "candidateOsmType": "node",
    "candidateOsmId": 916616151,
    "candidateUrl": "https://www.tschingg.eu/",
    "candidatePhone": "+41 43 210 38 08",
    "candidateHours": "Mo-Th 08:00-22:00, Fr 08:00-23:00, Sa 09:00-23:00"
  },
  {
    "id": "osm-node-916945115-wüste",
    "name": "Wüste",
    "lat": 47.3685477,
    "lng": 8.545612,
    "candidateSource": "osm",
    "candidateFoundAt": "2026-02-11",
    "candidateOsmType": "node",
    "candidateOsmId": 916945115,
    "candidateHours": "Mo-Th 17:00-23:30; Fr 17:00-01:00; Sa 14:00-01:30; Su 15:30-22:00"
  },
  {
    "id": "osm-node-955271894-omis-knödel",
    "name": "Omis Knödel",
    "lat": 47.3688689,
    "lng": 8.5454267,
    "candidateSource": "osm",
    "candidateFoundAt": "2026-02-11",
    "candidateOsmType": "node",
    "candidateOsmId": 955271894,
    "candidateHours": "Mo-Fr 10:00-19:00; Sa 10:00-17:00",
    "candidateUrl": ""
  },
  {
    "id": "osm-node-1097023259-le-c-dre",
    "name": "Le Cèdre",
    "lat": 47.3686275,
    "lng": 8.5444063,
    "candidateSource": "osm",
    "candidateFoundAt": "2026-02-11",
    "candidateOsmType": "node",
    "candidateOsmId": 1097023259,
    "candidateUrl": "https://libanesisch.ch/",
    "candidatePhone": "+41 44 252 83 70",
    "candidateHours": "Mo-Fr 11:30-15:00,18:00-24:00; Sa-Su 11:30-16:00,18:00-24:00"
  },
  {
    "id": "osm-node-1101695279-k-d-sushi",
    "name": "K&D Sushi",
    "lat": 47.2530175,
    "lng": 8.6955695,
    "candidateSource": "osm",
    "candidateFoundAt": "2026-02-11",
    "candidateOsmType": "node",
    "candidateOsmId": 1101695279,
    "candidateUrl": "https://kd-sushi.ch",
    "candidatePhone": "+41449205858"
  },
  {
    "id": "osm-node-1115159233-savoy-brasserie-bar",
    "name": "Savoy Brasserie & Bar",
    "lat": 47.3699603,
    "lng": 8.5396803,
    "candidateSource": "osm",
    "candidateFoundAt": "2026-02-11",
    "candidateOsmType": "node",
    "candidateOsmId": 1115159233,
    "candidateHours": "10:00-22:00",
    "candidateUrl": ""
  },
  {
    "id": "osm-node-1115940440-il-pappagallo",
    "name": "il pappagallo",
    "lat": 47.269858,
    "lng": 8.5860939,
    "candidateSource": "osm",
    "candidateFoundAt": "2026-02-11",
    "candidateOsmType": "node",
    "candidateOsmId": 1115940440
  },
  {
    "id": "osm-node-1140728143-seebad-richterswil",
    "name": "Seebad Richterswil",
    "lat": 47.2065029,
    "lng": 8.7109242,
    "candidateSource": "osm",
    "candidateFoundAt": "2026-02-11",
    "candidateOsmType": "node",
    "candidateOsmId": 1140728143,
    "candidateUrl": ""
  },
  {
    "id": "osm-node-1143290252-vapiano",
    "name": "Vapiano",
    "lat": 47.3677218,
    "lng": 8.5461444,
    "candidateSource": "osm",
    "candidateFoundAt": "2026-02-11",
    "candidateOsmType": "node",
    "candidateOsmId": 1143290252,
    "candidatePhone": "+41 44 252 00 62",
    "candidateHours": "Mo-Th 11:00-23:00; Fr,Sa 11:00-24:00; Su,PH 11:00-23:00"
  },
  {
    "id": "osm-node-1333805241-gasthaus-zum-rathaus",
    "name": "Gasthaus zum Rathaus",
    "lat": 47.2058815,
    "lng": 8.7748146,
    "candidateSource": "osm",
    "candidateFoundAt": "2026-02-11",
    "candidateOsmType": "node",
    "candidateOsmId": 1333805241,
    "candidateUrl": "https://www.zumrathaus.ch/"
  },
  {
    "id": "osm-node-1536879938-peking-garden",
    "name": "Peking Garden",
    "lat": 47.3474258,
    "lng": 8.5334884,
    "candidateSource": "osm",
    "candidateFoundAt": "2026-02-11",
    "candidateOsmType": "node",
    "candidateOsmId": 1536879938,
    "candidateUrl": "https://www.peking-garden.ch/pg_restaurant/zuerich-wollishofen/",
    "candidatePhone": "+41 44 228 78 78",
    "candidateHours": "Mo-Su,PH 11:00-23:00"
  },
  {
    "id": "osm-node-1658173663-drei-könige",
    "name": "Drei Könige",
    "lat": 47.20916,
    "lng": 8.7057742,
    "candidateSource": "osm",
    "candidateFoundAt": "2026-02-11",
    "candidateOsmType": "node",
    "candidateOsmId": 1658173663,
    "candidateUrl": ""
  },
  {
    "id": "osm-node-1666425551-gartenhof-testarossa",
    "name": "Gartenhof Testarossa",
    "lat": 47.2066966,
    "lng": 8.7086953,
    "candidateSource": "osm",
    "candidateFoundAt": "2026-02-11",
    "candidateOsmType": "node",
    "candidateOsmId": 1666425551,
    "candidateHours": "Mo 08:45-24:00; We-Fr 08:45-24:00; Sa 10:00-24:00; Su 10:00-22:30",
    "candidateUrl": ""
  },
  {
    "id": "osm-node-1666425557-national",
    "name": "National",
    "lat": 47.2062785,
    "lng": 8.7066714,
    "candidateSource": "osm",
    "candidateFoundAt": "2026-02-11",
    "candidateOsmType": "node",
    "candidateOsmId": 1666425557,
    "candidateHours": "Tu-Fr 15:00-24:00; Sa 11:00-23:00"
  },
  {
    "id": "osm-node-1666425563-richtibistro",
    "name": "Richtibistro",
    "lat": 47.2063408,
    "lng": 8.7058901,
    "candidateSource": "osm",
    "candidateFoundAt": "2026-02-11",
    "candidateOsmType": "node",
    "candidateOsmId": 1666425563
  },
  {
    "id": "osm-node-1666425566-spanische-weinhalle",
    "name": "Spanische Weinhalle",
    "lat": 47.2085043,
    "lng": 8.7045348,
    "candidateSource": "osm",
    "candidateFoundAt": "2026-02-11",
    "candidateOsmType": "node",
    "candidateOsmId": 1666425566,
    "candidateUrl": ""
  },
  {
    "id": "osm-node-1666425578-spielhof",
    "name": "Spielhof",
    "lat": 47.2076269,
    "lng": 8.7047862,
    "candidateSource": "osm",
    "candidateFoundAt": "2026-02-11",
    "candidateOsmType": "node",
    "candidateOsmId": 1666425578
  },
  {
    "id": "osm-node-1666466304-rondell-bar",
    "name": "Rondell Bar",
    "lat": 47.2052324,
    "lng": 8.7071242,
    "candidateSource": "osm",
    "candidateFoundAt": "2026-02-11",
    "candidateOsmType": "node",
    "candidateOsmId": 1666466304,
    "candidateUrl": "https://rondell-bar.ch/",
    "candidatePhone": "+41 44 542 80 99",
    "candidateHours": "Mo-Th 16:00-24:00; Fr-Sa 16:00-03:00; PH unknown"
  },
  {
    "id": "osm-node-1702790571-cortali",
    "name": "Cortali",
    "lat": 47.2557549,
    "lng": 8.6895976,
    "candidateSource": "osm",
    "candidateFoundAt": "2026-02-11",
    "candidateOsmType": "node",
    "candidateOsmId": 1702790571,
    "candidateHours": "Mo-Fr 11:00-13:30,17:00-22:00; Sa off; Su 17:00-22:00"
  },
  {
    "id": "osm-node-1702790593-krug",
    "name": "Krug",
    "lat": 47.2560845,
    "lng": 8.6891598,
    "candidateSource": "osm",
    "candidateFoundAt": "2026-02-11",
    "candidateOsmType": "node",
    "candidateOsmId": 1702790593
  },
  {
    "id": "osm-node-1828780522-suan-long",
    "name": "Suan Long",
    "lat": 47.2294853,
    "lng": 8.6743778,
    "candidateSource": "osm",
    "candidateFoundAt": "2026-02-11",
    "candidateOsmType": "node",
    "candidateOsmId": 1828780522,
    "candidateUrl": "https://suan-long.ch/suanlong/",
    "candidatePhone": "+41 43 477 86 86",
    "candidateHours": "Tu-Su 11:30-22:00; Sa 09:00-17:00; PH closed"
  },
  {
    "id": "osm-node-1833202393-momo-house",
    "name": "Momo House",
    "lat": 47.2310418,
    "lng": 8.6726408,
    "candidateSource": "osm",
    "candidateFoundAt": "2026-02-11",
    "candidateOsmType": "node",
    "candidateOsmId": 1833202393,
    "candidateUrl": ""
  },
  {
    "id": "osm-node-1925327659-restaurant-taverne-schwan",
    "name": "Restaurant Taverne Schwan",
    "lat": 47.2596655,
    "lng": 8.5983793,
    "candidateSource": "osm",
    "candidateFoundAt": "2026-02-11",
    "candidateOsmType": "node",
    "candidateOsmId": 1925327659,
    "candidateUrl": "https://hotel-schwan.ch/"
  },
  {
    "id": "osm-node-2042578458-canton",
    "name": "Canton",
    "lat": 47.3094947,
    "lng": 8.5564615,
    "candidateSource": "osm",
    "candidateFoundAt": "2026-02-11",
    "candidateOsmType": "node",
    "candidateOsmId": 2042578458
  },
  {
    "id": "osm-node-2282418504-kafisatz",
    "name": "Kafisatz",
    "lat": 47.2294774,
    "lng": 8.6719976,
    "candidateSource": "osm",
    "candidateFoundAt": "2026-02-11",
    "candidateOsmType": "node",
    "candidateOsmId": 2282418504,
    "candidateUrl": "https://www.kafi-satz.ch/",
    "candidatePhone": "+41447800203",
    "candidateHours": "Mo-Fr 08:30-18:00; Sa 08:00-16:00"
  },
  {
    "id": "osm-node-2282422912-triibhuus-waedi",
    "name": "Triibhuus Waedi",
    "lat": 47.2289978,
    "lng": 8.6719045,
    "candidateSource": "osm",
    "candidateFoundAt": "2026-02-11",
    "candidateOsmType": "node",
    "candidateOsmId": 2282422912,
    "candidateUrl": "https://triibhuus-waedi.ch/",
    "candidateHours": "Tu-Sa 08:30-20:00"
  },
  {
    "id": "osm-node-2309508931-parkrestaurant",
    "name": "Parkrestaurant",
    "lat": 47.2697258,
    "lng": 8.638781,
    "candidateSource": "osm",
    "candidateFoundAt": "2026-02-11",
    "candidateOsmType": "node",
    "candidateOsmId": 2309508931
  },
  {
    "id": "osm-node-2341890285-presse-club",
    "name": "Presse Club",
    "lat": 47.3704129,
    "lng": 8.5410105,
    "candidateSource": "osm",
    "candidateFoundAt": "2026-02-11",
    "candidateOsmType": "node",
    "candidateOsmId": 2341890285,
    "candidateUrl": ""
  },
  {
    "id": "osm-node-2420574766-carpe-diem",
    "name": "Carpe Diem",
    "lat": 47.228755,
    "lng": 8.6749297,
    "candidateSource": "osm",
    "candidateFoundAt": "2026-02-11",
    "candidateOsmType": "node",
    "candidateOsmId": 2420574766,
    "candidateUrl": ""
  },
  {
    "id": "osm-node-2603710987-l-o",
    "name": "L'O",
    "lat": 47.2612888,
    "lng": 8.5999814,
    "candidateSource": "osm",
    "candidateFoundAt": "2026-02-11",
    "candidateOsmType": "node",
    "candidateOsmId": 2603710987,
    "candidateUrl": "https://www.lo-horgen.ch/",
    "candidateHours": "Mo-Su 11:00-24:00"
  },
  {
    "id": "osm-node-2628241308-chez-fritz",
    "name": "Chez Fritz",
    "lat": 47.319388,
    "lng": 8.5530944,
    "candidateSource": "osm",
    "candidateFoundAt": "2026-02-11",
    "candidateOsmType": "node",
    "candidateOsmId": 2628241308,
    "candidateUrl": "https://chezfritz.ch/",
    "candidatePhone": "+41 44 715 25 15",
    "candidateHours": "Mo-Su 11:30-23:00"
  },
  {
    "id": "osm-node-2727603961-moment",
    "name": "Moment",
    "lat": 47.2397622,
    "lng": 8.7177299,
    "candidateSource": "osm",
    "candidateFoundAt": "2026-02-11",
    "candidateOsmType": "node",
    "candidateOsmId": 2727603961
  },
  {
    "id": "osm-node-2728409574-schützenhaus",
    "name": "Schützenhaus",
    "lat": 47.2388812,
    "lng": 8.7186631,
    "candidateSource": "osm",
    "candidateFoundAt": "2026-02-11",
    "candidateOsmType": "node",
    "candidateOsmId": 2728409574,
    "candidateUrl": "https://www.schuetzenhaus-staefa.ch/",
    "candidatePhone": "+41 44 926 13 58"
  },
  {
    "id": "osm-node-2767834796-chrotte-bar",
    "name": "Chrotte Bar",
    "lat": 47.2597134,
    "lng": 8.597631,
    "candidateSource": "osm",
    "candidateFoundAt": "2026-02-11",
    "candidateOsmType": "node",
    "candidateOsmId": 2767834796,
    "candidateUrl": ""
  },
  {
    "id": "osm-node-2767834817-piccolino",
    "name": "Piccolino",
    "lat": 47.2598305,
    "lng": 8.5984419,
    "candidateSource": "osm",
    "candidateFoundAt": "2026-02-11",
    "candidateOsmType": "node",
    "candidateOsmId": 2767834817
  },
  {
    "id": "osm-node-2961094562-falafilo",
    "name": "Falafilo",
    "lat": 47.2296204,
    "lng": 8.6721905,
    "candidateSource": "osm",
    "candidateFoundAt": "2026-02-11",
    "candidateOsmType": "node",
    "candidateOsmId": 2961094562,
    "candidateUrl": "https://falafilowädenswil.com/",
    "candidatePhone": "+41445548820",
    "candidateHours": "Tu-Sa 08:00-22:00; Su 10:00-22:00"
  },
  {
    "id": "osm-node-2998551177-weinstube",
    "name": "Weinstube",
    "lat": 47.2044764,
    "lng": 8.7339718,
    "candidateSource": "osm",
    "candidateFoundAt": "2026-02-11",
    "candidateOsmType": "node",
    "candidateOsmId": 2998551177
  },
  {
    "id": "osm-node-3007432533-sayori-japan",
    "name": "Sayori (Japan)",
    "lat": 47.2037076,
    "lng": 8.7897841,
    "candidateSource": "osm",
    "candidateFoundAt": "2026-02-11",
    "candidateOsmType": "node",
    "candidateOsmId": 3007432533,
    "candidateUrl": ""
  },
  {
    "id": "osm-node-3315186412-seidenhof-cafe",
    "name": "Seidenhof-Cafe",
    "lat": 47.2410726,
    "lng": 8.7191618,
    "candidateSource": "osm",
    "candidateFoundAt": "2026-02-11",
    "candidateOsmType": "node",
    "candidateOsmId": 3315186412,
    "candidateUrl": ""
  },
  {
    "id": "osm-node-3327477870-big-burger",
    "name": "Big Burger",
    "lat": 47.2531404,
    "lng": 8.6899729,
    "candidateSource": "osm",
    "candidateFoundAt": "2026-02-11",
    "candidateOsmType": "node",
    "candidateOsmId": 3327477870,
    "candidateUrl": "https://bigburger.ch/diner-maennedorf/"
  },
  {
    "id": "osm-node-3327477872-schiff-bar",
    "name": "Schiff-Bar",
    "lat": 47.253176,
    "lng": 8.6898906,
    "candidateSource": "osm",
    "candidateFoundAt": "2026-02-11",
    "candidateOsmType": "node",
    "candidateOsmId": 3327477872,
    "candidateHours": "Tu-Th 17:00-24:00; Fr-Sa 17:00-02:00",
    "candidateUrl": ""
  },
  {
    "id": "osm-node-3392527128-springbok-bar-caf",
    "name": "Springbok Bar & Café",
    "lat": 47.2295188,
    "lng": 8.6737232,
    "candidateSource": "osm",
    "candidateFoundAt": "2026-02-11",
    "candidateOsmType": "node",
    "candidateOsmId": 3392527128,
    "candidateUrl": ""
  },
  {
    "id": "osm-node-3536033983-ban-song-thai",
    "name": "Ban Song Thai",
    "lat": 47.3694128,
    "lng": 8.5442106,
    "candidateSource": "osm",
    "candidateFoundAt": "2026-02-11",
    "candidateOsmType": "node",
    "candidateOsmId": 3536033983,
    "candidateUrl": "https://www.bansongthai.ch/",
    "candidateHours": "Mo,Su off; Tu-Fr 11:30-14:00,18:00-23:00; Sa 18:00-23:00"
  },
  {
    "id": "osm-node-3581352897-la-zagra",
    "name": "La Zagra",
    "lat": 47.3488821,
    "lng": 8.5633128,
    "candidateSource": "osm",
    "candidateFoundAt": "2026-02-11",
    "candidateOsmType": "node",
    "candidateOsmId": 3581352897,
    "candidateUrl": "https://www.la-zagra.ch/",
    "candidatePhone": "+41 44 550 40 00",
    "candidateHours": "Mo-Sa 11:30-15:00,18:00-24:00"
  },
  {
    "id": "osm-node-3645780493-belpaese",
    "name": "Belpaese",
    "lat": 47.3703053,
    "lng": 8.5404813,
    "candidateSource": "osm",
    "candidateFoundAt": "2026-02-11",
    "candidateOsmType": "node",
    "candidateOsmId": 3645780493,
    "candidateUrl": "https://caffebelpaese.ch/",
    "candidatePhone": "+41 43 344 80 69",
    "candidateHours": "Mo-Th,Su 07:00-20:00; Fr-Sa 07:00-22:00"
  },
  {
    "id": "osm-node-3706821346-pavillon",
    "name": "Pavillon",
    "lat": 47.3666913,
    "lng": 8.539431,
    "candidateSource": "osm",
    "candidateFoundAt": "2026-02-11",
    "candidateOsmType": "node",
    "candidateOsmId": 3706821346,
    "candidateUrl": "https://www.aupavillon.ch/",
    "candidatePhone": "+41 44 220 50 22"
  },
  {
    "id": "osm-node-3760108062-le-pli-22",
    "name": "Le Pli 22",
    "lat": 47.3689066,
    "lng": 8.5453544,
    "candidateSource": "osm",
    "candidateFoundAt": "2026-02-11",
    "candidateOsmType": "node",
    "candidateOsmId": 3760108062,
    "candidateHours": "Mo-Fr 10:00-19:00; Sa 10:00-17:00"
  },
  {
    "id": "osm-node-3781882499-zimkaffee",
    "name": "Zimkaffee",
    "lat": 47.3681004,
    "lng": 8.545484,
    "candidateSource": "osm",
    "candidateFoundAt": "2026-02-11",
    "candidateOsmType": "node",
    "candidateOsmId": 3781882499,
    "candidateHours": "Mo 09:00-18:00; Tu 09:00-21:00; We,Th 09:00-21:45; Fr,Sa 09:00-22:00; Su 11:00-19:45"
  },
  {
    "id": "osm-node-3875945857-metropol",
    "name": "Metropol",
    "lat": 47.3684217,
    "lng": 8.5411604,
    "candidateSource": "osm",
    "candidateFoundAt": "2026-02-11",
    "candidateOsmType": "node",
    "candidateOsmId": 3875945857,
    "candidateUrl": "https://metropol-restaurant.ch/",
    "candidateHours": "Mo-Sa 11:00-23:00; PH,Su closed"
  },
  {
    "id": "osm-node-3926088056-burgermeister",
    "name": "Burgermeister",
    "lat": 47.3684514,
    "lng": 8.5458392,
    "candidateSource": "osm",
    "candidateFoundAt": "2026-02-11",
    "candidateOsmType": "node",
    "candidateOsmId": 3926088056,
    "candidateUrl": "https://www.burger-meister.ch/",
    "candidateHours": "Mo-Th 11:30-22:00; Fr-Sa 11:30-22:30; Su 12:00-21:00; PH closed"
  },
  {
    "id": "osm-node-4059724392-seedamm-plaza",
    "name": "SEEDAMM PLAZA",
    "lat": 47.2033602,
    "lng": 8.7899276,
    "candidateSource": "osm",
    "candidateFoundAt": "2026-02-11",
    "candidateOsmType": "node",
    "candidateOsmId": 4059724392,
    "candidateUrl": "https://seedamm-plaza.ch/",
    "candidatePhone": "+41 55 417 17 17"
  },
  {
    "id": "osm-node-4107873890-vicafe",
    "name": "ViCafe",
    "lat": 47.3668448,
    "lng": 8.5460813,
    "candidateSource": "osm",
    "candidateFoundAt": "2026-02-11",
    "candidateOsmType": "node",
    "candidateOsmId": 4107873890,
    "candidateUrl": "https://vicafe.ch/zuerich/",
    "candidateHours": "Mo-Fr 06:30-18:00; Sa 08:00-18:00; Su 08:00-18:00"
  },
  {
    "id": "osm-node-4237470091-baur-s",
    "name": "Baur's",
    "lat": 47.3676177,
    "lng": 8.5391297,
    "candidateSource": "osm",
    "candidateFoundAt": "2026-02-11",
    "candidateOsmType": "node",
    "candidateOsmId": 4237470091
  },
  {
    "id": "osm-node-4237477890-the-red-room",
    "name": "The Red Room",
    "lat": 47.3687998,
    "lng": 8.5384032,
    "candidateSource": "osm",
    "candidateFoundAt": "2026-02-11",
    "candidateOsmType": "node",
    "candidateOsmId": 4237477890,
    "candidateUrl": ""
  },
  {
    "id": "osm-node-4342292968-steiner",
    "name": "Steiner",
    "lat": 47.2551884,
    "lng": 8.6900937,
    "candidateSource": "osm",
    "candidateFoundAt": "2026-02-11",
    "candidateOsmType": "node",
    "candidateOsmId": 4342292968,
    "candidateUrl": "https://www.steiner-beck.ch/filialen/maennedorf/",
    "candidateHours": "Mo-Fr 06:30-18:30; Sa 07:00-16:30; Su 07:30-16:00"
  },
  {
    "id": "osm-node-4362133521-seerestaurant-steinburg",
    "name": "Seerestaurant Steinburg",
    "lat": 47.3204337,
    "lng": 8.5786242,
    "candidateSource": "osm",
    "candidateFoundAt": "2026-02-11",
    "candidateOsmType": "node",
    "candidateOsmId": 4362133521,
    "candidateUrl": "https://seerestaurant-steinburg.ch/",
    "candidatePhone": "+41449100638",
    "candidateHours": "Tu-Sa 17:30-23:00"
  },
  {
    "id": "osm-node-4602150493-sea-thai-take-away",
    "name": "Sea Thai Take Away",
    "lat": 47.2274918,
    "lng": 8.6756562,
    "candidateSource": "osm",
    "candidateFoundAt": "2026-02-11",
    "candidateOsmType": "node",
    "candidateOsmId": 4602150493,
    "candidateUrl": "https://www.seathai.ch/",
    "candidatePhone": "+41 43 477 92 53",
    "candidateHours": "Mo-Th 11:00-14:00,18:00-21:00; Fr 11:00-14:00,18:00-23:00; Sa 18:00-23:00"
  },
  {
    "id": "osm-node-4732388222-zunfthaus-zur-zimmerleuten",
    "name": "Zunfthaus zur Zimmerleuten",
    "lat": 47.3706365,
    "lng": 8.5432314,
    "candidateSource": "osm",
    "candidateFoundAt": "2026-02-11",
    "candidateOsmType": "node",
    "candidateOsmId": 4732388222,
    "candidateUrl": "https://zunfthaus-zimmerleuten.ch/",
    "candidateHours": "Mo-Su 11:30-23:30"
  },
  {
    "id": "osm-node-4773455116-il-gattopardo",
    "name": "Il Gattopardo",
    "lat": 47.3692887,
    "lng": 8.5444905,
    "candidateSource": "osm",
    "candidateFoundAt": "2026-02-11",
    "candidateOsmType": "node",
    "candidateOsmId": 4773455116,
    "candidateUrl": "https://www.ilgattopardo.ch/",
    "candidateHours": "Tu-Fr 12:00-14:30, Mo-Sa 18:00-24:00"
  },
  {
    "id": "osm-node-4833061571-restaurant-kiosk",
    "name": "Restaurant Kiosk",
    "lat": 47.358135,
    "lng": 8.5478933,
    "candidateSource": "osm",
    "candidateFoundAt": "2026-02-11",
    "candidateOsmType": "node",
    "candidateOsmId": 4833061571,
    "candidateUrl": "https://restaurant-kiosk.ch/",
    "candidateHours": "Mo-Su 10:00-17:00"
  },
  {
    "id": "osm-node-4833061579-terrasse-bar-lounge",
    "name": "Terrasse Bar & Lounge",
    "lat": 47.3677777,
    "lng": 8.5444838,
    "candidateSource": "osm",
    "candidateFoundAt": "2026-02-11",
    "candidateOsmType": "node",
    "candidateOsmId": 4833061579,
    "candidateUrl": "https://www.bindella.ch/de/terrasse-bar-lounge.html",
    "candidatePhone": "+41 44 251 10 74",
    "candidateHours": "Su-Tu 10:00-24:00; We 10:00-01:00; Th-Sa 10:00-02:00"
  },
  {
    "id": "osm-node-4860115691-sprüngli-caf-restaurant",
    "name": "Sprüngli Café & Restaurant",
    "lat": 47.3693224,
    "lng": 8.5392118,
    "candidateSource": "osm",
    "candidateFoundAt": "2026-02-11",
    "candidateOsmType": "node",
    "candidateOsmId": 4860115691,
    "candidateUrl": "https://www.spruengli.ch",
    "candidateHours": "Mo-Fr 07:00-18:30; Sa 08:00-18:00; Su 09:30-17:30"
  },
  {
    "id": "osm-node-4860115709-sternen-grill",
    "name": "Sternen Grill",
    "lat": 47.3672776,
    "lng": 8.5455633,
    "candidateSource": "osm",
    "candidateFoundAt": "2026-02-11",
    "candidateOsmType": "node",
    "candidateOsmId": 4860115709,
    "candidateUrl": "https://www.sternengrill.ch/",
    "candidateHours": "Mo-Su 11:30-22:00"
  },
  {
    "id": "osm-node-4992787031-joe-the-juice",
    "name": "Joe & The Juice",
    "lat": 47.3689901,
    "lng": 8.5442728,
    "candidateSource": "osm",
    "candidateFoundAt": "2026-02-11",
    "candidateOsmType": "node",
    "candidateOsmId": 4992787031,
    "candidateUrl": "https://www.joejuice.com/menu/ch",
    "candidateHours": "Mo-Sa 08:00-20:00; Su 09:00-20:00; PH closed"
  },
  {
    "id": "osm-node-5107045693-sonne",
    "name": "Sonne",
    "lat": 47.2394606,
    "lng": 8.718053,
    "candidateSource": "osm",
    "candidateFoundAt": "2026-02-11",
    "candidateOsmType": "node",
    "candidateOsmId": 5107045693,
    "candidateUrl": "http://www.sonnestaefa.ch/",
    "candidatePhone": "+41 43 477 10 10",
    "candidateHours": "Tu-Sa 07:00-14:00, 18:00-22:00"
  },
  {
    "id": "osm-node-5188820684-la-fontana-uno",
    "name": "La Fontana Uno",
    "lat": 47.2596526,
    "lng": 8.5979893,
    "candidateSource": "osm",
    "candidateFoundAt": "2026-02-11",
    "candidateOsmType": "node",
    "candidateOsmId": 5188820684,
    "candidateUrl": "http://www.lafontanauno.ch/",
    "candidatePhone": "+41 44 725 83 80",
    "candidateHours": "Mo-Sa 10:00-14:00, 17:00-23:00"
  },
  {
    "id": "osm-node-5191720428-alte-schule",
    "name": "Alte Schule",
    "lat": 47.2604779,
    "lng": 8.5963352,
    "candidateSource": "osm",
    "candidateFoundAt": "2026-02-11",
    "candidateOsmType": "node",
    "candidateOsmId": 5191720428,
    "candidateUrl": ""
  },
  {
    "id": "osm-node-5301253159-spice-village",
    "name": "Spice Village",
    "lat": 47.2571539,
    "lng": 8.6838301,
    "candidateSource": "osm",
    "candidateFoundAt": "2026-02-11",
    "candidateOsmType": "node",
    "candidateOsmId": 5301253159,
    "candidateUrl": "https://spicevillage.ch/",
    "candidatePhone": "+41 43 539 51 10",
    "candidateHours": "Mo-Fr 11:00-14:00,17:30-23:00; Sa-Su 17:00-23:00"
  },
  {
    "id": "osm-node-5663143938-john-baker",
    "name": "John Baker",
    "lat": 47.368301,
    "lng": 8.5395473,
    "candidateSource": "osm",
    "candidateFoundAt": "2026-02-11",
    "candidateOsmType": "node",
    "candidateOsmId": 5663143938,
    "candidateUrl": "https://johnbaker.ch/bahnhofst/",
    "candidateHours": "Mo-Fr 07:00-18:30; Sa 08:00-17:00"
  },
  {
    "id": "osm-node-5671911321-restaurant-seeli",
    "name": "Restaurant Seeli",
    "lat": 47.2046299,
    "lng": 8.7394871,
    "candidateSource": "osm",
    "candidateFoundAt": "2026-02-11",
    "candidateOsmType": "node",
    "candidateOsmId": 5671911321,
    "candidateUrl": ""
  },
  {
    "id": "osm-node-5677763325-gz-wollishofen-bistro-am-see",
    "name": "GZ Wollishofen Bistro am See",
    "lat": 47.3450557,
    "lng": 8.5358337,
    "candidateSource": "osm",
    "candidateFoundAt": "2026-02-11",
    "candidateOsmType": "node",
    "candidateOsmId": 5677763325,
    "candidateHours": "Su-Fr 11:00-18:00; Sa 11:00-18:00 \"bei trockenem Wetter\"",
    "candidateUrl": ""
  },
  {
    "id": "osm-node-5732101244-sonnengalerie",
    "name": "Sonnengalerie",
    "lat": 47.3191884,
    "lng": 8.578779,
    "candidateSource": "osm",
    "candidateFoundAt": "2026-02-11",
    "candidateOsmType": "node",
    "candidateOsmId": 5732101244,
    "candidateUrl": "https://sonne.ch/de/Restaurant-und-Bar#gourmetrestaurant",
    "candidatePhone": "+41 44 914 18 18",
    "candidateHours": "12:00-13:45,18:00-22:00"
  },
  {
    "id": "osm-node-5732101245-sonne-gaststuben",
    "name": "Sonne Gaststuben",
    "lat": 47.3191284,
    "lng": 8.578846,
    "candidateSource": "osm",
    "candidateFoundAt": "2026-02-11",
    "candidateOsmType": "node",
    "candidateOsmId": 5732101245,
    "candidateUrl": "https://sonne.ch/de/Restaurant-und-Bar#gaststube",
    "candidatePhone": "+41 44 914 18 18"
  },
  {
    "id": "osm-node-5732101246-turmbar",
    "name": "Turmbar",
    "lat": 47.319026,
    "lng": 8.5786573,
    "candidateSource": "osm",
    "candidateFoundAt": "2026-02-11",
    "candidateOsmType": "node",
    "candidateOsmId": 5732101246,
    "candidateUrl": "https://sonne.ch/de/Restaurant-und-Bar#turmbar"
  },
  {
    "id": "osm-node-5736598489-barfussbar",
    "name": "Barfussbar",
    "lat": 47.3684502,
    "lng": 8.5420327,
    "candidateSource": "osm",
    "candidateFoundAt": "2026-02-11",
    "candidateOsmType": "node",
    "candidateOsmId": 5736598489,
    "candidateUrl": "https://barfussbar.ch/",
    "candidatePhone": "+41 44 251 33 31",
    "candidateHours": "20:00-24:00; Mo off"
  },
  {
    "id": "osm-node-5803468781-pizzeria-bahnhöfli",
    "name": "Pizzeria Bahnhöfli",
    "lat": 47.3188004,
    "lng": 8.5802719,
    "candidateSource": "osm",
    "candidateFoundAt": "2026-02-11",
    "candidateOsmType": "node",
    "candidateOsmId": 5803468781,
    "candidateUrl": ""
  },
  {
    "id": "osm-node-5894361739-mile",
    "name": "Émile",
    "lat": 47.367541,
    "lng": 8.5398194,
    "candidateSource": "osm",
    "candidateFoundAt": "2026-02-11",
    "candidateOsmType": "node",
    "candidateOsmId": 5894361739,
    "candidateUrl": "https://www.emile-restaurant.ch/",
    "candidateHours": "Mo-Sa 07:30-00:00"
  },
  {
    "id": "osm-node-6163710221-freihof",
    "name": "Freihof",
    "lat": 47.2594284,
    "lng": 8.5978585,
    "candidateSource": "osm",
    "candidateFoundAt": "2026-02-11",
    "candidateOsmType": "node",
    "candidateOsmId": 6163710221,
    "candidateUrl": "https://freihof-horgen.ch",
    "candidatePhone": "+41 44 725 44 34"
  },
  {
    "id": "osm-node-6163714545-everest-momo",
    "name": "Everest Momo",
    "lat": 47.2596108,
    "lng": 8.5986692,
    "candidateSource": "osm",
    "candidateFoundAt": "2026-02-11",
    "candidateOsmType": "node",
    "candidateOsmId": 6163714545,
    "candidateUrl": ""
  },
  {
    "id": "osm-node-6172794895-momomo",
    "name": "Momomo",
    "lat": 47.2605962,
    "lng": 8.5990434,
    "candidateSource": "osm",
    "candidateFoundAt": "2026-02-11",
    "candidateOsmType": "node",
    "candidateOsmId": 6172794895,
    "candidateUrl": "https://momomo.ch/",
    "candidatePhone": "+41 43 810 43 31"
  },
  {
    "id": "osm-node-6176259517-gigi",
    "name": "GiGi",
    "lat": 47.2594575,
    "lng": 8.5978033,
    "candidateSource": "osm",
    "candidateFoundAt": "2026-02-11",
    "candidateOsmType": "node",
    "candidateOsmId": 6176259517
  },
  {
    "id": "osm-node-6549508262-le-relais-de-l-entrec-te",
    "name": "Le Relais de l'Entrecôte",
    "lat": 47.3705792,
    "lng": 8.5406702,
    "candidateSource": "osm",
    "candidateFoundAt": "2026-02-11",
    "candidateOsmType": "node",
    "candidateOsmId": 6549508262,
    "candidateUrl": "https://www.relaisentrecote.fr/",
    "candidateHours": "Mo-Fr 11:30-14:30,18:00-22:00; Sa,Su 12:00-14:45,18:00-22:00"
  },
  {
    "id": "osm-node-6657221623-indigo",
    "name": "Indigo",
    "lat": 47.3269647,
    "lng": 8.5744946,
    "candidateSource": "osm",
    "candidateFoundAt": "2026-02-11",
    "candidateOsmType": "node",
    "candidateOsmId": 6657221623,
    "candidateUrl": "https://www.zfv.ch/de/essen-gehen/restaurant-indigo",
    "candidatePhone": "+41 44 991 32 40",
    "candidateHours": "Mo-Fr 08:00-14:00"
  },
  {
    "id": "osm-node-6676069829-lokma",
    "name": "Lokma",
    "lat": 47.2270605,
    "lng": 8.6765817,
    "candidateSource": "osm",
    "candidateFoundAt": "2026-02-11",
    "candidateOsmType": "node",
    "candidateOsmId": 6676069829,
    "candidateUrl": "https://www.restaurant-lokma.ch/",
    "candidatePhone": "+41435576058",
    "candidateHours": "Mo-Th 11:00-14:00,17:00-22:00; Fr-Sa 17:00-23:00; Su 17:00-22:00"
  },
  {
    "id": "osm-node-6830405408-williams-butcherstable",
    "name": "Williams ButchersTable",
    "lat": 47.3682436,
    "lng": 8.5450622,
    "candidateSource": "osm",
    "candidateFoundAt": "2026-02-11",
    "candidateOsmType": "node",
    "candidateOsmId": 6830405408,
    "candidateUrl": "https://www.williamsbutcherstable.ch/",
    "candidatePhone": "+41 44 506 75 06",
    "candidateHours": "Mo-Fr 11:00-14:00,17:00-24:00; Sa 11:00-24:00"
  },
  {
    "id": "osm-node-7230314197-bro-01",
    "name": "Bro 01",
    "lat": 47.2273208,
    "lng": 8.6760163,
    "candidateSource": "osm",
    "candidateFoundAt": "2026-02-11",
    "candidateOsmType": "node",
    "candidateOsmId": 7230314197
  },
  {
    "id": "osm-node-7230314199-chill",
    "name": "Chill",
    "lat": 47.2278124,
    "lng": 8.6752422,
    "candidateSource": "osm",
    "candidateFoundAt": "2026-02-11",
    "candidateOsmType": "node",
    "candidateOsmId": 7230314199
  },
  {
    "id": "osm-node-7465426712-gottlieber",
    "name": "Gottlieber",
    "lat": 47.2007948,
    "lng": 8.7945184,
    "candidateSource": "osm",
    "candidateFoundAt": "2026-02-11",
    "candidateOsmType": "node",
    "candidateOsmId": 7465426712
  },
  {
    "id": "osm-node-7530276499-schiffstation",
    "name": "Schiffstation",
    "lat": 47.2528858,
    "lng": 8.6889906,
    "candidateSource": "osm",
    "candidateFoundAt": "2026-02-11",
    "candidateOsmType": "node",
    "candidateOsmId": 7530276499,
    "candidateUrl": "https://www.schiffstation.ch/"
  },
  {
    "id": "osm-node-7628821083-rico-s",
    "name": "Rico's",
    "lat": 47.3155127,
    "lng": 8.5799829,
    "candidateSource": "osm",
    "candidateFoundAt": "2026-02-11",
    "candidateOsmType": "node",
    "candidateOsmId": 7628821083,
    "candidateUrl": "https://www.ricozandonella.ch",
    "candidateHours": "Tu-Sa 12:00-14:00,19:00-22:00"
  },
  {
    "id": "osm-node-7711458065-migros-restaurant",
    "name": "Migros Restaurant",
    "lat": 47.2605417,
    "lng": 8.5970252,
    "candidateSource": "osm",
    "candidateFoundAt": "2026-02-11",
    "candidateOsmType": "node",
    "candidateOsmId": 7711458065,
    "candidateUrl": "https://filialen.migros.ch/de/migros-restaurant-horgen-schinzenhof",
    "candidateHours": "Mo-Sa 08:00-15:00; PH off"
  },
  {
    "id": "osm-node-7846633764-sichtbar",
    "name": "Sichtbar",
    "lat": 47.2592491,
    "lng": 8.6748191,
    "candidateSource": "osm",
    "candidateFoundAt": "2026-02-11",
    "candidateOsmType": "node",
    "candidateOsmId": 7846633764
  },
  {
    "id": "osm-node-8003883998-quai-pasa",
    "name": "Quai Pasa",
    "lat": 47.1714328,
    "lng": 8.5109231,
    "candidateSource": "osm",
    "candidateFoundAt": "2026-02-11",
    "candidateOsmType": "node",
    "candidateOsmId": 8003883998,
    "candidateUrl": "https://www.quai-pasa.ch/"
  },
  {
    "id": "osm-node-9063937841-dapura-mia",
    "name": "Dapura Mia",
    "lat": 47.208746,
    "lng": 8.7063103,
    "candidateSource": "osm",
    "candidateFoundAt": "2026-02-11",
    "candidateOsmType": "node",
    "candidateOsmId": 9063937841,
    "candidateUrl": "https://www.dapuramia.ch/",
    "candidatePhone": "+41 44 578 48 58",
    "candidateHours": "Mo off; Tu-Th 11:30-14:00,17:30-22:30; Fr 11:30-14:00,17:30-23:30; Sa 17:30-23:30; Su 17:30-22:30"
  },
  {
    "id": "osm-node-9082340503-sushi-shin",
    "name": "Sushi Shin",
    "lat": 47.370499,
    "lng": 8.5413961,
    "candidateSource": "osm",
    "candidateFoundAt": "2026-02-11",
    "candidateOsmType": "node",
    "candidateOsmId": 9082340503,
    "candidateUrl": "https://www.sushishin.ch/",
    "candidateHours": "Mo,Sa 09:00-22:00; Tu-Fr 11:30-14:30,18:00-22:30; PH closed"
  },
  {
    "id": "osm-node-9172909572-bar-am-wasser",
    "name": "Bar am Wasser",
    "lat": 47.3675716,
    "lng": 8.5416358,
    "candidateSource": "osm",
    "candidateFoundAt": "2026-02-11",
    "candidateOsmType": "node",
    "candidateOsmId": 9172909572,
    "candidateUrl": "https://www.baramwasser.ch/",
    "candidateHours": "Mo-Sa 16:00-24:00"
  },
  {
    "id": "osm-node-9201917991-1komma7",
    "name": "1Komma7",
    "lat": 47.3663842,
    "lng": 8.5383568,
    "candidateSource": "osm",
    "candidateFoundAt": "2026-02-11",
    "candidateOsmType": "node",
    "candidateOsmId": 9201917991,
    "candidateUrl": "https://1komma7.ch",
    "candidatePhone": "+41 44 208 24 04",
    "candidateHours": "Mo-Tu 11:00-23:00; We-Fr 11:00-00:00"
  },
  {
    "id": "osm-node-9311510135-kaisin",
    "name": "Kaisin",
    "lat": 47.3604079,
    "lng": 8.5339937,
    "candidateSource": "osm",
    "candidateFoundAt": "2026-02-11",
    "candidateOsmType": "node",
    "candidateOsmId": 9311510135,
    "candidateHours": "Mo-Fr 10:00-21:30, Sa-Su off"
  },
  {
    "id": "osm-node-9414760018-nunzio-s-pizza",
    "name": "Nunzio's Pizza",
    "lat": 47.229644,
    "lng": 8.6737032,
    "candidateSource": "osm",
    "candidateFoundAt": "2026-02-11",
    "candidateOsmType": "node",
    "candidateOsmId": 9414760018,
    "candidateUrl": "http://www.nunzios-pizza.ch",
    "candidatePhone": "+41 44 594 11 00",
    "candidateHours": "Mo-Su 11:00-22:00; PH open"
  },
  {
    "id": "osm-node-9553599374-quai-caf",
    "name": "Quai Café",
    "lat": 47.3617428,
    "lng": 8.5347847,
    "candidateSource": "osm",
    "candidateFoundAt": "2026-02-11",
    "candidateOsmType": "node",
    "candidateOsmId": 9553599374,
    "candidateUrl": "https://www.quaicafe.ch",
    "candidatePhone": "+41 44 628 07 55",
    "candidateHours": "Mo-Fr 07:00-22:00"
  },
  {
    "id": "osm-node-9603053217-la-casa-d-oc",
    "name": "La Casa d’Oc",
    "lat": 47.3452929,
    "lng": 8.5337326,
    "candidateSource": "osm",
    "candidateFoundAt": "2026-02-11",
    "candidateOsmType": "node",
    "candidateOsmId": 9603053217
  },
  {
    "id": "osm-node-9772882325-barfüsser",
    "name": "Barfüsser",
    "lat": 47.2693437,
    "lng": 8.6441077,
    "candidateSource": "osm",
    "candidateFoundAt": "2026-02-11",
    "candidateOsmType": "node",
    "candidateOsmId": 9772882325,
    "candidateUrl": "https://www.barfuesser.ch/de/meilen",
    "candidatePhone": "+41449230408",
    "candidateHours": "Mo-Sa 11:30-23:00; Su 17:00-22:00"
  },
  {
    "id": "osm-node-9810962340-theater-am-hechtplatz",
    "name": "Theater am Hechtplatz",
    "lat": 47.3682828,
    "lng": 8.5446312,
    "candidateSource": "osm",
    "candidateFoundAt": "2026-02-11",
    "candidateOsmType": "node",
    "candidateOsmId": 9810962340,
    "candidateUrl": ""
  },
  {
    "id": "osm-node-9810983217-st-jakob",
    "name": "St. Jakob",
    "lat": 47.3700566,
    "lng": 8.5402768,
    "candidateSource": "osm",
    "candidateFoundAt": "2026-02-11",
    "candidateOsmType": "node",
    "candidateOsmId": 9810983217,
    "candidateHours": "Mo-Fr 07:00-19:00; Sa 07:00-18:00; Su 08:00-16:00; PH off"
  },
  {
    "id": "osm-node-9811058009-noon",
    "name": "Noon",
    "lat": 47.3686967,
    "lng": 8.5454206,
    "candidateSource": "osm",
    "candidateFoundAt": "2026-02-11",
    "candidateOsmType": "node",
    "candidateOsmId": 9811058009,
    "candidateUrl": "https://noonexpress.ch",
    "candidateHours": "Tu-Fr 11:30-14:30,17:30-23:00; Sa 17:00-23:00; PH closed"
  },
  {
    "id": "osm-node-9836418971-tankstell-seegüetli",
    "name": "Tankstell Seegüetli",
    "lat": 47.2368942,
    "lng": 8.6631731,
    "candidateSource": "osm",
    "candidateFoundAt": "2026-02-11",
    "candidateOsmType": "node",
    "candidateOsmId": 9836418971,
    "candidateUrl": "https://tankstellseeguetli.ch",
    "candidateHours": "We,Th 15:00-22:00, Fr 15:00-24:00, Sa 13:00-24:00, Su 10:00-20:00"
  },
  {
    "id": "osm-node-9863681273-sonne-am-see",
    "name": "Sonne am See",
    "lat": 47.3190697,
    "lng": 8.5785293,
    "candidateSource": "osm",
    "candidateFoundAt": "2026-02-11",
    "candidateOsmType": "node",
    "candidateOsmId": 9863681273,
    "candidateUrl": "https://sonneamsee.ch/"
  },
  {
    "id": "osm-node-10556475333-seebar",
    "name": "SeeBar",
    "lat": 47.3133596,
    "lng": 8.5818343,
    "candidateSource": "osm",
    "candidateFoundAt": "2026-02-11",
    "candidateOsmType": "node",
    "candidateOsmId": 10556475333
  },
  {
    "id": "osm-node-10647500905-alegria",
    "name": "Alegria",
    "lat": 47.345271,
    "lng": 8.533789,
    "candidateSource": "osm",
    "candidateFoundAt": "2026-02-11",
    "candidateOsmType": "node",
    "candidateOsmId": 10647500905,
    "candidateUrl": "https://alegria-restaurante-peruano.ch/"
  },
  {
    "id": "osm-node-10852971775-concept-store-caf-beju",
    "name": "Concept Store & Café BeJu",
    "lat": 47.2536332,
    "lng": 8.6183082,
    "candidateSource": "osm",
    "candidateFoundAt": "2026-02-11",
    "candidateOsmType": "node",
    "candidateOsmId": 10852971775,
    "candidateUrl": "https://www.beju-conceptstore.ch/",
    "candidatePhone": "+41 79 923 98 79"
  },
  {
    "id": "osm-node-10893614158-levi",
    "name": "Levi",
    "lat": 47.2074222,
    "lng": 8.705493,
    "candidateSource": "osm",
    "candidateFoundAt": "2026-02-11",
    "candidateOsmType": "node",
    "candidateOsmId": 10893614158
  },
  {
    "id": "osm-node-10948858492-8008-see-lounge",
    "name": "8008 See Lounge",
    "lat": 47.3468389,
    "lng": 8.5625315,
    "candidateSource": "osm",
    "candidateFoundAt": "2026-02-11",
    "candidateOsmType": "node",
    "candidateOsmId": 10948858492,
    "candidateUrl": "https://www.8008seelounge.ch",
    "candidatePhone": "+41 79 424 63 95"
  },
  {
    "id": "osm-node-11116307950-resi-boutique",
    "name": "Resi Boutique",
    "lat": 47.2300143,
    "lng": 8.6717217,
    "candidateSource": "osm",
    "candidateFoundAt": "2026-02-11",
    "candidateOsmType": "node",
    "candidateOsmId": 11116307950,
    "candidateUrl": "https://www.resi-boutique.ch/",
    "candidateHours": "Tu-Fr 08:30-17:30; Sa 08:30-16:00"
  },
  {
    "id": "osm-node-11228949660-restaurant-zum-weissen-kreuz",
    "name": "Restaurant zum weissen Kreuz",
    "lat": 47.3692127,
    "lng": 8.544265,
    "candidateSource": "osm",
    "candidateFoundAt": "2026-02-11",
    "candidateOsmType": "node",
    "candidateOsmId": 11228949660,
    "candidateUrl": "https://www.zumweissenkreuz.ch"
  },
  {
    "id": "osm-node-11233269884-thai-mama",
    "name": "Thai Mama",
    "lat": 47.2599538,
    "lng": 8.6000955,
    "candidateSource": "osm",
    "candidateFoundAt": "2026-02-11",
    "candidateOsmType": "node",
    "candidateOsmId": 11233269884,
    "candidateUrl": "https://thaimama.ch/",
    "candidatePhone": "+41 800 008 810"
  },
  {
    "id": "osm-node-11240683708-gingin",
    "name": "GinGin",
    "lat": 47.260074,
    "lng": 8.5976785,
    "candidateSource": "osm",
    "candidateFoundAt": "2026-02-11",
    "candidateOsmType": "node",
    "candidateOsmId": 11240683708,
    "candidateHours": "Mo-Th 14:00-23:00; Fr-Sa 10:00-02:00"
  },
  {
    "id": "osm-node-11710850797-the-toucan-irish-pub",
    "name": "The Toucan Irish Pub",
    "lat": 47.2612729,
    "lng": 8.5962383,
    "candidateSource": "osm",
    "candidateFoundAt": "2026-02-11",
    "candidateOsmType": "node",
    "candidateOsmId": 11710850797,
    "candidateUrl": ""
  },
  {
    "id": "osm-node-11710850798-olivo",
    "name": "Olivo",
    "lat": 47.2612529,
    "lng": 8.5964733,
    "candidateSource": "osm",
    "candidateFoundAt": "2026-02-11",
    "candidateOsmType": "node",
    "candidateOsmId": 11710850798,
    "candidateUrl": "https://ristorante-olivo.ch",
    "candidatePhone": "+41 44 534 99 99",
    "candidateHours": "Mo-Fr 06:00-00:00; Sa 07:00-00:00; Su PH 08:00-00:00"
  },
  {
    "id": "osm-node-11777908596-altstadt-bar",
    "name": "Altstadt Bar",
    "lat": 47.369356,
    "lng": 8.5440925,
    "candidateSource": "osm",
    "candidateFoundAt": "2026-02-11",
    "candidateOsmType": "node",
    "candidateOsmId": 11777908596,
    "candidateUrl": "https://altstadt-bar.ch/",
    "candidateHours": "Mo-We 07:00-22:00, Th-Fr 07:00-23:00, Sa 08:00-23:00, Su 08:00-21:00"
  },
  {
    "id": "osm-node-11777908612-reserva-lounge",
    "name": "Reserva Lounge",
    "lat": 47.3694364,
    "lng": 8.5440347,
    "candidateSource": "osm",
    "candidateFoundAt": "2026-02-11",
    "candidateOsmType": "node",
    "candidateOsmId": 11777908612,
    "candidateUrl": "https://reservalounge.ch",
    "candidatePhone": "+41 766273313",
    "candidateHours": "Mo-Sa 12:00-24:00; Su 10:00-22:00; PH off"
  },
  {
    "id": "osm-node-11959590083-alegria-ceviche-bar",
    "name": "Alegria Ceviche Bar",
    "lat": 47.2291302,
    "lng": 8.6757997,
    "candidateSource": "osm",
    "candidateFoundAt": "2026-02-11",
    "candidateOsmType": "node",
    "candidateOsmId": 11959590083,
    "candidateUrl": "https://www.ceviche-bar.ch/menue",
    "candidatePhone": "+41795840902"
  },
  {
    "id": "osm-node-12051935570-kafi-carl",
    "name": "Kafi Carl",
    "lat": 47.3184855,
    "lng": 8.5806355,
    "candidateSource": "osm",
    "candidateFoundAt": "2026-02-11",
    "candidateOsmType": "node",
    "candidateOsmId": 12051935570,
    "candidateUrl": "https://kaficarl.ch/",
    "candidateHours": "Mo-Fr 07:00-18:00; Sa 09:00-17:00; Su off; PH off"
  },
  {
    "id": "osm-node-12238972583-rozahra-flower-cafe",
    "name": "Rozahra Flower Cafe",
    "lat": 47.2289397,
    "lng": 8.6740878,
    "candidateSource": "osm",
    "candidateFoundAt": "2026-02-11",
    "candidateOsmType": "node",
    "candidateOsmId": 12238972583,
    "candidateUrl": ""
  },
  {
    "id": "osm-node-12613491609-da-frappa",
    "name": "da Frappa",
    "lat": 47.2056701,
    "lng": 8.7069433,
    "candidateSource": "osm",
    "candidateFoundAt": "2026-02-11",
    "candidateOsmType": "node",
    "candidateOsmId": 12613491609,
    "candidateUrl": "https://dafrappa.ch"
  },
  {
    "id": "osm-node-12708582894-ming-asian-kitchen",
    "name": "Ming Asian Kitchen",
    "lat": 47.2936836,
    "lng": 8.5665354,
    "candidateSource": "osm",
    "candidateFoundAt": "2026-02-11",
    "candidateOsmType": "node",
    "candidateOsmId": 12708582894,
    "candidateUrl": "https://www.mingasiankitchen-thalwil.ch",
    "candidateHours": "Mo,We,Th,Fr 10:30-14:00,17:00-22:00; Sa,Su 15:00-22:00; Tu off"
  },
  {
    "id": "osm-node-13272576587-im-schilf",
    "name": "Im Schilf",
    "lat": 47.3432656,
    "lng": 8.6908841,
    "candidateSource": "osm",
    "candidateFoundAt": "2026-02-11",
    "candidateOsmType": "node",
    "candidateOsmId": 13272576587,
    "candidateUrl": "https://www.schilf.ch/",
    "candidateHours": "Mo-Su 09:00-22:30"
  },
  {
    "id": "osm-node-13353084234-mews-table",
    "name": "Mews Table",
    "lat": 47.3690554,
    "lng": 8.5385801,
    "candidateSource": "osm",
    "candidateFoundAt": "2026-02-11",
    "candidateOsmType": "node",
    "candidateOsmId": 13353084234,
    "candidateUrl": "https://www.mewshouse.ch/de/mews-table",
    "candidateHours": "Mo 11:30-14:30; Tu-Fr 11:30-14:30,18:00-22:30; Sa 18:00-22:30"
  },
  {
    "id": "osm-node-13353100435-blaue-bar",
    "name": "Blaue Bar",
    "lat": 47.3690239,
    "lng": 8.5385505,
    "candidateSource": "osm",
    "candidateFoundAt": "2026-02-11",
    "candidateOsmType": "node",
    "candidateOsmId": 13353100435,
    "candidateUrl": "https://www.mewshouse.ch/de/blaue-bar",
    "candidateHours": "Mo-Sa 07:00-23:00; Su 09:00-22:00"
  },
  {
    "id": "osm-way-23764472-sonnenfeld",
    "name": "Sonnenfeld",
    "lat": 47.2464485,
    "lng": 8.7076034,
    "candidateSource": "osm",
    "candidateFoundAt": "2026-02-11",
    "candidateOsmType": "way",
    "candidateOsmId": 23764472
  },
  {
    "id": "osm-way-24388757-löwen",
    "name": "Löwen",
    "lat": 47.2680541,
    "lng": 8.6404825,
    "candidateSource": "osm",
    "candidateFoundAt": "2026-02-11",
    "candidateOsmType": "way",
    "candidateOsmId": 24388757,
    "candidateUrl": "https://www.loewen-meilen.ch/"
  },
  {
    "id": "osm-way-25926028-jade-garden",
    "name": "Jade Garden",
    "lat": 47.2597221,
    "lng": 8.6761571,
    "candidateSource": "osm",
    "candidateFoundAt": "2026-02-11",
    "candidateOsmType": "way",
    "candidateOsmId": 25926028,
    "candidateUrl": "https://www.jadegarden.ch/",
    "candidatePhone": "+41 43 277 02 66"
  },
  {
    "id": "osm-way-30098295-zur-alten-sonne",
    "name": "zur alten Sonne",
    "lat": 47.2665798,
    "lng": 8.6561281,
    "candidateSource": "osm",
    "candidateFoundAt": "2026-02-11",
    "candidateOsmType": "way",
    "candidateOsmId": 30098295,
    "candidateUrl": ""
  },
  {
    "id": "osm-way-30320466-hirschen-am-see",
    "name": "Hirschen am See",
    "lat": 47.264364,
    "lng": 8.6559945,
    "candidateSource": "osm",
    "candidateFoundAt": "2026-02-11",
    "candidateOsmType": "way",
    "candidateOsmId": 30320466,
    "candidateUrl": "https://www.hirschen-meilen.ch/"
  },
  {
    "id": "osm-way-30320469-zum-trauben",
    "name": "zum Trauben",
    "lat": 47.2648765,
    "lng": 8.6552263,
    "candidateSource": "osm",
    "candidateFoundAt": "2026-02-11",
    "candidateOsmType": "way",
    "candidateOsmId": 30320469,
    "candidateUrl": "https://www.trauben-meilen.ch/"
  },
  {
    "id": "osm-way-31697973-il-lazzarone",
    "name": "Il Lazzarone",
    "lat": 47.2610547,
    "lng": 8.598294,
    "candidateSource": "osm",
    "candidateFoundAt": "2026-02-11",
    "candidateOsmType": "way",
    "candidateOsmId": 31697973
  },
  {
    "id": "osm-way-31967333-pier-7",
    "name": "Pier 7",
    "lat": 47.3679451,
    "lng": 8.5434919,
    "candidateSource": "osm",
    "candidateFoundAt": "2026-02-11",
    "candidateOsmType": "way",
    "candidateOsmId": 31967333,
    "candidateUrl": "https://www.pier7.ch/Pier-7-Club/Club-Restaurant/",
    "candidatePhone": "+41 44 261 70 55"
  },
  {
    "id": "osm-way-33606892-bistro-schiffsteg",
    "name": "Bistro Schiffsteg",
    "lat": 47.2387135,
    "lng": 8.7184378,
    "candidateSource": "osm",
    "candidateFoundAt": "2026-02-11",
    "candidateOsmType": "way",
    "candidateOsmId": 33606892,
    "candidateUrl": ""
  },
  {
    "id": "osm-way-38091305-samigo",
    "name": "Samigo",
    "lat": 47.3588576,
    "lng": 8.5369556,
    "candidateSource": "osm",
    "candidateFoundAt": "2026-02-11",
    "candidateOsmType": "way",
    "candidateOsmId": 38091305,
    "candidateUrl": "https://samigo.ch/",
    "candidateHours": "Tu-Th 19:00-00:00; Fr,Sa 19:00-03:00; Su 10:00-16:00"
  },
  {
    "id": "osm-way-38096053-samigo",
    "name": "Samigo",
    "lat": 47.3591448,
    "lng": 8.5369344,
    "candidateSource": "osm",
    "candidateFoundAt": "2026-02-11",
    "candidateOsmType": "way",
    "candidateOsmId": 38096053
  },
  {
    "id": "osm-way-38098975-bauschänzli",
    "name": "Bauschänzli",
    "lat": 47.3678613,
    "lng": 8.5423935,
    "candidateSource": "osm",
    "candidateFoundAt": "2026-02-11",
    "candidateOsmType": "way",
    "candidateOsmId": 38098975,
    "candidateUrl": "https://bauschaenzli.com/",
    "candidatePhone": "+41 44 212 49 19"
  },
  {
    "id": "osm-way-38176803-seerose",
    "name": "Seerose",
    "lat": 47.3383977,
    "lng": 8.5405188,
    "candidateSource": "osm",
    "candidateFoundAt": "2026-02-11",
    "candidateOsmType": "way",
    "candidateOsmId": 38176803,
    "candidateUrl": "https://www.seerose.dinning.ch/",
    "candidatePhone": "+41 44 481 63 83",
    "candidateHours": "Mo-Su 09:00-24:00"
  },
  {
    "id": "osm-way-45520850-zur-alten-kanzlei",
    "name": "Zur alten Kanzlei",
    "lat": 47.3653783,
    "lng": 8.6777566,
    "candidateSource": "osm",
    "candidateFoundAt": "2026-02-11",
    "candidateOsmType": "way",
    "candidateOsmId": 45520850,
    "candidateUrl": "https://www.gasthofkanzlei.ch/",
    "candidatePhone": "+41 44 940 58 87",
    "candidateHours": "Mo-Sa 10:00-24:00; Su,PH 10:00-22:00"
  },
  {
    "id": "osm-way-59561177-zu-den-zwei-raben",
    "name": "Zu den zwei Raben",
    "lat": 47.2168899,
    "lng": 8.7784276,
    "candidateSource": "osm",
    "candidateFoundAt": "2026-02-11",
    "candidateOsmType": "way",
    "candidateOsmId": 59561177,
    "candidateUrl": ""
  },
  {
    "id": "osm-way-66989990-zum-trauben",
    "name": "Zum Trauben",
    "lat": 47.3156167,
    "lng": 8.5811853,
    "candidateSource": "osm",
    "candidateFoundAt": "2026-02-11",
    "candidateOsmType": "way",
    "candidateOsmId": 66989990,
    "candidateHours": "Tu-Fr,Su 12:00-14:00, Mo-Su 18:00-22:00, Sa 18:00-22:00; Mo off"
  },
  {
    "id": "osm-way-92696361-bahnhof-post",
    "name": "Bahnhof Post",
    "lat": 47.2533368,
    "lng": 8.6916646,
    "candidateSource": "osm",
    "candidateFoundAt": "2026-02-11",
    "candidateOsmType": "way",
    "candidateOsmId": 92696361,
    "candidateHours": "Mo-Fr 08:00-23:00; Sa 10:30-22:00; Su off",
    "candidateUrl": ""
  },
  {
    "id": "osm-way-95147316-tracht",
    "name": "Tracht",
    "lat": 47.3123167,
    "lng": 8.5567072,
    "candidateSource": "osm",
    "candidateFoundAt": "2026-02-11",
    "candidateOsmType": "way",
    "candidateOsmId": 95147316,
    "candidateHours": "Tu-Sa 11:30-14:30,18:00-23:00"
  },
  {
    "id": "osm-way-99899136-restaurant-namaste-schiffli",
    "name": "Restaurant Namaste Schiffli",
    "lat": 47.2084813,
    "lng": 8.7066971,
    "candidateSource": "osm",
    "candidateFoundAt": "2026-02-11",
    "candidateOsmType": "way",
    "candidateOsmId": 99899136,
    "candidateHours": "Mo-Fr 10:00-14:00,17:00-23:00; Sa 11:00-14:30,17:00-23:00; Su 17:00-22:00",
    "candidateUrl": ""
  },
  {
    "id": "osm-way-99908912-raben",
    "name": "Raben",
    "lat": 47.2078075,
    "lng": 8.7050794,
    "candidateSource": "osm",
    "candidateFoundAt": "2026-02-11",
    "candidateOsmType": "way",
    "candidateOsmId": 99908912
  },
  {
    "id": "osm-way-99908915-freihof",
    "name": "Freihof",
    "lat": 47.2075457,
    "lng": 8.7052873,
    "candidateSource": "osm",
    "candidateFoundAt": "2026-02-11",
    "candidateOsmType": "way",
    "candidateOsmId": 99908915
  },
  {
    "id": "osm-way-100320977-5-lire",
    "name": "5 Lire",
    "lat": 47.2056501,
    "lng": 8.7069238,
    "candidateSource": "osm",
    "candidateFoundAt": "2026-02-11",
    "candidateOsmType": "way",
    "candidateOsmId": 100320977
  },
  {
    "id": "osm-way-152042075-il-faro",
    "name": "Il Faro",
    "lat": 47.2836458,
    "lng": 8.6100948,
    "candidateSource": "osm",
    "candidateFoundAt": "2026-02-11",
    "candidateOsmType": "way",
    "candidateOsmId": 152042075,
    "candidateUrl": "https://ilfaro.ch/index.php?page=herrliberg",
    "candidateHours": "Mo-Su 11:00-23:00"
  },
  {
    "id": "osm-way-153068104-bierhalle",
    "name": "Bierhalle",
    "lat": 47.2092473,
    "lng": 8.7056428,
    "candidateSource": "osm",
    "candidateFoundAt": "2026-02-11",
    "candidateOsmType": "way",
    "candidateOsmId": 153068104
  },
  {
    "id": "osm-way-221460493-frieden",
    "name": "Frieden",
    "lat": 47.2691131,
    "lng": 8.6406218,
    "candidateSource": "osm",
    "candidateFoundAt": "2026-02-11",
    "candidateOsmType": "way",
    "candidateOsmId": 221460493
  },
  {
    "id": "osm-way-221820757-kirchgass-cafe",
    "name": "Kirchgass' Cafe",
    "lat": 47.2699724,
    "lng": 8.641525,
    "candidateSource": "osm",
    "candidateFoundAt": "2026-02-11",
    "candidateOsmType": "way",
    "candidateOsmId": 221820757,
    "candidateUrl": ""
  },
  {
    "id": "osm-way-221820758-pizzeria-napul",
    "name": "Pizzeria Napulè",
    "lat": 47.2702316,
    "lng": 8.6418136,
    "candidateSource": "osm",
    "candidateFoundAt": "2026-02-11",
    "candidateOsmType": "way",
    "candidateOsmId": 221820758,
    "candidateUrl": "https://www.napule.ch/de/meilen",
    "candidatePhone": "+41 44 923 02 02",
    "candidateHours": "Mo-Su 11:30-14:00,18:00-22:00"
  },
  {
    "id": "osm-way-247712646-pizzeria-steinbruch",
    "name": "Pizzeria Steinbruch",
    "lat": 47.2042632,
    "lng": 8.7392807,
    "candidateSource": "osm",
    "candidateFoundAt": "2026-02-11",
    "candidateOsmType": "way",
    "candidateOsmId": 247712646,
    "candidateUrl": ""
  },
  {
    "id": "osm-way-257320687-schiff",
    "name": "Schiff",
    "lat": 47.2057117,
    "lng": 8.7734373,
    "candidateSource": "osm",
    "candidateFoundAt": "2026-02-11",
    "candidateOsmType": "way",
    "candidateOsmId": 257320687
  },
  {
    "id": "osm-way-296932543-seerosen-bar",
    "name": "Seerosen-Bar",
    "lat": 47.2054166,
    "lng": 8.7737495,
    "candidateSource": "osm",
    "candidateFoundAt": "2026-02-11",
    "candidateOsmType": "way",
    "candidateOsmId": 296932543,
    "candidateHours": "Mo-Th 11:30-14:30,17:00-01:00, Fr 11:30-14:30,16:00-02:00, Sa 16:00-02:00, Su 14:00-24:00",
    "candidateUrl": ""
  },
  {
    "id": "osm-way-300699211-la-cucaracha-bar",
    "name": "La Cucaracha Bar",
    "lat": 47.201869,
    "lng": 8.7905553,
    "candidateSource": "osm",
    "candidateFoundAt": "2026-02-11",
    "candidateOsmType": "way",
    "candidateOsmId": 300699211,
    "candidatePhone": "+41 55 410 66 23",
    "candidateUrl": ""
  },
  {
    "id": "osm-way-317289167-brandenberg",
    "name": "Brandenberg",
    "lat": 47.1747231,
    "lng": 8.506112,
    "candidateSource": "osm",
    "candidateFoundAt": "2026-02-11",
    "candidateOsmType": "way",
    "candidateOsmId": 317289167,
    "candidateUrl": "https://www.brandenberg.ch/",
    "candidatePhone": "+41 41 711 95 96",
    "candidateHours": "Tu-Sa 08:00-24:00"
  },
  {
    "id": "osm-way-364787743-lycka-coffeebar",
    "name": "Lycka Coffeebar",
    "lat": 47.2689167,
    "lng": 8.6433393,
    "candidateSource": "osm",
    "candidateFoundAt": "2026-02-11",
    "candidateOsmType": "way",
    "candidateOsmId": 364787743,
    "candidateHours": "Tu-Th 09:00-22:00, Fr-Sa 09:00-23:00, Su 10:00-18:00",
    "candidateUrl": ""
  },
  {
    "id": "osm-way-378113675-portofino",
    "name": "Portofino",
    "lat": 47.2939333,
    "lng": 8.5701292,
    "candidateSource": "osm",
    "candidateFoundAt": "2026-02-11",
    "candidateOsmType": "way",
    "candidateOsmId": 378113675,
    "candidateUrl": "https://www.portofino-am-see.ch/",
    "candidatePhone": "+41 44 720 32 40"
  }
]
