[
  {
    "id": "osm-node-59624426-landgasthof-adler",
    "name": "Landgasthof Adler",
    "lat": 47.276489,
    "lng": 8.756607,
    "candidateSource": "osm",
    "candidateFoundAt": "2026-02-11",
    "candidateOsmType": "node",
    "candidateOsmId": 59624426,
    "candidateUrl": "https://www.adler-grueningen.ch",
    "candidatePhone": "+41 44 935 11 54",
    "candidateHours": "07:00-00:15"
  },
  {
    "id": "osm-node-60228711-hochwacht",
    "name": "Hochwacht",
    "lat": 47.2899242,
    "lng": 8.6756256,
    "candidateSource": "osm",
    "candidateFoundAt": "2026-02-11",
    "candidateOsmType": "node",
    "candidateOsmId": 60228711,
    "candidateUrl": "https://www.hochwacht-pfannenstiel.ch/",
    "candidatePhone": "+41 44 984 02 55",
    "candidateHours": "Mo-Fr 10:00-22:00; Su,PH 09:00-20:00"
  },
  {
    "id": "osm-node-75025846-il-grappolo",
    "name": "Il Grappolo",
    "lat": 47.3361381,
    "lng": 8.5322408,
    "candidateSource": "osm",
    "candidateFoundAt": "2026-02-11",
    "candidateOsmType": "node",
    "candidateOsmId": 75025846,
    "candidateUrl": "https://www.restaurant-ilgrappolo.ch/",
    "candidatePhone": "+41 44 481 70 60",
    "candidateHours": "Tu-Fr 11:00-14:00,17:00-22:00; Sa 17:00-22:00; Su 11:00-14:00,17:00-22:00"
  },
  {
    "id": "osm-node-80087517-yan-ruyi",
    "name": "Yan-Ruyi",
    "lat": 47.3441094,
    "lng": 8.53266,
    "candidateSource": "osm",
    "candidateFoundAt": "2026-02-11",
    "candidateOsmType": "node",
    "candidateOsmId": 80087517,
    "candidateUrl": "http://ruyi-restaurant.ch/",
    "candidatePhone": "+41 44 481 67 27",
    "candidateHours": "We-Fr 12:00-14:00, We-Su 18:00-22:30, Su 13:00-22:00"
  },
  {
    "id": "osm-node-83370553-boom",
    "name": "Boom",
    "lat": 47.3266149,
    "lng": 8.5292088,
    "candidateSource": "osm",
    "candidateFoundAt": "2026-02-11",
    "candidateOsmType": "node",
    "candidateOsmId": 83370553,
    "candidateUrl": "https://ibiszurich.ch/restaurant-boom/",
    "candidateHours": "Mo-Fr 06:00-23:00; Sa-Su 07:00-23:00"
  },
  {
    "id": "osm-node-103122838-ziegel-oh-lac",
    "name": "Ziegel oh Lac",
    "lat": 47.3435586,
    "lng": 8.5368559,
    "candidateSource": "osm",
    "candidateFoundAt": "2026-02-11",
    "candidateOsmType": "node",
    "candidateOsmId": 103122838,
    "candidateUrl": "https://www.ziegelohlac.ch/",
    "candidatePhone": "+41 44 481 62 42",
    "candidateHours": "Tu-Su 11:00-23:00"
  },
  {
    "id": "osm-node-104247187-ubs-restaurant-flur",
    "name": "UBS Restaurant Flur",
    "lat": 47.382807,
    "lng": 8.4929412,
    "candidateSource": "osm",
    "candidateFoundAt": "2026-02-11",
    "candidateOsmType": "node",
    "candidateOsmId": 104247187,
    "candidateUrl": "https://www.zfv.ch/de/essen-gehen/ubs-restaurant-flur"
  },
  {
    "id": "osm-node-104274210-freihof-pizzeria-etna",
    "name": "Freihof Pizzeria Etna",
    "lat": 47.383491,
    "lng": 8.4995953,
    "candidateSource": "osm",
    "candidateFoundAt": "2026-02-11",
    "candidateOsmType": "node",
    "candidateOsmId": 104274210,
    "candidateUrl": "https://www.freihofetna.ch/"
  },
  {
    "id": "osm-node-104274551-shilla",
    "name": "Shilla",
    "lat": 47.3814984,
    "lng": 8.5025715,
    "candidateSource": "osm",
    "candidateFoundAt": "2026-02-11",
    "candidateOsmType": "node",
    "candidateOsmId": 104274551,
    "candidateUrl": "https://www.shilla.ch/",
    "candidateHours": "Mo-Tu 17:30-22:00; We-Th 12:00-14:00,17:30-22:00; Fr 12:00-14:00,17:30-22:30; Sa 16:00-23:00; Su off"
  },
  {
    "id": "osm-node-104274852-letzigrund",
    "name": "Letzigrund",
    "lat": 47.3825781,
    "lng": 8.5012681,
    "candidateSource": "osm",
    "candidateFoundAt": "2026-02-11",
    "candidateOsmType": "node",
    "candidateOsmId": 104274852,
    "candidateUrl": "https://restaurantletzigrund.ch/"
  },
  {
    "id": "osm-node-104275299-pizza-züri",
    "name": "Pizza Züri",
    "lat": 47.3842422,
    "lng": 8.4978272,
    "candidateSource": "osm",
    "candidateFoundAt": "2026-02-11",
    "candidateOsmType": "node",
    "candidateOsmId": 104275299,
    "candidateUrl": "https://pizzazueri.ch"
  },
  {
    "id": "osm-node-104276014-turbinenhalle",
    "name": "Turbinenhalle",
    "lat": 47.3841009,
    "lng": 8.4964028,
    "candidateSource": "osm",
    "candidateFoundAt": "2026-02-11",
    "candidateOsmType": "node",
    "candidateOsmId": 104276014,
    "candidateUrl": "https://www.restaurant-turbinenbraeu.ch/",
    "candidatePhone": "+41 43 311 57 67",
    "candidateHours": "Mo-We 11:30-14:00, 18:00-23:00; Th-Fr 11:30-14:30, 17:00-23:00"
  },
  {
    "id": "osm-node-105459350-zeughauskeller",
    "name": "Zeughauskeller",
    "lat": 47.3703727,
    "lng": 8.5399233,
    "candidateSource": "osm",
    "candidateFoundAt": "2026-02-11",
    "candidateOsmType": "node",
    "candidateOsmId": 105459350,
    "candidateUrl": "https://www.zeughauskeller.ch/",
    "candidatePhone": "+41 44 220 15 15",
    "candidateHours": "Mo-Su 11:30-23:00"
  },
  {
    "id": "osm-node-105506327-zum-alten-löwen",
    "name": "Zum Alten Löwen",
    "lat": 47.3849796,
    "lng": 8.5482469,
    "candidateSource": "osm",
    "candidateFoundAt": "2026-02-11",
    "candidateOsmType": "node",
    "candidateOsmId": 105506327,
    "candidateUrl": "https://www.altenloewen.ch/",
    "candidatePhone": "+41 43 343 11 69",
    "candidateHours": "Tu-Fr 11:30-14:00, 18:00-23:30; Sa 18:00-23:30, Su, Mo off"
  },
  {
    "id": "osm-node-112965994-cafe-medina",
    "name": "Cafe Medina",
    "lat": 47.3420405,
    "lng": 8.5304612,
    "candidateSource": "osm",
    "candidateFoundAt": "2026-02-11",
    "candidateOsmType": "node",
    "candidateOsmId": 112965994,
    "candidateUrl": "http://www.cafemedina.ch/",
    "candidateHours": "Mo-Fr 06:00-18:00; Sa 07:30-18:00; Su 09:00-18:00"
  },
  {
    "id": "osm-node-119247298-haus-hiltl",
    "name": "Haus Hiltl",
    "lat": 47.3733042,
    "lng": 8.5367495,
    "candidateSource": "osm",
    "candidateFoundAt": "2026-02-11",
    "candidateOsmType": "node",
    "candidateOsmId": 119247298,
    "candidateUrl": "https://hiltl.ch/",
    "candidatePhone": "+41 44 227 70 00",
    "candidateHours": "Mo-Th 06:00-24:00; Fr-Sa 06:00-23:00; Su 08:00-22:00"
  },
  {
    "id": "osm-node-120475242-sunshine-hill-american-bar-restaurant",
    "name": "sunshine hill american bar & restaurant",
    "lat": 47.2545703,
    "lng": 8.721418,
    "candidateSource": "osm",
    "candidateFoundAt": "2026-02-11",
    "candidateOsmType": "node",
    "candidateOsmId": 120475242,
    "candidateUrl": "https://www.sunshinehill.ch/",
    "candidateHours": "Mo-Th 11:00-23:00; Fr-Sa 11:00-24:00; Su 10:30-22:00"
  },
  {
    "id": "osm-node-227597896-spiisbeiz-aberen",
    "name": "Spiisbeiz Aberen",
    "lat": 47.2467162,
    "lng": 8.7346505,
    "candidateSource": "osm",
    "candidateFoundAt": "2026-02-11",
    "candidateOsmType": "node",
    "candidateOsmId": 227597896,
    "candidateUrl": "https://aberen.ch/spiisbeiz/",
    "candidatePhone": "+41 44 926 11 31",
    "candidateHours": "Mo-Su 11:00-23:00"
  },
  {
    "id": "osm-node-242557373-rössli",
    "name": "Rössli",
    "lat": 47.239464,
    "lng": 8.7188798,
    "candidateSource": "osm",
    "candidateFoundAt": "2026-02-11",
    "candidateOsmType": "node",
    "candidateOsmId": 242557373,
    "candidateUrl": "https://www.roesslibeiz.ch"
  },
  {
    "id": "osm-node-252407018-ristorante-culmann",
    "name": "Ristorante Culmann",
    "lat": 47.3794422,
    "lng": 8.5470198,
    "candidateSource": "osm",
    "candidateFoundAt": "2026-02-11",
    "candidateOsmType": "node",
    "candidateOsmId": 252407018,
    "candidateUrl": "https://www.culmann.ch/",
    "candidatePhone": "+41 44 251 36 51",
    "candidateHours": "Mo-Fr 11:30-14:00, Mo-Sa 17:30-23:00"
  },
  {
    "id": "osm-node-252407019-la-fontana",
    "name": "La Fontana",
    "lat": 47.3797201,
    "lng": 8.5469255,
    "candidateSource": "osm",
    "candidateFoundAt": "2026-02-11",
    "candidateOsmType": "node",
    "candidateOsmId": 252407019,
    "candidateUrl": "https://www.instagram.com/la_fontana_zurich/",
    "candidatePhone": "+41 44 261 80 44",
    "candidateHours": "Mo-Fr 08:00-16:00"
  },
  {
    "id": "osm-node-254745858-rössli",
    "name": "Rössli",
    "lat": 47.1816382,
    "lng": 8.4589134,
    "candidateSource": "osm",
    "candidateFoundAt": "2026-02-11",
    "candidateOsmType": "node",
    "candidateOsmId": 254745858,
    "candidateUrl": "https://www.restaurant-roessli.ch/",
    "candidatePhone": "+41 41 780 13 18",
    "candidateHours": "Mo-Fr 11:00-14:00,17:00-23:30; Sa 17:30-23:30; PH closed"
  },
  {
    "id": "osm-node-256339532-peking-garden",
    "name": "Peking Garden",
    "lat": 47.3910962,
    "lng": 8.4888858,
    "candidateSource": "osm",
    "candidateFoundAt": "2026-02-11",
    "candidateOsmType": "node",
    "candidateOsmId": 256339532,
    "candidateUrl": "https://www.peking-garden.ch/pg_restaurant/zuerich-altstetten/",
    "candidatePhone": "+41 44 433 28 28",
    "candidateHours": "Mo-Su 11:00-23:00"
  },
  {
    "id": "osm-node-256504242-restaurant-ganesha",
    "name": "Restaurant Ganesha",
    "lat": 47.179013,
    "lng": 8.4572525,
    "candidateSource": "osm",
    "candidateFoundAt": "2026-02-11",
    "candidateOsmType": "node",
    "candidateOsmId": 256504242,
    "candidateUrl": "https://www.restaurantganesha.ch",
    "candidatePhone": "+41417800257",
    "candidateHours": "Mo-Fr 11:30-14:00,17:00-22:00; Sa,Su 17:00-22:00"
  },
  {
    "id": "osm-node-261651356-oberhof",
    "name": "Oberhof",
    "lat": 47.3734628,
    "lng": 8.553472,
    "candidateSource": "osm",
    "candidateFoundAt": "2026-02-11",
    "candidateOsmType": "node",
    "candidateOsmId": 261651356,
    "candidateUrl": "https://www.restaurant-oberhof.ch/",
    "candidateHours": "Mo-Fr 10:00-23:30"
  },
  {
    "id": "osm-node-261914358-dar",
    "name": "Dar",
    "lat": 47.3693682,
    "lng": 8.5239637,
    "candidateSource": "osm",
    "candidateFoundAt": "2026-02-11",
    "candidateOsmType": "node",
    "candidateOsmId": 261914358,
    "candidateUrl": "https://www.restaurantdar.com/",
    "candidateHours": "We-Fr 18:00-22:00; Sa,Su 10:00-14:00,18:00-22:00"
  },
  {
    "id": "osm-node-262378050-rosengarten",
    "name": "Rosengarten",
    "lat": 47.3697879,
    "lng": 8.5563885,
    "candidateSource": "osm",
    "candidateFoundAt": "2026-02-11",
    "candidateOsmType": "node",
    "candidateOsmId": 262378050,
    "candidateUrl": "https://www.rosengarten.ch/",
    "candidateHours": "Mo-Fr 11:30-14:00,18:00-23:30"
  },
  {
    "id": "osm-node-262594347-thai-orchid",
    "name": "Thai Orchid",
    "lat": 47.2678861,
    "lng": 8.6450038,
    "candidateSource": "osm",
    "candidateFoundAt": "2026-02-11",
    "candidateOsmType": "node",
    "candidateOsmId": 262594347,
    "candidateUrl": "https://www.thai-orchid.ch/"
  },
  {
    "id": "osm-node-265776667-grain",
    "name": "Grain",
    "lat": 47.3761503,
    "lng": 8.559374,
    "candidateSource": "osm",
    "candidateFoundAt": "2026-02-11",
    "candidateOsmType": "node",
    "candidateOsmId": 265776667,
    "candidateUrl": "https://grain.ch/",
    "candidateHours": "Su 10:00-23:00; Tu-Th 11:00-14:00, 17:00-23:00; Fr 11:00-14:00, 17:00-00:00"
  },
  {
    "id": "osm-node-266312456-wirtschaft-ziegelhütte",
    "name": "Wirtschaft Ziegelhütte",
    "lat": 47.3995321,
    "lng": 8.5727756,
    "candidateSource": "osm",
    "candidateFoundAt": "2026-02-11",
    "candidateOsmType": "node",
    "candidateOsmId": 266312456,
    "candidateUrl": "https://wirtschaft-ziegelhuette.ch/",
    "candidatePhone": "+41 44 322 40 03",
    "candidateHours": "Tu-Th 09:30-23:00; Fr-Sa 09:30-23:30; Su 11:30-22:30"
  },
  {
    "id": "osm-node-266630369-taverne-da-angelo",
    "name": "Taverne da Angelo",
    "lat": 47.3761581,
    "lng": 8.5147672,
    "candidateSource": "osm",
    "candidateFoundAt": "2026-02-11",
    "candidateOsmType": "node",
    "candidateOsmId": 266630369,
    "candidateUrl": "http://www.taverne-da-angelo.ch/",
    "candidatePhone": "+41 44 451 04 67"
  },
  {
    "id": "osm-node-266864392-restaurant-waldmannsburg",
    "name": "Restaurant Waldmannsburg",
    "lat": 47.3791543,
    "lng": 8.6166817,
    "candidateSource": "osm",
    "candidateFoundAt": "2026-02-11",
    "candidateOsmType": "node",
    "candidateOsmId": 266864392,
    "candidateUrl": "https://www.waldmannsburg.ch/"
  },
  {
    "id": "osm-node-266864505-pizzeria-il-faro",
    "name": "Pizzeria Il Faro",
    "lat": 47.3968938,
    "lng": 8.6138054,
    "candidateSource": "osm",
    "candidateFoundAt": "2026-02-11",
    "candidateOsmType": "node",
    "candidateOsmId": 266864505,
    "candidateUrl": "https://ilfaro.ch/",
    "candidatePhone": "+41 44 802 11 02"
  },
  {
    "id": "osm-node-267049751-imone",
    "name": "Imone",
    "lat": 47.3639501,
    "lng": 8.5201156,
    "candidateSource": "osm",
    "candidateFoundAt": "2026-02-11",
    "candidateOsmType": "node",
    "candidateOsmId": 267049751,
    "candidateUrl": "https://imonezurich.com/",
    "candidatePhone": "+41 43 333 19 68"
  },
  {
    "id": "osm-node-267345309-soho",
    "name": "Soho",
    "lat": 47.3884346,
    "lng": 8.5208041,
    "candidateSource": "osm",
    "candidateFoundAt": "2026-02-11",
    "candidateOsmType": "node",
    "candidateOsmId": 267345309,
    "candidateUrl": "https://www.soho-zurich.ch/",
    "candidateHours": "Tu-Th 17:00-24:00, Fr 17:00-02:00, Sa 18:00-04:00"
  },
  {
    "id": "osm-node-267879344-shangrila-tibet",
    "name": "Shangrila Tibet",
    "lat": 47.3697414,
    "lng": 8.5100698,
    "candidateSource": "osm",
    "candidateFoundAt": "2026-02-11",
    "candidateOsmType": "node",
    "candidateOsmId": 267879344,
    "candidateUrl": "https://www.shangrila-tibet.ch/",
    "candidatePhone": "+41 44 462 04 12",
    "candidateHours": "Tu-Fr 11:00-14:00, 18:00-23:00; Sa-Su 18:00-23:00"
  },
  {
    "id": "osm-node-267879347-anamira",
    "name": "AnaMiRa",
    "lat": 47.3641859,
    "lng": 8.5204226,
    "candidateSource": "osm",
    "candidateFoundAt": "2026-02-11",
    "candidateOsmType": "node",
    "candidateOsmId": 267879347,
    "candidateUrl": "https://anamira.ch",
    "candidatePhone": "+41 44 463 90 90",
    "candidateHours": "Mo-Fr 11:30-14:00,17:30-22:00; Sa 17:30-22:00; Su off"
  },
  {
    "id": "osm-node-267879348-hopfenau",
    "name": "Hopfenau",
    "lat": 47.3651417,
    "lng": 8.5200023,
    "candidateSource": "osm",
    "candidateFoundAt": "2026-02-11",
    "candidateOsmType": "node",
    "candidateOsmId": 267879348,
    "candidateUrl": "https://hopfenau.ch/"
  },
  {
    "id": "osm-node-267879350-jane-fine-food",
    "name": "Jane Fine Food",
    "lat": 47.3673432,
    "lng": 8.5200355,
    "candidateSource": "osm",
    "candidateFoundAt": "2026-02-11",
    "candidateOsmType": "node",
    "candidateOsmId": 267879350,
    "candidateUrl": "https://janefindefood.com",
    "candidatePhone": "+41 43 321 21 71"
  },
  {
    "id": "osm-node-267879351-swaad",
    "name": "Swaad",
    "lat": 47.3592215,
    "lng": 8.5162289,
    "candidateSource": "osm",
    "candidateFoundAt": "2026-02-11",
    "candidateOsmType": "node",
    "candidateOsmId": 267879351,
    "candidateUrl": "http://www.swaad.ch/",
    "candidatePhone": "+41 43 333 13 15",
    "candidateHours": "Mo-Fr 11:00-14:00, 17:30-24:00; Sa-Su 17:30-24:00"
  },
  {
    "id": "osm-node-268411248-hotel-seegarten",
    "name": "Hotel Seegarten",
    "lat": 47.3613874,
    "lng": 8.549412,
    "candidateSource": "osm",
    "candidateFoundAt": "2026-02-11",
    "candidateOsmType": "node",
    "candidateOsmId": 268411248,
    "candidateUrl": "https://www.hotel-seegarten.ch/"
  },
  {
    "id": "osm-node-268420651-ginger",
    "name": "Ginger",
    "lat": 47.3618394,
    "lng": 8.5506873,
    "candidateSource": "osm",
    "candidateFoundAt": "2026-02-11",
    "candidateOsmType": "node",
    "candidateOsmId": 268420651,
    "candidateUrl": "https://ginger-restaurant.ch/",
    "candidatePhone": "+41 44 422 95 09",
    "candidateHours": "Mo-We 11:45-14:00,17:30-23:00; Th-Fr 11:45-14:00,17:30-24:00; Sa 17:30-24:00; Su off"
  },
  {
    "id": "osm-node-268421310-tiffins",
    "name": "Tiffins",
    "lat": 47.3618934,
    "lng": 8.551033,
    "candidateSource": "osm",
    "candidateFoundAt": "2026-02-11",
    "candidateOsmType": "node",
    "candidateOsmId": 268421310,
    "candidateUrl": "http://www.tiffins.ch/",
    "candidatePhone": "+41 44 382 18 88",
    "candidateHours": "Mo-Fr 11:30-23:00; Sa,Su 15:00-23:00"
  },
  {
    "id": "osm-node-268421599-suan-long",
    "name": "Suan Long",
    "lat": 47.3630112,
    "lng": 8.5495281,
    "candidateSource": "osm",
    "candidateFoundAt": "2026-02-11",
    "candidateOsmType": "node",
    "candidateOsmId": 268421599,
    "candidateUrl": "https://suanlong.ch/restaurant/suan-long-oerlikon/",
    "candidateHours": "Mo-Sa 17:30-22:00, Su 11:30-22:00, Mo-Fr 10:30-14:00"
  },
  {
    "id": "osm-node-268467807-kronenhalle",
    "name": "Kronenhalle",
    "lat": 47.3675511,
    "lng": 8.5457188,
    "candidateSource": "osm",
    "candidateFoundAt": "2026-02-11",
    "candidateOsmType": "node",
    "candidateOsmId": 268467807,
    "candidateUrl": "https://www.kronenhalle.com",
    "candidatePhone": "+41 44 262 99 00",
    "candidateHours": "Mo-Su 12:00-24:00"
  },
  {
    "id": "osm-node-268467884-terrasse-restaurant",
    "name": "Terrasse Restaurant",
    "lat": 47.3678872,
    "lng": 8.5443882,
    "candidateSource": "osm",
    "candidateFoundAt": "2026-02-11",
    "candidateOsmType": "node",
    "candidateOsmId": 268467884,
    "candidateUrl": "https://www.bindella.ch/de/terrasse-restaurant.html",
    "candidatePhone": "+41 44 251 10 74",
    "candidateHours": "Mo-Th 11:30-23:00; Fr-Sa 11:30-24:00; Su 10:00-14:00 \"Brunch\", 14:15-23:00"
  },
  {
    "id": "osm-node-268468109-caf-bar-odeon",
    "name": "Café Bar ODEON",
    "lat": 47.3677942,
    "lng": 8.5451446,
    "candidateSource": "osm",
    "candidateFoundAt": "2026-02-11",
    "candidateOsmType": "node",
    "candidateOsmId": 268468109,
    "candidateUrl": "https://odeon.ch/",
    "candidateHours": "Mo-Th 07:00-24:00, Fr-Sa 07:00-02:00, Su 09:00-24:00"
  },
  {
    "id": "osm-node-268468215-rosaly-s",
    "name": "Rosaly's",
    "lat": 47.3673843,
    "lng": 8.5458541,
    "candidateSource": "osm",
    "candidateFoundAt": "2026-02-11",
    "candidateOsmType": "node",
    "candidateOsmId": 268468215,
    "candidateUrl": "https://www.rosalys.ch/",
    "candidateHours": "Mo-Fr 11:30-14:30, 17:00-24:00; Sa 17:00-01:00; Su 17:00-24:00"
  },
  {
    "id": "osm-node-268468702-yume-ramen",
    "name": "Yume Ramen",
    "lat": 47.3670484,
    "lng": 8.5462454,
    "candidateSource": "osm",
    "candidateFoundAt": "2026-02-11",
    "candidateOsmType": "node",
    "candidateOsmId": 268468702,
    "candidateUrl": "https://www.yume-ramen.ch",
    "candidatePhone": "+41 44 518 03 60",
    "candidateHours": "Mo-Fr 11:30-13:30,18:00-21:30; Sa 12:00-13:30,18:00-21:30"
  },
  {
    "id": "osm-node-268468872-yooji-s",
    "name": "Yooji's",
    "lat": 47.3671867,
    "lng": 8.546484,
    "candidateSource": "osm",
    "candidateFoundAt": "2026-02-11",
    "candidateOsmType": "node",
    "candidateOsmId": 268468872,
    "candidateUrl": "https://www.yoojis.com/standorte/zuerich-i-bellevue/",
    "candidateHours": "Mo-Sa 11:00-22:00; Su 12:00-21:00"
  },
  {
    "id": "osm-node-268469567-commercio",
    "name": "Commercio",
    "lat": 47.3659313,
    "lng": 8.5490837,
    "candidateSource": "osm",
    "candidateFoundAt": "2026-02-11",
    "candidateOsmType": "node",
    "candidateOsmId": 268469567,
    "candidateUrl": "https://www.commercio.ch/commercio/",
    "candidateHours": "Mo-Su 11:00-24:00"
  },
  {
    "id": "osm-node-268470293-hatecke-du-th-tre",
    "name": "Hatecke du Théâtre",
    "lat": 47.363996,
    "lng": 8.5473846,
    "candidateSource": "osm",
    "candidateFoundAt": "2026-02-11",
    "candidateOsmType": "node",
    "candidateOsmId": 268470293,
    "candidateUrl": "https://www.hatecke.ch/",
    "candidateHours": "Mo 09:00-18:00; Tu-Fr 09:00-22:00; Sa 09:00-17:00"
  },
  {
    "id": "osm-node-268471384-amalfi",
    "name": "Amalfi",
    "lat": 47.3606695,
    "lng": 8.5499916,
    "candidateSource": "osm",
    "candidateFoundAt": "2026-02-11",
    "candidateOsmType": "node",
    "candidateOsmId": 268471384,
    "candidateUrl": "https://www.bindella.ch/de/amalfi.html",
    "candidateHours": "Mo-Th 11:30-23:00; Fr 11:30-23:30; Sa 12:00-23:30; Su 12:00-22:00"
  },
  {
    "id": "osm-node-268474433-restaurant-pumpstation",
    "name": "Restaurant Pumpstation",
    "lat": 47.3636438,
    "lng": 8.546378,
    "candidateSource": "osm",
    "candidateFoundAt": "2026-02-11",
    "candidateOsmType": "node",
    "candidateOsmId": 268474433,
    "candidateUrl": "http://www.pumpstation.ch/",
    "candidatePhone": "+41 44 260 96 69"
  },
  {
    "id": "osm-node-268475658-bohemia",
    "name": "Bohemia",
    "lat": 47.364789,
    "lng": 8.5548938,
    "candidateSource": "osm",
    "candidateFoundAt": "2026-02-11",
    "candidateOsmType": "node",
    "candidateOsmId": 268475658,
    "candidateUrl": "https://www.bohemia.ch/",
    "candidateHours": "Mo-Th 07:45-24:00, Fr 07:45-01:00, Sa 09:00-01:00, Su 09:00-17:00"
  },
  {
    "id": "osm-node-268475809-nooba",
    "name": "Nooba",
    "lat": 47.3651703,
    "lng": 8.554528,
    "candidateSource": "osm",
    "candidateFoundAt": "2026-02-11",
    "candidateOsmType": "node",
    "candidateOsmId": 268475809,
    "candidateUrl": "https://www.nooba.ch/",
    "candidateHours": "Mo-Sa 11:00-23:00; Su 14:00-22:00"
  },
  {
    "id": "osm-node-268482384-yooji-s",
    "name": "Yooji's",
    "lat": 47.3582879,
    "lng": 8.5541672,
    "candidateSource": "osm",
    "candidateFoundAt": "2026-02-11",
    "candidateOsmType": "node",
    "candidateOsmId": 268482384,
    "candidateUrl": "https://www.yoojis.com/standorte/sushi-im-seefeld-zuerich/",
    "candidateHours": "Mo-Sa 11:00-22:00; Su 16:00-22:00"
  },
  {
    "id": "osm-node-268602010-ländli",
    "name": "Ländli",
    "lat": 47.3627304,
    "lng": 8.5545618,
    "candidateSource": "osm",
    "candidateFoundAt": "2026-02-11",
    "candidateOsmType": "node",
    "candidateOsmId": 268602010,
    "candidateUrl": "https://www.laendlizueri.ch/gastronomie/",
    "candidatePhone": "+41 44 269 69 22",
    "candidateHours": "Mo-Fr 09:00-15:00"
  },
  {
    "id": "osm-node-268602798-santa-lucia",
    "name": "Santa Lucia",
    "lat": 47.3663196,
    "lng": 8.5467367,
    "candidateSource": "osm",
    "candidateFoundAt": "2026-02-11",
    "candidateOsmType": "node",
    "candidateOsmId": 268602798,
    "candidateUrl": "https://www.bindella.ch/de/santa-lucia-corso.html",
    "candidateHours": "Su-Tu 11:30-24:00; We-Th 11:30-02:00; Fr-Sa 11:30-05:00"
  },
  {
    "id": "osm-node-268602878-lulu",
    "name": "Lulu",
    "lat": 47.3649869,
    "lng": 8.5460635,
    "candidateSource": "osm",
    "candidateFoundAt": "2026-02-11",
    "candidateOsmType": "node",
    "candidateOsmId": 268602878,
    "candidateUrl": "https://www.lulu-zh.ch/",
    "candidatePhone": "+41 44 715 00 26"
  },
  {
    "id": "osm-node-268963180-house-of-ren",
    "name": "House of Ren",
    "lat": 47.3638611,
    "lng": 8.5311821,
    "candidateSource": "osm",
    "candidateFoundAt": "2026-02-11",
    "candidateOsmType": "node",
    "candidateOsmId": 268963180,
    "candidateUrl": "https://houseofren.ch/",
    "candidateHours": "Fr-Sa 10:00-22:30; PH,Su-Th 10:00-22:00"
  },
  {
    "id": "osm-node-269234997-pöstli-da-mamma-lisetta",
    "name": "Pöstli Da Mamma Lisetta",
    "lat": 47.3500092,
    "lng": 8.7181336,
    "candidateSource": "osm",
    "candidateFoundAt": "2026-02-11",
    "candidateOsmType": "node",
    "candidateOsmId": 269234997,
    "candidateUrl": "https://poestli-damammalisetta.ch/",
    "candidatePhone": "+41 44 940 70 70",
    "candidateHours": "Tu-Sa 11:00-23:00"
  },
  {
    "id": "osm-node-269371155-restaurant-dübi-ice",
    "name": "Restaurant Dübi Ice",
    "lat": 47.3895907,
    "lng": 8.627177,
    "candidateSource": "osm",
    "candidateFoundAt": "2026-02-11",
    "candidateOsmType": "node",
    "candidateOsmId": 269371155,
    "candidateUrl": "https://www.sfd-ag.ch/restaurant/",
    "candidatePhone": "+41 44 820 19 18",
    "candidateHours": "Mo-Sa 09:00-20:00, Su 09:00-18:00"
  },
  {
    "id": "osm-node-269423285-buchholz",
    "name": "Buchholz",
    "lat": 47.3596225,
    "lng": 8.7293139,
    "candidateSource": "osm",
    "candidateFoundAt": "2026-02-11",
    "candidateOsmType": "node",
    "candidateOsmId": 269423285,
    "candidateUrl": "http://ristorante-buchholz.ch",
    "candidatePhone": "+41 44 941 00 00",
    "candidateHours": "Tu-Fr 10:30-14:00,17:30-24:00; Sa 11:00-24:00; Su 11:00-21:00"
  },
  {
    "id": "osm-node-269423304-turandot",
    "name": "Turandot",
    "lat": 47.3467108,
    "lng": 8.727576,
    "candidateSource": "osm",
    "candidateFoundAt": "2026-02-11",
    "candidateOsmType": "node",
    "candidateOsmId": 269423304,
    "candidateUrl": "https://www.taverna-poseidon.ch/",
    "candidatePhone": "+41 44 941 50 11",
    "candidateHours": "Mo-Fr 11:00-14:00, 17:00-23:00; Sa 17:00-23:00"
  },
  {
    "id": "osm-node-269549794-kastanie",
    "name": "Kastanie",
    "lat": 47.3467206,
    "lng": 8.7158799,
    "candidateSource": "osm",
    "candidateFoundAt": "2026-02-11",
    "candidateOsmType": "node",
    "candidateOsmId": 269549794,
    "candidateUrl": "https://www.restaurant-kastanie.ch/",
    "candidateHours": "Mo-Th 11:30-14:00,17:30-23:00; Fr 11:30-14:00,17:30-23:00; Sa 17:30-23:00"
  },
  {
    "id": "osm-node-269913252-weisse-rose",
    "name": "Weisse Rose",
    "lat": 47.3682061,
    "lng": 8.5456652,
    "candidateSource": "osm",
    "candidateFoundAt": "2026-02-11",
    "candidateOsmType": "node",
    "candidateOsmId": 269913252,
    "candidateUrl": "https://www.weissero.se",
    "candidateHours": "Tu-Sa 17:00+; PH closed"
  },
  {
    "id": "osm-node-270691220-minine",
    "name": "Minine",
    "lat": 47.3690028,
    "lng": 8.5500485,
    "candidateSource": "osm",
    "candidateFoundAt": "2026-02-11",
    "candidateOsmType": "node",
    "candidateOsmId": 270691220,
    "candidateUrl": "https://www.mininesushi.com/",
    "candidatePhone": "+41 44 260 89 29",
    "candidateHours": "Mo-Fr 11:30-14:00,17:30-21:30; Sa 17:30-22:00"
  },
  {
    "id": "osm-node-270692604-na081",
    "name": "NA081",
    "lat": 47.3597536,
    "lng": 8.5524861,
    "candidateSource": "osm",
    "candidateFoundAt": "2026-02-11",
    "candidateOsmType": "node",
    "candidateOsmId": 270692604,
    "candidateUrl": "https://na081.ch/seefeld/",
    "candidatePhone": "+41 44 202 00 21",
    "candidateHours": "Tu-Fr 11:30-14:00, 17:30-22:00; Sa 13:30-22:30; Su-Mo off"
  },
  {
    "id": "osm-node-270793731-sonnenberg",
    "name": "Sonnenberg",
    "lat": 47.3673483,
    "lng": 8.5675093,
    "candidateSource": "osm",
    "candidateFoundAt": "2026-02-11",
    "candidateOsmType": "node",
    "candidateOsmId": 270793731,
    "candidateUrl": "https://sonnenberg-zurich.ch/",
    "candidatePhone": "+41 44 266 97 97",
    "candidateHours": "We-Su 11:00-24:00"
  },
  {
    "id": "osm-node-270794503-aroma",
    "name": "Aroma",
    "lat": 47.3654698,
    "lng": 8.5636573,
    "candidateSource": "osm",
    "candidateFoundAt": "2026-02-11",
    "candidateOsmType": "node",
    "candidateOsmId": 270794503,
    "candidateUrl": "https://www.ristorante-aroma.ch/"
  },
  {
    "id": "osm-node-270795983-restaurant-zauberberg",
    "name": "Restaurant Zauberberg",
    "lat": 47.3632165,
    "lng": 8.5599915,
    "candidateSource": "osm",
    "candidateFoundAt": "2026-02-11",
    "candidateOsmType": "node",
    "candidateOsmId": 270795983,
    "candidateUrl": "https://www.pukzh.ch/patienten-angehoerige/informationen-fuer-erwachsene/hotellerie/",
    "candidateHours": "Mo-Fr 08:30-14:00"
  },
  {
    "id": "osm-node-270796495-butcherstable",
    "name": "ButchersTable",
    "lat": 47.3615601,
    "lng": 8.5603652,
    "candidateSource": "osm",
    "candidateFoundAt": "2026-02-11",
    "candidateOsmType": "node",
    "candidateOsmId": 270796495,
    "candidateUrl": "https://www.williamsbutcherstable.ch/",
    "candidateHours": "Tu-Sa 11:30-14:00,18:00+"
  },
  {
    "id": "osm-node-270797381-neumünster",
    "name": "Neumünster",
    "lat": 47.3596206,
    "lng": 8.5585046,
    "candidateSource": "osm",
    "candidateFoundAt": "2026-02-11",
    "candidateOsmType": "node",
    "candidateOsmId": 270797381,
    "candidateUrl": "https://www.restaurant-neumuenster.ch/",
    "candidateHours": "Tu-Fr 11:00-14:00, Tu-Sa 17:00-24:00"
  },
  {
    "id": "osm-node-270798260-strand-restaurant-tiefenbrunnen",
    "name": "Strand-Restaurant Tiefenbrunnen",
    "lat": 47.3519701,
    "lng": 8.5580482,
    "candidateSource": "osm",
    "candidateFoundAt": "2026-02-11",
    "candidateOsmType": "node",
    "candidateOsmId": 270798260,
    "candidateUrl": "http://www.tiefenbrunnen.ch/"
  },
  {
    "id": "osm-node-270798712-wolfbach",
    "name": "Wolfbach",
    "lat": 47.3703441,
    "lng": 8.552204,
    "candidateSource": "osm",
    "candidateFoundAt": "2026-02-11",
    "candidateOsmType": "node",
    "candidateOsmId": 270798712,
    "candidateUrl": "https://www.wolfbach-zh.ch",
    "candidatePhone": "+41434330088",
    "candidateHours": "Mo-Fr 11:00-15:00, 18:00-23:00; Sa 18:00-23:00"
  },
  {
    "id": "osm-node-270798749-afghan-anar",
    "name": "Afghan Anar",
    "lat": 47.3697919,
    "lng": 8.5529812,
    "candidateSource": "osm",
    "candidateFoundAt": "2026-02-11",
    "candidateOsmType": "node",
    "candidateOsmId": 270798749,
    "candidateUrl": "https://www.afghananar.ch/",
    "candidatePhone": "+41 44 324 71 78",
    "candidateHours": "Mo-Fr 11:30-14:00,18:00-22:00; Sa 18:00-22:00"
  },
  {
    "id": "osm-node-270799836-blockhus",
    "name": "Blockhus",
    "lat": 47.3681833,
    "lng": 8.5451811,
    "candidateSource": "osm",
    "candidateFoundAt": "2026-02-11",
    "candidateOsmType": "node",
    "candidateOsmId": 270799836,
    "candidateUrl": "https://restaurant-blockhus.ch/",
    "candidatePhone": "+41 44 252 14 53",
    "candidateHours": "Mo-Tu 11:30-14:00,17:30-23:00; We-Sa 11:30-24:00"
  },
  {
    "id": "osm-node-270800540-weisser-wind",
    "name": "Weisser Wind",
    "lat": 47.3688249,
    "lng": 8.5455086,
    "candidateSource": "osm",
    "candidateFoundAt": "2026-02-11",
    "candidateOsmType": "node",
    "candidateOsmId": 270800540,
    "candidateUrl": "https://weisserwind.ch/",
    "candidateHours": "Mo-Fr 11:30-14:00,17:30-23:00; Sa 12:00-23:00"
  },
  {
    "id": "osm-node-270800743-papa-joe-s-zürich",
    "name": "Papa Joe's Zürich",
    "lat": 47.3687595,
    "lng": 8.5445743,
    "candidateSource": "osm",
    "candidateFoundAt": "2026-02-11",
    "candidateOsmType": "node",
    "candidateOsmId": 270800743,
    "candidateUrl": "https://www.papajoes.ch/de/Restaurants/",
    "candidateHours": "Fr-Sa 11:30-01:00; Su-Th 11:30-23:00"
  },
  {
    "id": "osm-node-270800785-molino",
    "name": "Molino",
    "lat": 47.3690472,
    "lng": 8.5439586,
    "candidateSource": "osm",
    "candidateFoundAt": "2026-02-11",
    "candidateOsmType": "node",
    "candidateOsmId": 270800785,
    "candidateUrl": "https://molino.ch/de/pizzeria-ristorante-molino-select",
    "candidateHours": "10:00-23:00"
  },
  {
    "id": "osm-node-270803256-zunfthaus-zur-meisen",
    "name": "Zunfthaus zur Meisen",
    "lat": 47.3700612,
    "lng": 8.5416945,
    "candidateSource": "osm",
    "candidateFoundAt": "2026-02-11",
    "candidateOsmType": "node",
    "candidateOsmId": 270803256,
    "candidateUrl": "https://www.zunfthaus-zur-meisen.ch/"
  },
  {
    "id": "osm-node-270920381-zoll-huus",
    "name": "Zoll-Huus",
    "lat": 47.1865701,
    "lng": 8.4013582,
    "candidateSource": "osm",
    "candidateFoundAt": "2026-02-11",
    "candidateOsmType": "node",
    "candidateOsmId": 270920381,
    "candidateUrl": "https://www.zoll-huus.ch/",
    "candidatePhone": "+41 41 780 11 09",
    "candidateHours": "Mo-Tu 17:00-22:00, Fr-Sa 17:00-23:00, Su 09:00-22:00, We-Th off"
  },
  {
    "id": "osm-node-270938093-bei-moudi-am-kunsthaus",
    "name": "Bei Moudi am Kunsthaus",
    "lat": 47.3707349,
    "lng": 8.5479863,
    "candidateSource": "osm",
    "candidateFoundAt": "2026-02-11",
    "candidateOsmType": "node",
    "candidateOsmId": 270938093,
    "candidateUrl": "https://www.beimoudi.ch/",
    "candidatePhone": "+41 44 251 53 53",
    "candidateHours": "Mo-Su 09:00-23:00; PH off"
  },
  {
    "id": "osm-node-270938320-santa-lucia",
    "name": "Santa Lucia",
    "lat": 47.3700603,
    "lng": 8.5398264,
    "candidateSource": "osm",
    "candidateFoundAt": "2026-02-11",
    "candidateOsmType": "node",
    "candidateOsmId": 270938320,
    "candidateUrl": "https://www.bindella.ch/de/santa-lucia-paradeplatz.html",
    "candidateHours": "Mo-Sa 11:30-22:30; Su off"
  },
  {
    "id": "osm-node-270938366-heugümper",
    "name": "Heugümper",
    "lat": 47.3702715,
    "lng": 8.5401314,
    "candidateSource": "osm",
    "candidateFoundAt": "2026-02-11",
    "candidateOsmType": "node",
    "candidateOsmId": 270938366,
    "candidateUrl": "https://www.restaurantheuguemper.ch/"
  },
  {
    "id": "osm-node-270938371-zunfthaus-zur-waag",
    "name": "Zunfthaus zur Waag",
    "lat": 47.3702401,
    "lng": 8.5403116,
    "candidateSource": "osm",
    "candidateFoundAt": "2026-02-11",
    "candidateOsmType": "node",
    "candidateOsmId": 270938371,
    "candidateUrl": "https://zunfthaus-zur-waag.ch/",
    "candidateHours": "Mo-Sa 11:30-14:00, 18:00-22:00; Nov-Dec Su 11:30-14:00"
  },
  {
    "id": "osm-node-270938393-münsterhöfli",
    "name": "Münsterhöfli",
    "lat": 47.3700175,
    "lng": 8.5403598,
    "candidateSource": "osm",
    "candidateFoundAt": "2026-02-11",
    "candidateOsmType": "node",
    "candidateOsmId": 270938393,
    "candidateUrl": "https://www.muensterhoefli.ch/",
    "candidateHours": "Mo-Fr 11:30-14:00,18:00-24:00, Sa 11:30-24:00"
  },
  {
    "id": "osm-node-270938652-n-n",
    "name": "Ăn Ăn",
    "lat": 47.3693,
    "lng": 8.5405687,
    "candidateSource": "osm",
    "candidateFoundAt": "2026-02-11",
    "candidateOsmType": "node",
    "candidateOsmId": 270938652,
    "candidateUrl": "https://www.anan.ch/",
    "candidateHours": "Mo-Th 10:00-23:00; Fr,Sa 10:00-00:00"
  },
  {
    "id": "osm-node-270938706-milchbar",
    "name": "Milchbar",
    "lat": 47.3689961,
    "lng": 8.5402339,
    "candidateSource": "osm",
    "candidateFoundAt": "2026-02-11",
    "candidateOsmType": "node",
    "candidateOsmId": 270938706,
    "candidateUrl": "https://www.milchbar.ch/"
  },
  {
    "id": "osm-node-271148493-outback-lodge",
    "name": "Outback Lodge",
    "lat": 47.3670788,
    "lng": 8.5477023,
    "candidateSource": "osm",
    "candidateFoundAt": "2026-02-11",
    "candidateOsmType": "node",
    "candidateOsmId": 271148493,
    "candidateUrl": "https://www.outback-lodge.ch/stadelhofen",
    "candidatePhone": "+41 44 252 15 75",
    "candidateHours": "Mo-Th 11:30-24:00, Fr-Sa 11:30-01:00, Su 11:30-23:00"
  },
  {
    "id": "osm-node-271148947-weisses-kreuz",
    "name": "Weisses Kreuz",
    "lat": 47.3661112,
    "lng": 8.5486513,
    "candidateSource": "osm",
    "candidateFoundAt": "2026-02-11",
    "candidateOsmType": "node",
    "candidateOsmId": 271148947,
    "candidateUrl": "https://restaurant-weisseskreuz.ch/",
    "candidatePhone": "+41 44 251 49 50",
    "candidateHours": "Mo-Su 08:30-24:00"
  },
  {
    "id": "osm-node-271149013-migros-restaurant",
    "name": "Migros Restaurant",
    "lat": 47.3654324,
    "lng": 8.5478765,
    "candidateSource": "osm",
    "candidateFoundAt": "2026-02-11",
    "candidateOsmType": "node",
    "candidateOsmId": 271149013,
    "candidateUrl": "https://filialen.migros.ch/de/migros-restaurant-zuerich-stadelhofen",
    "candidatePhone": "+41 44 261 46 64",
    "candidateHours": "Mo-Fr 07:00-20:00; Sa 08:00-20:00; PH off"
  },
  {
    "id": "osm-node-271151271-zoo-caff-ristorante",
    "name": "Zoo Caffè & Ristorante",
    "lat": 47.3843967,
    "lng": 8.5751844,
    "candidateSource": "osm",
    "candidateFoundAt": "2026-02-11",
    "candidateOsmType": "node",
    "candidateOsmId": 271151271,
    "candidateUrl": "https://www.zoo.ch/de/essen-trinken/zoo-caffe-ristorante",
    "candidateHours": "08:00-21:00"
  },
  {
    "id": "osm-node-271217159-la-trattoria-blumenau",
    "name": "La Trattoria Blumenau",
    "lat": 47.3490341,
    "lng": 8.5631953,
    "candidateSource": "osm",
    "candidateFoundAt": "2026-02-11",
    "candidateOsmType": "node",
    "candidateOsmId": 271217159,
    "candidateUrl": "https://trattoria-blumenau.ch/",
    "candidatePhone": "+41 44 750 02 33",
    "candidateHours": "Mo-Fr 11:30-14:30,18:00-23:30"
  },
  {
    "id": "osm-node-271223885-burgwies",
    "name": "Burgwies",
    "lat": 47.3578267,
    "lng": 8.5724184,
    "candidateSource": "osm",
    "candidateFoundAt": "2026-02-11",
    "candidateOsmType": "node",
    "candidateOsmId": 271223885,
    "candidateUrl": "https://burgwies.ch/",
    "candidateHours": "Mo-Fr 09:00-14:00,17:00-23:00; Oct 01-Mar 31 Mo-Fr 09:00-14:00,17:00-23:00, Sa 17:00-23:00; Su off"
  },
  {
    "id": "osm-node-271225677-marcellino-pane-e-vino",
    "name": "Marcellino Pane e Vino",
    "lat": 47.3602234,
    "lng": 8.5655522,
    "candidateSource": "osm",
    "candidateFoundAt": "2026-02-11",
    "candidateOsmType": "node",
    "candidateOsmId": 271225677,
    "candidateUrl": "https://marcellino.ch",
    "candidatePhone": "+41 44 380 26 90",
    "candidateHours": "Mo-Fr 11:30-14:30,18:00-23:30; Sa 18:00-23:30"
  },
  {
    "id": "osm-node-271226695-royal-panda",
    "name": "Royal Panda",
    "lat": 47.3643316,
    "lng": 8.5545739,
    "candidateSource": "osm",
    "candidateFoundAt": "2026-02-11",
    "candidateOsmType": "node",
    "candidateOsmId": 271226695,
    "candidateUrl": "https://www.royal-panda.ch/",
    "candidatePhone": "+41 76 520 66 66",
    "candidateHours": "Mo-Fr 11:00-14:00,17:30-22:00; Sa 11:30-14:30,17:30-22:00; Su 17:30-22:00; PH closed"
  },
  {
    "id": "osm-node-271411931-restaurant-schipfe-16",
    "name": "Restaurant Schipfe 16",
    "lat": 47.373118,
    "lng": 8.5417898,
    "candidateSource": "osm",
    "candidateFoundAt": "2026-02-11",
    "candidateOsmType": "node",
    "candidateOsmId": 271411931,
    "candidateUrl": "https://www.stadt-zuerich.ch/sd/de/index/stadtleben/gastronomie/schipfe16/restaurant.html",
    "candidateHours": "Tu-Sa 10:00-22:00; PH closed"
  },
  {
    "id": "osm-node-271411935-brasserie-lipp",
    "name": "Brasserie Lipp",
    "lat": 47.3743748,
    "lng": 8.5394674,
    "candidateSource": "osm",
    "candidateFoundAt": "2026-02-11",
    "candidateOsmType": "node",
    "candidateOsmId": 271411935,
    "candidateUrl": "https://www.brasserie-lipp.ch/",
    "candidateHours": "Mo-Fr 12:00-15:00,18:00-23:00; Sa 12:00-23:00; Su 16:30-22:00"
  },
  {
    "id": "osm-node-271411936-lotti",
    "name": "Lotti",
    "lat": 47.3751744,
    "lng": 8.5397124,
    "candidateSource": "osm",
    "candidateFoundAt": "2026-02-11",
    "candidateOsmType": "node",
    "candidateOsmId": 271411936,
    "candidateUrl": "https://www.lotti-lokal.ch/",
    "candidatePhone": "+41 43 399 01 01",
    "candidateHours": "Mo-Fr 09:00-23:00; Sa 10:00-23:00; Su, Mo off"
  },
  {
    "id": "osm-node-274986932-trinity",
    "name": "Trinity",
    "lat": 47.3676805,
    "lng": 8.5372866,
    "candidateSource": "osm",
    "candidateFoundAt": "2026-02-11",
    "candidateOsmType": "node",
    "candidateOsmId": 274986932,
    "candidateUrl": "https://www.trinity-swiss.ch/",
    "candidatePhone": "+41 78 221 35 49",
    "candidateHours": "Mo-Fr 11:30-14:00, Tu-Sa 18:00-21:00"
  },
  {
    "id": "osm-node-275341574-cheti-s-curry",
    "name": "Cheti's Curry",
    "lat": 47.3650488,
    "lng": 8.5486637,
    "candidateSource": "osm",
    "candidateFoundAt": "2026-02-11",
    "candidateOsmType": "node",
    "candidateOsmId": 275341574,
    "candidateUrl": "https://www.chetis.ch/",
    "candidateHours": "Mo-Fr 11:30-14:30, Tu-We 18:30-21:30, Th-Sa 18:30-22:00"
  },
  {
    "id": "osm-node-279180951-dupont-brasserie-bar",
    "name": "Dupont Brasserie & Bar",
    "lat": 47.3761856,
    "lng": 8.5413414,
    "candidateSource": "osm",
    "candidateFoundAt": "2026-02-11",
    "candidateOsmType": "node",
    "candidateOsmId": 279180951,
    "candidateUrl": "https://dupont.ch/",
    "candidateHours": "Mo-Th 10:00-23:00, Fr-Sa 10:00-01:00"
  },
  {
    "id": "osm-node-279180960-sala-of-tokyo",
    "name": "Sala of Tokyo",
    "lat": 47.3761821,
    "lng": 8.5402129,
    "candidateSource": "osm",
    "candidateFoundAt": "2026-02-11",
    "candidateOsmType": "node",
    "candidateOsmId": 279180960,
    "candidateUrl": "https://sala-of-tokyo.ch/",
    "candidateHours": "Tu-Fr 11:30-14:00,18:00-23:00"
  },
  {
    "id": "osm-node-280783431-santa-lucia",
    "name": "Santa Lucia",
    "lat": 47.3722057,
    "lng": 8.5437442,
    "candidateSource": "osm",
    "candidateFoundAt": "2026-02-11",
    "candidateOsmType": "node",
    "candidateOsmId": 280783431,
    "candidateUrl": "https://www.bindella.ch/de/santa-lucia-niederdorf.html",
    "candidateHours": "Mo-Sa 11:30-02:00; Su 11:30-24:00"
  },
  {
    "id": "osm-node-283458326-walliser-kanne",
    "name": "Walliser Kanne",
    "lat": 47.3766974,
    "lng": 8.5388369,
    "candidateSource": "osm",
    "candidateFoundAt": "2026-02-11",
    "candidateOsmType": "node",
    "candidateOsmId": 283458326,
    "candidateUrl": "https://www.walliserkanne-zuerich.ch/",
    "candidatePhone": "+41 44 211 31 33",
    "candidateHours": "Mo-Sa 11:30-23:00; Su 17:30-22:30"
  },
  {
    "id": "osm-node-283458331-sam-s-pizza-land",
    "name": "SAM'S Pizza Land",
    "lat": 47.3760268,
    "lng": 8.5384828,
    "candidateSource": "osm",
    "candidateFoundAt": "2026-02-11",
    "candidateOsmType": "node",
    "candidateOsmId": 283458331,
    "candidateUrl": "https://www.samspizza.ch/",
    "candidateHours": "Mo-Th 09:00-22:00; Fr,Sa 09:00-24:00; Su 11:00-22:00"
  },
  {
    "id": "osm-node-283458339-schützengasse",
    "name": "Schützengasse",
    "lat": 47.3771315,
    "lng": 8.5375254,
    "candidateSource": "osm",
    "candidateFoundAt": "2026-02-11",
    "candidateOsmType": "node",
    "candidateOsmId": 283458339,
    "candidateUrl": "https://www.schuetzengasse.com/",
    "candidatePhone": "+41 44 500 10 30",
    "candidateHours": "Mo-Fr 11:30-14:30,18:00-24:00, Sa 19:00-24:00; PH off"
  },
  {
    "id": "osm-node-283458368-astra",
    "name": "Astra",
    "lat": 47.3743934,
    "lng": 8.535549,
    "candidateSource": "osm",
    "candidateFoundAt": "2026-02-11",
    "candidateOsmType": "node",
    "candidateOsmId": 283458368,
    "candidateUrl": "https://astra-kitchenbar.ch/",
    "candidateHours": "Tu-Th 11:30-24:00, Fr 11:30-01:45, Sa 19:00-01:45"
  },
  {
    "id": "osm-node-286038265-glogge-egge",
    "name": "Glogge-Egge",
    "lat": 47.3729055,
    "lng": 8.5366859,
    "candidateSource": "osm",
    "candidateFoundAt": "2026-02-11",
    "candidateOsmType": "node",
    "candidateOsmId": 286038265,
    "candidateUrl": "https://www.glockenhof.ch/de/restaurants/restaurant_glogge_egge",
    "candidatePhone": "+41 44 225 91 91",
    "candidateHours": "Mo-Su 11:45-22:00"
  },
  {
    "id": "osm-node-286038266-james-joyce",
    "name": "James Joyce",
    "lat": 47.3722044,
    "lng": 8.5371777,
    "candidateSource": "osm",
    "candidateFoundAt": "2026-02-11",
    "candidateOsmType": "node",
    "candidateOsmId": 286038266,
    "candidateUrl": "https://www.jamesjoyce.ch/",
    "candidatePhone": "+41 44 221 18 28",
    "candidateHours": "Mo-Sa 11:00-23:00"
  },
  {
    "id": "osm-node-288340413-caf-zähringer",
    "name": "Café Zähringer",
    "lat": 47.3735998,
    "lng": 8.5447955,
    "candidateSource": "osm",
    "candidateFoundAt": "2026-02-11",
    "candidateOsmType": "node",
    "candidateOsmId": 288340413,
    "candidateUrl": "https://www.zaehringer.ch/",
    "candidatePhone": "+41 44 252 05 00",
    "candidateHours": "Tu,We 10:00-23:00, Th-Sa 10:00-24:00, Su 10:00-22:00; Mo off"
  },
  {
    "id": "osm-node-289669633-l-altro",
    "name": "L'Altro",
    "lat": 47.3600645,
    "lng": 8.5340786,
    "candidateSource": "osm",
    "candidateFoundAt": "2026-02-11",
    "candidateOsmType": "node",
    "candidateOsmId": 289669633,
    "candidateUrl": "https://www.l-altro.ch/",
    "candidateHours": "Mo-Fr 11:30-14:30,18:00-24:00"
  },
  {
    "id": "osm-node-289669639-sternen-da-guido",
    "name": "Sternen Da Guido",
    "lat": 47.3597047,
    "lng": 8.5318434,
    "candidateSource": "osm",
    "candidateFoundAt": "2026-02-11",
    "candidateOsmType": "node",
    "candidateOsmId": 289669639,
    "candidateUrl": "http://www.daguido.ch/",
    "candidateHours": "Mo-Fr 11:30-14:00,17:30-22:00; Sa,Su 17:30-22:00"
  },
  {
    "id": "osm-node-289669794-amara",
    "name": "Amara",
    "lat": 47.3635082,
    "lng": 8.5323081,
    "candidateSource": "osm",
    "candidateFoundAt": "2026-02-11",
    "candidateOsmType": "node",
    "candidateOsmId": 289669794,
    "candidateUrl": "https://amara-zurich.ch",
    "candidatePhone": "+41 44 280 57 75",
    "candidateHours": "Mo-Sa 09:00-22:00; Su off"
  },
  {
    "id": "osm-node-289669803-ruen-tai",
    "name": "Ruen Tai",
    "lat": 47.3637422,
    "lng": 8.5325109,
    "candidateSource": "osm",
    "candidateFoundAt": "2026-02-11",
    "candidateOsmType": "node",
    "candidateOsmId": 289669803,
    "candidateUrl": "https://ruenthai.ch/bysuthita/",
    "candidateHours": "Mo-Fr 08:00-22:30; Sa 18:00-22:30"
  },
  {
    "id": "osm-node-289669851-la-mimosa",
    "name": "La Mimosa",
    "lat": 47.3635147,
    "lng": 8.5339001,
    "candidateSource": "osm",
    "candidateFoundAt": "2026-02-11",
    "candidateOsmType": "node",
    "candidateOsmId": 289669851,
    "candidateUrl": "http://la-mimosa.ch/",
    "candidateHours": "Mo-Fr 11:00-14:00,17:00-21:30"
  },
  {
    "id": "osm-node-289890175-restaurant-belvoirpark",
    "name": "Restaurant Belvoirpark",
    "lat": 47.3577263,
    "lng": 8.533274,
    "candidateSource": "osm",
    "candidateFoundAt": "2026-02-11",
    "candidateOsmType": "node",
    "candidateOsmId": 289890175,
    "candidateUrl": "https://belvoirpark.ch/",
    "candidateHours": "We-Su 11:00-23:00"
  },
  {
    "id": "osm-node-290777112-bergrestaurant-etzel-kulm",
    "name": "Bergrestaurant Etzel Kulm",
    "lat": 47.1776187,
    "lng": 8.767722,
    "candidateSource": "osm",
    "candidateFoundAt": "2026-02-11",
    "candidateOsmType": "node",
    "candidateOsmId": 290777112,
    "candidateUrl": "https://hoch-etzel.ch/",
    "candidateHours": "Mo 09:00-18:00; We-Fr 09:00-21:00; Sa 08:00-21:00; Su 08:00-18:00"
  },
  {
    "id": "osm-node-297711157-old-inn",
    "name": "Old Inn",
    "lat": 47.365841,
    "lng": 8.5325611,
    "candidateSource": "osm",
    "candidateFoundAt": "2026-02-11",
    "candidateOsmType": "node",
    "candidateOsmId": 297711157,
    "candidateUrl": "https://theoldinn.ch/",
    "candidateHours": "Tu-Fr 11:30-14:00, Tu-Sa 18:00-24:00"
  },
  {
    "id": "osm-node-298540244-nishat",
    "name": "Nishat",
    "lat": 47.2876462,
    "lng": 8.5430311,
    "candidateSource": "osm",
    "candidateFoundAt": "2026-02-11",
    "candidateOsmType": "node",
    "candidateOsmId": 298540244,
    "candidateUrl": "https://www.halal-nishat-langnau-am-albis.ch/"
  },
  {
    "id": "osm-node-298540246-pizza-dome-haslen",
    "name": "Pizza-Dome Haslen",
    "lat": 47.2847918,
    "lng": 8.5321411,
    "candidateSource": "osm",
    "candidateFoundAt": "2026-02-11",
    "candidateOsmType": "node",
    "candidateOsmId": 298540246,
    "candidateUrl": "https://www.pizza-dome.ch/",
    "candidatePhone": "+41 44 713 10 03",
    "candidateHours": "Tu-Su 17:00-23:00"
  },
  {
    "id": "osm-node-299610695-don-weber",
    "name": "Don Weber",
    "lat": 47.3878614,
    "lng": 8.5244404,
    "candidateSource": "osm",
    "candidateFoundAt": "2026-02-11",
    "candidateOsmType": "node",
    "candidateOsmId": 299610695,
    "candidateUrl": "https://donweber.ch/",
    "candidateHours": "Mo-Fr 11:30-24:00, Sa 17:00-24:00, Su 17:00-23:00"
  },
  {
    "id": "osm-node-300419202-quartier-5-restaurant-bar",
    "name": "Quartier 5 Restaurant & Bar",
    "lat": 47.393791,
    "lng": 8.5132196,
    "candidateSource": "osm",
    "candidateFoundAt": "2026-02-11",
    "candidateOsmType": "node",
    "candidateOsmId": 300419202,
    "candidateUrl": "https://quartier5.ch/",
    "candidatePhone": "+41 44 440 66 77",
    "candidateHours": "Mo 11:30-14:00; Tu-Fr 11:30-14:00,17:30-22:00; Sa 18:00-23:00; Su off"
  },
  {
    "id": "osm-node-300419657-cucina",
    "name": "Cucina",
    "lat": 47.3936197,
    "lng": 8.5078042,
    "candidateSource": "osm",
    "candidateFoundAt": "2026-02-11",
    "candidateOsmType": "node",
    "candidateOsmId": 300419657,
    "candidateUrl": "https://www.cucinarestaurant.ch/",
    "candidateHours": "Mo 11:30-14:00; Tu-Fr 11:30-14:00,17:30-22:30; Sa 17:00-22:30; Su off"
  },
  {
    "id": "osm-node-301239672-oko",
    "name": "OKO",
    "lat": 47.372671,
    "lng": 8.528216,
    "candidateSource": "osm",
    "candidateFoundAt": "2026-02-11",
    "candidateOsmType": "node",
    "candidateOsmId": 301239672,
    "candidateUrl": "https://oko.bar/",
    "candidatePhone": "+41 43 243 83 94"
  },
  {
    "id": "osm-node-301657450-binario-3",
    "name": "Binario 3",
    "lat": 47.3853742,
    "lng": 8.7507357,
    "candidateSource": "osm",
    "candidateFoundAt": "2026-02-11",
    "candidateOsmType": "node",
    "candidateOsmId": 301657450,
    "candidateUrl": "https://www.binario3.ch/",
    "candidatePhone": "+41 44 955 21 01",
    "candidateHours": "Mo-Sa 11:30-14:30,17:30-23:00; Su 17:30-22:00"
  },
  {
    "id": "osm-node-301662770-gasthof-zum-hecht",
    "name": "Gasthof zum Hecht",
    "lat": 47.3657863,
    "lng": 8.7811472,
    "candidateSource": "osm",
    "candidateFoundAt": "2026-02-11",
    "candidateOsmType": "node",
    "candidateOsmId": 301662770,
    "candidateUrl": "https://www.gasthof-hecht.ch/",
    "candidatePhone": "+41 44 950 11 55"
  },
  {
    "id": "osm-node-301663066-brauerei",
    "name": "Brauerei",
    "lat": 47.365804,
    "lng": 8.7816724,
    "candidateSource": "osm",
    "candidateFoundAt": "2026-02-11",
    "candidateOsmType": "node",
    "candidateOsmId": 301663066,
    "candidateUrl": "https://www.braui.com/",
    "candidatePhone": "+41 449 512 747",
    "candidateHours": "Tu-Fr 11:00-14:00,16:30-23:30; Sa 16:30-23:00; PH off"
  },
  {
    "id": "osm-node-304074124-restaurant-langenberg-jäger-und-ofenstübli",
    "name": "Restaurant Langenberg (Jäger- und Ofenstübli)",
    "lat": 47.2926109,
    "lng": 8.5289385,
    "candidateSource": "osm",
    "candidateFoundAt": "2026-02-11",
    "candidateOsmType": "node",
    "candidateOsmId": 304074124,
    "candidateUrl": "https://www.wildnispark.ch/de/parkbesuch/verpflegung/restaurant-langenberg-",
    "candidatePhone": "+41 44 713 31 83",
    "candidateHours": "Mar-Oct Mo-Fr 09:00-17:00; Mar-Oct Sa-Su,PH 09:00-19:00; Nov-Feb 09:00-15:00; Nov-Feb Sa-Su,PH 09:00-17:00"
  },
  {
    "id": "osm-node-304597368-hang-s",
    "name": "Hang's",
    "lat": 47.3972052,
    "lng": 8.5408759,
    "candidateSource": "osm",
    "candidateFoundAt": "2026-02-11",
    "candidateOsmType": "node",
    "candidateOsmId": 304597368,
    "candidateUrl": "https://hangs.ch",
    "candidatePhone": "+41 44 370 26 10",
    "candidateHours": "Mo-Fr 11:30-14:00,17:30-22:30; Sa-Su 12:00-14:00,17:30-22:30"
  },
  {
    "id": "osm-node-305474041-jucker-farm-hofrestaurant",
    "name": "Jucker Farm Hofrestaurant",
    "lat": 47.3435794,
    "lng": 8.773069,
    "candidateSource": "osm",
    "candidateFoundAt": "2026-02-11",
    "candidateOsmType": "node",
    "candidateOsmId": 305474041,
    "candidateUrl": "https://www.juckerfarm.ch/",
    "candidatePhone": "+41 44 934 34 84",
    "candidateHours": "Nov-Apr: Mo-Su,PH 09:00-18:00; May-Oct: Mo-Su,PH 09:00-22:00"
  },
  {
    "id": "osm-node-305586626-les-halles",
    "name": "Les Halles",
    "lat": 47.3878633,
    "lng": 8.5186448,
    "candidateSource": "osm",
    "candidateFoundAt": "2026-02-11",
    "candidateOsmType": "node",
    "candidateOsmId": 305586626,
    "candidateUrl": "https://www.les-halles.ch",
    "candidateHours": "Mo-We 11:00-24:00; Th,Fr 11:00+ \"11:00 till late\"; Sa 16:00+ \"16:00 till late\""
  },
  {
    "id": "osm-node-305586751-toscano-im-puls-5",
    "name": "Toscano im Puls 5",
    "lat": 47.3900555,
    "lng": 8.5179098,
    "candidateSource": "osm",
    "candidateFoundAt": "2026-02-11",
    "candidateOsmType": "node",
    "candidateOsmId": 305586751,
    "candidateUrl": "https://ristorante-toscano.ch/puls5/",
    "candidatePhone": "+41 43 818 22 62",
    "candidateHours": "Mo-Fr 11:00-15:00,17:00-24:00; Sa 17:00-24:00; Su off"
  },
  {
    "id": "osm-node-306286865-restaurant-bar-metzg-russikon",
    "name": "Restaurant & Bar Metzg Russikon",
    "lat": 47.3936289,
    "lng": 8.7750377,
    "candidateSource": "osm",
    "candidateFoundAt": "2026-02-11",
    "candidateOsmType": "node",
    "candidateOsmId": 306286865,
    "candidateUrl": "https://metzg-russikon.ch/",
    "candidatePhone": "+41 44 955 40 00",
    "candidateHours": "Mo-Fr 06:00-24:00"
  },
  {
    "id": "osm-node-307501795-castanea",
    "name": "Castanea",
    "lat": 47.3597248,
    "lng": 8.7597142,
    "candidateSource": "osm",
    "candidateFoundAt": "2026-02-11",
    "candidateOsmType": "node",
    "candidateOsmId": 307501795,
    "candidateUrl": "http://www.krone-faichrueti.ch/",
    "candidateHours": "Tu-Sa 18:30-23:00"
  },
  {
    "id": "osm-node-307663831-wirtschaft-zum-neubüel",
    "name": "Wirtschaft zum Neubüel",
    "lat": 47.2316268,
    "lng": 8.6347819,
    "candidateSource": "osm",
    "candidateFoundAt": "2026-02-11",
    "candidateOsmType": "node",
    "candidateOsmId": 307663831,
    "candidateUrl": "https://neubuel.ch/",
    "candidatePhone": "+41 44 781 37 80",
    "candidateHours": "Mo-Fr 6:00-23:30; Sa 8:00 - 23:30"
  },
  {
    "id": "osm-node-307667723-pizzeria-romantica",
    "name": "Pizzeria Romantica",
    "lat": 47.2314321,
    "lng": 8.6680315,
    "candidateSource": "osm",
    "candidateFoundAt": "2026-02-11",
    "candidateOsmType": "node",
    "candidateOsmId": 307667723,
    "candidateUrl": "https://www.pizzeria-romantica.ch/waedenswil/",
    "candidatePhone": "+41447803322",
    "candidateHours": "Mo-Fr 10:00-14:00,17:30-24:00, Sa,Su 17:30-24:00"
  },
  {
    "id": "osm-node-307667861-neuhuesli",
    "name": "Neuhuesli",
    "lat": 47.2292601,
    "lng": 8.6707434,
    "candidateSource": "osm",
    "candidateFoundAt": "2026-02-11",
    "candidateOsmType": "node",
    "candidateOsmId": 307667861,
    "candidateUrl": "http://www.xn--restaurant-nihsli-b0b0ja.ch/",
    "candidateHours": "Tu-Fr 08:30-23:00; Mo 15:00-23:00"
  },
  {
    "id": "osm-node-307670012-ristorante-la-leonessa",
    "name": "Ristorante La Leonessa",
    "lat": 47.2288259,
    "lng": 8.6701255,
    "candidateSource": "osm",
    "candidateFoundAt": "2026-02-11",
    "candidateOsmType": "node",
    "candidateOsmId": 307670012,
    "candidateUrl": "https://www.laleonessa-waedi.ch/",
    "candidatePhone": "+41 44 501 87 98",
    "candidateHours": "Mo 17:30-22:00; Tu-Fr 11:00-14:00 & 17:00-22:30; Sa 17:00-22:30"
  },
  {
    "id": "osm-node-307747470-die-waid",
    "name": "Die Waid",
    "lat": 47.3999623,
    "lng": 8.5154056,
    "candidateSource": "osm",
    "candidateFoundAt": "2026-02-11",
    "candidateOsmType": "node",
    "candidateOsmId": 307747470,
    "candidateUrl": "https://www.diewaid.ch/",
    "candidateHours": "08:00-23:30"
  },
  {
    "id": "osm-node-308131133-du-lac",
    "name": "Du Lac",
    "lat": 47.2284429,
    "lng": 8.6752832,
    "candidateSource": "osm",
    "candidateFoundAt": "2026-02-11",
    "candidateOsmType": "node",
    "candidateOsmId": 308131133,
    "candidateUrl": "https://dulac-waedenswil.ch/"
  },
  {
    "id": "osm-node-310788549-kobal",
    "name": "Kobal",
    "lat": 47.3756685,
    "lng": 8.5243755,
    "candidateSource": "osm",
    "candidateFoundAt": "2026-02-11",
    "candidateOsmType": "node",
    "candidateOsmId": 310788549,
    "candidateUrl": "https://www.kobal-curry-restaurant-zuerich.ch/",
    "candidatePhone": "+41 44 241 26 19",
    "candidateHours": "Mo-Su 11:00-14:30, 17:30-23:30"
  },
  {
    "id": "osm-node-311180610-nikos",
    "name": "Nikos",
    "lat": 47.377552,
    "lng": 8.4983437,
    "candidateSource": "osm",
    "candidateFoundAt": "2026-02-11",
    "candidateOsmType": "node",
    "candidateOsmId": 311180610,
    "candidateUrl": "https://www.nikos-taverne.ch/",
    "candidateHours": "Tu-Fr 11:00-14:00, Mo-Fr 17:00-24:00, Sa,Su 17:00-24:00; Mo off"
  },
  {
    "id": "osm-node-311607628-tenz-momo",
    "name": "Tenz Momo",
    "lat": 47.3775516,
    "lng": 8.5262968,
    "candidateSource": "osm",
    "candidateFoundAt": "2026-02-11",
    "candidateOsmType": "node",
    "candidateOsmId": 311607628,
    "candidateUrl": "https://www.tenz.ch",
    "candidatePhone": "+41 76 816 80 44",
    "candidateHours": "Mo-Th 11:30-14:00,17:30-23:00; Fr 11:30-14:00,17:30-24:00; Sa 16:00-24:00; Su off"
  },
  {
    "id": "osm-node-311960281-il-salento",
    "name": "Il Salento",
    "lat": 47.3792831,
    "lng": 8.4948742,
    "candidateSource": "osm",
    "candidateFoundAt": "2026-02-11",
    "candidateOsmType": "node",
    "candidateOsmId": 311960281,
    "candidateUrl": "https://www.ristoranteilsalento.ch",
    "candidateHours": "Mo-Fr 10:00-14:00,17:00-23:00; Sa 11:00-14:00,17:00-23:00"
  },
  {
    "id": "osm-node-312130321-la-baracca",
    "name": "La Baracca",
    "lat": 47.3761736,
    "lng": 8.522301,
    "candidateSource": "osm",
    "candidateFoundAt": "2026-02-11",
    "candidateOsmType": "node",
    "candidateOsmId": 312130321,
    "candidateUrl": "https://www.osteria-santobevitore.ch/#la-baracca-ristorante",
    "candidatePhone": "+41 43 811 80 04",
    "candidateHours": "Tu-Fr 11:30-14:00, 18:00-00:00; Sa, Su 18:00-00:00"
  },
  {
    "id": "osm-node-312137617-chicher-a-cantina",
    "name": "Chichería Cantina",
    "lat": 47.3739825,
    "lng": 8.5222246,
    "candidateSource": "osm",
    "candidateFoundAt": "2026-02-11",
    "candidateOsmType": "node",
    "candidateOsmId": 312137617,
    "candidateUrl": "https://www.cantinazurich.ch/",
    "candidatePhone": "+41 44 302 42 42",
    "candidateHours": "Mo-Fr 11:30-23:00; Sa 14:00-23:30; Su closed"
  },
  {
    "id": "osm-node-312530452-fribourger-stübli",
    "name": "Fribourger Stübli",
    "lat": 47.375039,
    "lng": 8.5281814,
    "candidateSource": "osm",
    "candidateFoundAt": "2026-02-11",
    "candidateOsmType": "node",
    "candidateOsmId": 312530452,
    "candidateUrl": "https://www.fribourger-fondue-stuebli.ch/",
    "candidateHours": "Tu-Su 18:00+"
  },
  {
    "id": "osm-node-312580271-lily-s",
    "name": "LILY'S",
    "lat": 47.3825398,
    "lng": 8.5296036,
    "candidateSource": "osm",
    "candidateFoundAt": "2026-02-11",
    "candidateOsmType": "node",
    "candidateOsmId": 312580271,
    "candidateUrl": "https://lilys.ch/",
    "candidatePhone": "+41 44 440 18 85",
    "candidateHours": "Mo-Sa 11:00-24:00; Su 12:00-22:30"
  },
  {
    "id": "osm-node-312592661-saravanaa-bhavan",
    "name": "Saravanaa Bhavan",
    "lat": 47.3818876,
    "lng": 8.535575,
    "candidateSource": "osm",
    "candidateFoundAt": "2026-02-11",
    "candidateOsmType": "node",
    "candidateOsmId": 312592661,
    "candidateUrl": "https://www.saravanaabhavan.swiss",
    "candidateHours": "Mo-Su 11:30-22:00"
  },
  {
    "id": "osm-node-313026928-fivespice",
    "name": "FiveSpice",
    "lat": 47.3758295,
    "lng": 8.5164278,
    "candidateSource": "osm",
    "candidateFoundAt": "2026-02-11",
    "candidateOsmType": "node",
    "candidateOsmId": 313026928,
    "candidateUrl": "https://www.fivespices.biz/",
    "candidatePhone": "+41 44 291 00 42",
    "candidateHours": "Mo-Fr 11:00-14:30,17:30-23:00; Sa-Su 17:30-23:00"
  },
  {
    "id": "osm-node-313212365-suan-long",
    "name": "Suan Long",
    "lat": 47.3748589,
    "lng": 8.5244037,
    "candidateSource": "osm",
    "candidateFoundAt": "2026-02-11",
    "candidateOsmType": "node",
    "candidateOsmId": 313212365,
    "candidateUrl": "https://suanlong.ch/restaurant/suan-long-langstrasse/",
    "candidateHours": "Mo-Su 11:00-23:00"
  },
  {
    "id": "osm-node-313212546-yuma",
    "name": "Yuma",
    "lat": 47.374422,
    "lng": 8.5239732,
    "candidateSource": "osm",
    "candidateFoundAt": "2026-02-11",
    "candidateOsmType": "node",
    "candidateOsmId": 313212546,
    "candidateUrl": "https://www.yuma-zurich.ch/",
    "candidatePhone": "+41 43 243 88 88",
    "candidateHours": "Mo-Fr 08:00-24:00; Sa 10:00-02:00, Su 10:00-17:00"
  },
  {
    "id": "osm-node-313367191-le-c-dre",
    "name": "Le Cèdre",
    "lat": 47.3738833,
    "lng": 8.5264947,
    "candidateSource": "osm",
    "candidateFoundAt": "2026-02-11",
    "candidateOsmType": "node",
    "candidateOsmId": 313367191,
    "candidateUrl": "https://libanesisch.ch/",
    "candidatePhone": "+41 44 241 42 72",
    "candidateHours": "Mo-Fr 11:30-14:30,18:00-24:00;Sa 18:00-24:00;PH closed"
  },
  {
    "id": "osm-node-314658886-peking-garden",
    "name": "Peking Garden",
    "lat": 47.3503407,
    "lng": 8.7179661,
    "candidateSource": "osm",
    "candidateFoundAt": "2026-02-11",
    "candidateOsmType": "node",
    "candidateOsmId": 314658886,
    "candidateUrl": "https://www.peking-garden.ch/",
    "candidatePhone": "+41 44 940 13 54",
    "candidateHours": "Mo-Su 11:00-22:30"
  },
  {
    "id": "osm-node-315861625-derby",
    "name": "Derby",
    "lat": 47.3761196,
    "lng": 8.5163348,
    "candidateSource": "osm",
    "candidateFoundAt": "2026-02-11",
    "candidateOsmType": "node",
    "candidateOsmId": 315861625,
    "candidateUrl": "https://pizzaderby.ch/",
    "candidatePhone": "+41 44 545 21 11",
    "candidateHours": "Sa-Su 17:00-00:00; Tu-Fr 17:30-00:00"
  },
  {
    "id": "osm-node-315862440-equitable",
    "name": "EquiTable",
    "lat": 47.3778609,
    "lng": 8.5211491,
    "candidateSource": "osm",
    "candidateFoundAt": "2026-02-11",
    "candidateOsmType": "node",
    "candidateOsmId": 315862440,
    "candidateUrl": "https://www.equi-table.ch",
    "candidatePhone": "+41 43 534 82 77",
    "candidateHours": "Tu-Sa 18:30-24:00"
  },
  {
    "id": "osm-node-315863759-l-artista",
    "name": "L'Artista",
    "lat": 47.375093,
    "lng": 8.5178314,
    "candidateSource": "osm",
    "candidateFoundAt": "2026-02-11",
    "candidateOsmType": "node",
    "candidateOsmId": 315863759,
    "candidateUrl": "https://lartista.ch",
    "candidatePhone": "+41 44 527 71 20",
    "candidateHours": "Mo-Th 11:00-14:00, 17:00-22:00; Fr-Sa 11:00-14:00, 17:00-23:00; Su 11:00-22:00"
  },
  {
    "id": "osm-node-316830565-zur-goldige-guttere",
    "name": "Zur Goldige Guttere",
    "lat": 47.3744885,
    "lng": 8.516816,
    "candidateSource": "osm",
    "candidateFoundAt": "2026-02-11",
    "candidateOsmType": "node",
    "candidateOsmId": 316830565,
    "candidateUrl": "https://www.zurgoldigeguttere.ch/",
    "candidatePhone": "+41 44 451 14 14",
    "candidateHours": "Tu-Sa 18:00-24:00"
  },
  {
    "id": "osm-node-316831596-miki-ramen",
    "name": "Miki Ramen",
    "lat": 47.3752742,
    "lng": 8.5165912,
    "candidateSource": "osm",
    "candidateFoundAt": "2026-02-11",
    "candidateOsmType": "node",
    "candidateOsmId": 316831596,
    "candidateUrl": "http://www.miki-ramen.ch/",
    "candidatePhone": "+41 44 450 37 76",
    "candidateHours": "Mo-Fr 11:45-14:30, 18:00-23:00; Sa 12:00-23:00; Su 18:00-23:00"
  },
  {
    "id": "osm-node-316839692-masala",
    "name": "Masala",
    "lat": 47.3730187,
    "lng": 8.5289781,
    "candidateSource": "osm",
    "candidateFoundAt": "2026-02-11",
    "candidateOsmType": "node",
    "candidateOsmId": 316839692,
    "candidateUrl": "https://masala.ch/",
    "candidatePhone": "+41 44 240 03 61",
    "candidateHours": "Mo-Fr 11:30-14:00, 18:00-22:30; Sa 18:00-22:30"
  },
  {
    "id": "osm-node-317024417-antica-roma",
    "name": "Antica Roma",
    "lat": 47.3702232,
    "lng": 8.531828,
    "candidateSource": "osm",
    "candidateFoundAt": "2026-02-11",
    "candidateOsmType": "node",
    "candidateOsmId": 317024417,
    "candidateUrl": "https://www.antica-roma.ch/",
    "candidatePhone": "+41 44 280 26 20",
    "candidateHours": "Mo-Fr 11:30-14:30,18:00-23:30; Sa 18:00-23:30; Su off"
  },
  {
    "id": "osm-node-317283181-zum-weissen-rössli",
    "name": "zum weissen Rössli",
    "lat": 47.2437622,
    "lng": 8.4631377,
    "candidateSource": "osm",
    "candidateFoundAt": "2026-02-11",
    "candidateOsmType": "node",
    "candidateOsmId": 317283181,
    "candidateUrl": "https://www.roessli-mettmenstetten.ch/",
    "candidatePhone": "+41 44 767 02 01",
    "candidateHours": "Mo-Th 09:00-14:00,17:00-23:00; Fr,Sa 09:00-23:00; Su 09:30-22:00"
  },
  {
    "id": "osm-node-317769175-rheinfelder-bierhalle",
    "name": "Rheinfelder Bierhalle",
    "lat": 47.3759081,
    "lng": 8.5441559,
    "candidateSource": "osm",
    "candidateFoundAt": "2026-02-11",
    "candidateOsmType": "node",
    "candidateOsmId": 317769175,
    "candidateUrl": "https://www.rheinfelderbierhalle.com/",
    "candidatePhone": "+41 44 251 54 64"
  },
  {
    "id": "osm-node-317774611-karl-der-grosse",
    "name": "Karl der Grosse",
    "lat": 47.3697813,
    "lng": 8.5445846,
    "candidateSource": "osm",
    "candidateFoundAt": "2026-02-11",
    "candidateOsmType": "node",
    "candidateOsmId": 317774611,
    "candidateUrl": "https://www.stadt-zuerich.ch/karldergrosse",
    "candidateHours": "Mo 09:00-17:00; Tu-Fr 09:00-23:00; Sa 11:00-24:00"
  },
  {
    "id": "osm-node-317816283-restaurant-werdinsel",
    "name": "Restaurant Werdinsel",
    "lat": 47.3993584,
    "lng": 8.4893633,
    "candidateSource": "osm",
    "candidateFoundAt": "2026-02-11",
    "candidateOsmType": "node",
    "candidateOsmId": 317816283,
    "candidateUrl": "https://www.werdinsel.com/",
    "candidatePhone": "+41 44 341 74 72",
    "candidateHours": "Mo-Su 09:00-20:00 open \"nur bei schönem Wetter\""
  },
  {
    "id": "osm-node-318350213-gasthof-zur-krone",
    "name": "Gasthof zur Krone",
    "lat": 47.3655519,
    "lng": 8.6759618,
    "candidateSource": "osm",
    "candidateFoundAt": "2026-02-11",
    "candidateOsmType": "node",
    "candidateOsmId": 318350213,
    "candidateUrl": "https://www.zur-krone.ch/",
    "candidatePhone": "+41 44 905 46 56",
    "candidateHours": "Mo-Fr 09:00-22:00; Sa-Su,PH 10:00-22:00"
  },
  {
    "id": "osm-node-319291882-ooki-pavillon-letzigrund",
    "name": "Ooki Pavillon Letzigrund",
    "lat": 47.3807554,
    "lng": 8.5040594,
    "candidateSource": "osm",
    "candidateFoundAt": "2026-02-11",
    "candidateOsmType": "node",
    "candidateOsmId": 319291882,
    "candidateUrl": "https://pavillon.ooki.tokyo",
    "candidatePhone": "+41 44 400 29 29",
    "candidateHours": "Tu-Fr 11:30-14:00, 17:30-00:00; Sa 17:30-00:00; Su 17:30-22:00"
  },
  {
    "id": "osm-node-320149547-moni-hanspi-s-bäsebeiz",
    "name": "Moni + Hanspi's Bäsebeiz",
    "lat": 47.3441046,
    "lng": 8.693592,
    "candidateSource": "osm",
    "candidateFoundAt": "2026-02-11",
    "candidateOsmType": "node",
    "candidateOsmId": 320149547,
    "candidateUrl": "https://www.baesebeiz-uster.ch/",
    "candidateHours": "\"April - August: Samstag, Sonntag ab 12:00 bis Sonnenuntergang bei schönem Wetter geöffnet\""
  },
  {
    "id": "osm-node-320199169-krone-nossikon",
    "name": "Krone Nossikon",
    "lat": 47.340872,
    "lng": 8.7267385,
    "candidateSource": "osm",
    "candidateFoundAt": "2026-02-11",
    "candidateOsmType": "node",
    "candidateOsmId": 320199169,
    "candidateUrl": "https://www.krone-nossikon.ch/",
    "candidatePhone": "+41 44 940 16 49",
    "candidateHours": "Tu-Fr 11:00-14:00, Su 11:00-22:00, Sa 17:00-23:00, Tu-Fr 17:00-23:00"
  },
  {
    "id": "osm-node-321000070-stazione-paradiso",
    "name": "Stazione Paradiso",
    "lat": 47.3867368,
    "lng": 8.5340332,
    "candidateSource": "osm",
    "candidateFoundAt": "2026-02-11",
    "candidateOsmType": "node",
    "candidateOsmId": 321000070,
    "candidateUrl": "https://www.stazioneparadiso.ch/",
    "candidateHours": "We-Fr 11:30-00:00; Sa, Su 11:30-00:00"
  },
  {
    "id": "osm-node-321364237-sv-mensa-polyterrasse",
    "name": "SV Mensa Polyterrasse",
    "lat": 47.3763026,
    "lng": 8.5465369,
    "candidateSource": "osm",
    "candidateFoundAt": "2026-02-11",
    "candidateOsmType": "node",
    "candidateOsmId": 321364237,
    "candidateUrl": "https://www.ethz.ch/de/campus/erleben/gastronomie-und-einkaufen/gastronomie/restaurants-und-cafeterias/zentrum/mensa-polyterrasse.html",
    "candidatePhone": "+41 44 632 62 02",
    "candidateHours": "Mo-Fr 11:15-14:00,17:30-19:30"
  },
  {
    "id": "osm-node-321364310-clausiusbar",
    "name": "Clausiusbar",
    "lat": 47.3772558,
    "lng": 8.5470004,
    "candidateSource": "osm",
    "candidateFoundAt": "2026-02-11",
    "candidateOsmType": "node",
    "candidateOsmId": 321364310,
    "candidateUrl": "https://web.sv-restaurant.ch/stores/42011/details",
    "candidateHours": "Mo-Fr 11:15-14:00"
  },
  {
    "id": "osm-node-321364380-food-lab",
    "name": "food&lab",
    "lat": 47.378314,
    "lng": 8.548805,
    "candidateSource": "osm",
    "candidateFoundAt": "2026-02-11",
    "candidateOsmType": "node",
    "candidateOsmId": 321364380,
    "candidateUrl": "https://ethz.ch/de/campus/erleben/gastronomie-und-einkaufen/gastronomie/restaurants-und-cafeterias/zentrum/food-lab.html",
    "candidatePhone": "+41 44 632 80 11",
    "candidateHours": "Mo-Fr 08:30-15:00"
  },
  {
    "id": "osm-node-327453057-bernerhof",
    "name": "Bernerhof",
    "lat": 47.3745992,
    "lng": 8.5320588,
    "candidateSource": "osm",
    "candidateFoundAt": "2026-02-11",
    "candidateOsmType": "node",
    "candidateOsmId": 327453057,
    "candidateUrl": "https://www.bernerhof-zuerich.ch/",
    "candidateHours": "Mo-Fr 11:30-14:00, Tu-Sa 18:00-23:00"
  },
  {
    "id": "osm-node-327453260-ristorante-italia",
    "name": "Ristorante Italia",
    "lat": 47.3763729,
    "lng": 8.5292946,
    "candidateSource": "osm",
    "candidateFoundAt": "2026-02-11",
    "candidateOsmType": "node",
    "candidateOsmId": 327453260,
    "candidateUrl": "https://www.ristorante-italia.ch/",
    "candidatePhone": "+41 43 233 88 44",
    "candidateHours": "Mo-Fr 11:30-14:00, 18:00-24:00; Sa-Su 18:00-23:00"
  },
  {
    "id": "osm-node-329094569-gonzalez",
    "name": "Gonzalez",
    "lat": 47.3962653,
    "lng": 8.5402882,
    "candidateSource": "osm",
    "candidateFoundAt": "2026-02-11",
    "candidateOsmType": "node",
    "candidateOsmId": 329094569,
    "candidateUrl": "https://restaurant-gonzalez.ch/",
    "candidatePhone": "+41 44 361 11 10",
    "candidateHours": "Mo-Fr 11:00-14:30,17:30-24:00, Sa 18:00-24:00"
  },
  {
    "id": "osm-node-331182590-johanniter",
    "name": "Johanniter",
    "lat": 47.3757513,
    "lng": 8.5441431,
    "candidateSource": "osm",
    "candidateFoundAt": "2026-02-11",
    "candidateOsmType": "node",
    "candidateOsmId": 331182590,
    "candidateUrl": "https://www.johanniter.com/",
    "candidatePhone": "+41 44 253 62 00",
    "candidateHours": "Mo-Su 10:00-24:00"
  },
  {
    "id": "osm-node-331183362-bierhalle-wolf",
    "name": "Bierhalle Wolf",
    "lat": 47.3758264,
    "lng": 8.543866,
    "candidateSource": "osm",
    "candidateFoundAt": "2026-02-11",
    "candidateOsmType": "node",
    "candidateOsmId": 331183362,
    "candidateUrl": "https://www.bierhalle-wolf.ch/",
    "candidateHours": "Mo-Th,Su 11:00-23:15; Fr-Sa 11:00-02:00"
  },
  {
    "id": "osm-node-331184721-bindella",
    "name": "Bindella",
    "lat": 47.3706846,
    "lng": 8.5406432,
    "candidateSource": "osm",
    "candidateFoundAt": "2026-02-11",
    "candidateOsmType": "node",
    "candidateOsmId": 331184721,
    "candidateUrl": "https://www.bindella.ch/de/bindella-zuerich.html",
    "candidateHours": "Mo-Sa 11:30-23:30; Su 17:30-22:30"
  },
  {
    "id": "osm-node-331350098-schlüssel-bar",
    "name": "Schlüssel Bar",
    "lat": 47.3515441,
    "lng": 8.7133319,
    "candidateSource": "osm",
    "candidateFoundAt": "2026-02-11",
    "candidateOsmType": "node",
    "candidateOsmId": 331350098,
    "candidateUrl": "https://schlüsselbar.ch",
    "candidatePhone": "+41 44 991 28 38",
    "candidateHours": "Sa,Su 17:30-18:00+"
  },
  {
    "id": "osm-node-334300587-aargauerhof",
    "name": "Aargauerhof",
    "lat": 47.3773665,
    "lng": 8.526169,
    "candidateSource": "osm",
    "candidateFoundAt": "2026-02-11",
    "candidateOsmType": "node",
    "candidateOsmId": 334300587,
    "candidateUrl": "https://restaurant-aargauerhof.ch/",
    "candidatePhone": "+41 44 242 46 16",
    "candidateHours": "Mo,We-Th,Sa 11:00-23:00; Tu,Fr 10:00-23:00; Su 16:00-22:00"
  },
  {
    "id": "osm-node-336645283-stall-stube",
    "name": "Stall-Stube",
    "lat": 47.3304445,
    "lng": 8.6811754,
    "candidateSource": "osm",
    "candidateFoundAt": "2026-02-11",
    "candidateOsmType": "node",
    "candidateOsmId": 336645283,
    "candidateUrl": "https://www.stallstube-maur.ch/",
    "candidatePhone": "+41 44 980 02 81",
    "candidateHours": "Th 16:00+; Fr 11:30+; Sa-Su 10:00+"
  },
  {
    "id": "osm-node-339708425-restaurant-alpenblick",
    "name": "Restaurant Alpenblick",
    "lat": 47.2879251,
    "lng": 8.6542019,
    "candidateSource": "osm",
    "candidateFoundAt": "2026-02-11",
    "candidateOsmType": "node",
    "candidateOsmId": 339708425,
    "candidateUrl": "https://alpenblickmeilen.ch",
    "candidatePhone": "+41 44 923 04 02"
  },
  {
    "id": "osm-node-340223542-tibits",
    "name": "Tibits",
    "lat": 47.1737401,
    "lng": 8.5171375,
    "candidateSource": "osm",
    "candidateFoundAt": "2026-02-11",
    "candidateOsmType": "node",
    "candidateOsmId": 340223542,
    "candidateUrl": "https://www.tibits.ch/en/1698#tibits-zug",
    "candidatePhone": "+41 41 531 33 33",
    "candidateHours": "Mo-Sa 07:30-22:00; Su 09:00-16:00"
  },
  {
    "id": "osm-node-343364120-kantorei",
    "name": "Kantorei",
    "lat": 47.3724275,
    "lng": 8.5455328,
    "candidateSource": "osm",
    "candidateFoundAt": "2026-02-11",
    "candidateOsmType": "node",
    "candidateOsmId": 343364120,
    "candidateUrl": "https://restaurantkantorei.ch",
    "candidatePhone": "+41 44 252 27 27",
    "candidateHours": "Mo-Fr 09:00-23:00; Sa 11:30-23:00; Su 11:30-22:00"
  },
  {
    "id": "osm-node-345525376-beke",
    "name": "Beke",
    "lat": 47.3748597,
    "lng": 8.5149995,
    "candidateSource": "osm",
    "candidateFoundAt": "2026-02-11",
    "candidateOsmType": "node",
    "candidateOsmId": 345525376,
    "candidateUrl": "https://www.beke.restaurant/",
    "candidateHours": "Tu-Fr 18:00-24:00, Sa 10:00-24:00, Su 10:00-16:00; PH off"
  },
  {
    "id": "osm-node-345525907-schiwago",
    "name": "Schiwago",
    "lat": 47.3723327,
    "lng": 8.5104366,
    "candidateSource": "osm",
    "candidateFoundAt": "2026-02-11",
    "candidateOsmType": "node",
    "candidateOsmId": 345525907,
    "candidateUrl": "http://www.levante.ch/",
    "candidateHours": "We-Sa 17:30-23:00"
  },
  {
    "id": "osm-node-345567165-restaurant-zum-hirschen",
    "name": "Restaurant zum Hirschen",
    "lat": 47.1745996,
    "lng": 8.7117871,
    "candidateSource": "osm",
    "candidateFoundAt": "2026-02-11",
    "candidateOsmType": "node",
    "candidateOsmId": 345567165,
    "candidateUrl": "https://hotel-zumhirschen.ch/restaurant/",
    "candidatePhone": "+41 44 784 00 14"
  },
  {
    "id": "osm-node-346301450-steakhouse-bahnhof",
    "name": "Steakhouse Bahnhof",
    "lat": 47.2442494,
    "lng": 8.4579335,
    "candidateSource": "osm",
    "candidateFoundAt": "2026-02-11",
    "candidateOsmType": "node",
    "candidateOsmId": 346301450,
    "candidateUrl": "https://www.steakhouse-bahnhof.ch/",
    "candidatePhone": "+41 44 767 06 06",
    "candidateHours": "Mo-Su 10:00-00:00"
  },
  {
    "id": "osm-node-354494335-han",
    "name": "Han",
    "lat": 47.3519593,
    "lng": 8.718404,
    "candidateSource": "osm",
    "candidateFoundAt": "2026-02-11",
    "candidateOsmType": "node",
    "candidateOsmId": 354494335,
    "candidateUrl": "https://www.han.ch/angebot-uster",
    "candidateHours": "Mo-Fr 10:00-14:00, Mo-Th 18:00-23:30, Fr 18:00-24:00, Sa 17:30-24:00, Su 17:00-23:30; PH 17:00-23:30"
  },
  {
    "id": "osm-node-354532237-asialand",
    "name": "Asialand",
    "lat": 47.3492494,
    "lng": 8.7184166,
    "candidateSource": "osm",
    "candidateFoundAt": "2026-02-11",
    "candidateOsmType": "node",
    "candidateOsmId": 354532237,
    "candidateUrl": "http://www.asialand.ch/",
    "candidateHours": "Mo-Fr 11:00-18:00; Sa 11:00-17:00"
  },
  {
    "id": "osm-node-354532238-manga-sushi",
    "name": "Manga Sushi",
    "lat": 47.3491276,
    "lng": 8.7153952,
    "candidateSource": "osm",
    "candidateFoundAt": "2026-02-11",
    "candidateOsmType": "node",
    "candidateOsmId": 354532238,
    "candidateUrl": "https://mangasushi.clay.ch/",
    "candidatePhone": "+41 44 527 18 88",
    "candidateHours": "Mo-Fr 11:30-22:00; 14:00-17:00 off; Sa-Su 17:00-22:00; PH \"please call\""
  },
  {
    "id": "osm-node-354532241-migros-restaurant",
    "name": "Migros Restaurant",
    "lat": 47.3500893,
    "lng": 8.715986,
    "candidateSource": "osm",
    "candidateFoundAt": "2026-02-11",
    "candidateOsmType": "node",
    "candidateOsmId": 354532241,
    "candidateUrl": "https://filialen.migros.ch/de/migros-restaurant-uster-illuster",
    "candidatePhone": "+41 44 905 49 69",
    "candidateHours": "Mo-Sa 08:00-20:00; PH off"
  },
  {
    "id": "osm-node-354534791-brunnentor",
    "name": "Brunnentor",
    "lat": 47.351962,
    "lng": 8.7217586,
    "candidateSource": "osm",
    "candidateFoundAt": "2026-02-11",
    "candidateOsmType": "node",
    "candidateOsmId": 354534791,
    "candidateUrl": "https://brunnentor-uster.ch/",
    "candidateHours": "Tu-Fr 11:00-14:00, 17:30-23:30; Sa 17:30-23:30"
  },
  {
    "id": "osm-node-354543026-mona-lisa",
    "name": "Mona Lisa",
    "lat": 47.3534217,
    "lng": 8.7084288,
    "candidateSource": "osm",
    "candidateFoundAt": "2026-02-11",
    "candidateOsmType": "node",
    "candidateOsmId": 354543026,
    "candidateUrl": "https://monalisarestaurant.ch/",
    "candidatePhone": "+41 44 940 52 04",
    "candidateHours": "Mo-Fr 10:00-14:30, 17:30-24:00; Sa 17:30-24:00; Su 10:00-14:30, 17:30-24:00"
  },
  {
    "id": "osm-node-354919721-a-casa-di-luca",
    "name": "A Casa di Luca",
    "lat": 47.3662402,
    "lng": 8.7815082,
    "candidateSource": "osm",
    "candidateFoundAt": "2026-02-11",
    "candidateOsmType": "node",
    "candidateOsmId": 354919721,
    "candidateUrl": "https://www.acasadiluca.com/"
  },
  {
    "id": "osm-node-355228626-al-gusto",
    "name": "al gusto",
    "lat": 47.3501534,
    "lng": 8.7129546,
    "candidateSource": "osm",
    "candidateFoundAt": "2026-02-11",
    "candidateOsmType": "node",
    "candidateOsmId": 355228626,
    "candidateUrl": "https://www.frjz.ch/cms/frjz/restaurant/al-gusto.html",
    "candidateHours": "Mo-Fr 11:30-13:30"
  },
  {
    "id": "osm-node-355228629-metzgerei-paunovic",
    "name": "Metzgerei Paunovic",
    "lat": 47.3469322,
    "lng": 8.7132386,
    "candidateSource": "osm",
    "candidateFoundAt": "2026-02-11",
    "candidateOsmType": "node",
    "candidateOsmId": 355228629,
    "candidateUrl": "https://paunometzgerei-uster.ch/"
  },
  {
    "id": "osm-node-355232199-arena",
    "name": "Arena",
    "lat": 47.3468325,
    "lng": 8.7170969,
    "candidateSource": "osm",
    "candidateFoundAt": "2026-02-11",
    "candidateOsmType": "node",
    "candidateOsmId": 355232199,
    "candidateUrl": "http://www.arenagelati.ch/index.php/en/",
    "candidateHours": "Mo 11:00-14:00,17:00-22:00; We-Fr 11:00-14:00,17:00-22:00; Sa,Su 10:00-22:00"
  },
  {
    "id": "osm-node-355523766-linde",
    "name": "Linde",
    "lat": 47.3450125,
    "lng": 8.733525,
    "candidateSource": "osm",
    "candidateFoundAt": "2026-02-11",
    "candidateOsmType": "node",
    "candidateOsmId": 355523766,
    "candidateUrl": "https://www.linde-uster.ch/",
    "candidatePhone": "+41 44 940 17 27",
    "candidateHours": "Mo-Tu 08:30-14:00; We-Fr 08:30-14:00, 17:30-23:00; Sa 17:00-23:00"
  },
  {
    "id": "osm-node-355595100-aquarius",
    "name": "Aquarius",
    "lat": 47.353266,
    "lng": 8.7237585,
    "candidateSource": "osm",
    "candidateFoundAt": "2026-02-11",
    "candidateOsmType": "node",
    "candidateOsmId": 355595100,
    "candidateUrl": "https://www.spitaluster.ch/Besucher/Essen-und-Einkaufen.29.html",
    "candidateHours": "Mo-Fr 07:30-19:30; Sa-Su 09:00-19:00"
  },
  {
    "id": "osm-node-356318410-sternen",
    "name": "Sternen",
    "lat": 47.3704299,
    "lng": 8.6390634,
    "candidateSource": "osm",
    "candidateFoundAt": "2026-02-11",
    "candidateOsmType": "node",
    "candidateOsmId": 356318410,
    "candidateUrl": "https://www.faellanden-sternen.ch/",
    "candidatePhone": "+41 44 510 81 17",
    "candidateHours": "Mo-Fr 09:00-23:00"
  },
  {
    "id": "osm-node-357225679-yu-an",
    "name": "Yu-An",
    "lat": 47.3726012,
    "lng": 8.5273865,
    "candidateSource": "osm",
    "candidateFoundAt": "2026-02-11",
    "candidateOsmType": "node",
    "candidateOsmId": 357225679,
    "candidateUrl": "https://www.yu-an.ch/",
    "candidateHours": "Tu-Fr 11:30-14:30, 18:30-22:30; Sa 18:30-22:30"
  },
  {
    "id": "osm-node-357227348-ristorante-bar-certo",
    "name": "Ristorante Bar Certo",
    "lat": 47.372245,
    "lng": 8.5289743,
    "candidateSource": "osm",
    "candidateFoundAt": "2026-02-11",
    "candidateOsmType": "node",
    "candidateOsmId": 357227348,
    "candidateUrl": "https://casa-certo.ch/",
    "candidateHours": "Mo-Th 09:00-23:00, Fr 09:00-24:00, Sa 12:00-24:00; PH off"
  },
  {
    "id": "osm-node-358146599-kaufleuten-restaurant",
    "name": "Kaufleuten Restaurant",
    "lat": 47.3716325,
    "lng": 8.5363568,
    "candidateSource": "osm",
    "candidateFoundAt": "2026-02-11",
    "candidateOsmType": "node",
    "candidateOsmId": 358146599,
    "candidateUrl": "https://kaufleuten.ch/restaurant"
  },
  {
    "id": "osm-node-360330661-uncle-7",
    "name": "Uncle 7",
    "lat": 47.381874,
    "lng": 8.5338089,
    "candidateSource": "osm",
    "candidateFoundAt": "2026-02-11",
    "candidateOsmType": "node",
    "candidateOsmId": 360330661,
    "candidateUrl": "https://chinarestaurantuncle7.business.site/",
    "candidatePhone": "+41 44 271 33 88",
    "candidateHours": "Tu-Su 11:30-14:30,17:30-22:30"
  },
  {
    "id": "osm-node-360330662-vulkan",
    "name": "Vulkan",
    "lat": 47.3819982,
    "lng": 8.5336329,
    "candidateSource": "osm",
    "candidateFoundAt": "2026-02-11",
    "candidateOsmType": "node",
    "candidateOsmId": 360330662,
    "candidateUrl": "https://www.restaurant-vulkan.ch",
    "candidateHours": "Mo-Fr 11:30-13:30, Mo-Th 17:30-22:00, Fr 17:30-23:00, Sa 17:30-23:00, Su 17:30-22:00"
  },
  {
    "id": "osm-node-362926817-restaurant-b",
    "name": "Restaurant B",
    "lat": 47.3777467,
    "lng": 8.5244364,
    "candidateSource": "osm",
    "candidateFoundAt": "2026-02-11",
    "candidateOsmType": "node",
    "candidateOsmId": 362926817,
    "candidateUrl": "http://www.baeckeranlage.ch/restaurant.htm"
  },
  {
    "id": "osm-node-364541889-santa-lucia-subito",
    "name": "Santa Lucia Subito",
    "lat": 47.3848593,
    "lng": 8.5084472,
    "candidateSource": "osm",
    "candidateFoundAt": "2026-02-11",
    "candidateOsmType": "node",
    "candidateOsmId": 364541889,
    "candidateUrl": "https://www.bindella.ch/gastronomie/santa-lucia-hohlstrasse-subito",
    "candidateHours": "Mo-Fr 11:30-13:30,17:30-22:00, Sa 17:00-22:00, Su 16:45-21:00"
  },
  {
    "id": "osm-node-365838929-kreis-6",
    "name": "Kreis 6",
    "lat": 47.3861132,
    "lng": 8.5452851,
    "candidateSource": "osm",
    "candidateFoundAt": "2026-02-11",
    "candidateOsmType": "node",
    "candidateOsmId": 365838929,
    "candidateUrl": "http://restaurantkreis6.ch",
    "candidatePhone": "+41 44 362 80 06"
  },
  {
    "id": "osm-node-365892432-chuchi-am-wasser",
    "name": "Chuchi am Wasser",
    "lat": 47.3830272,
    "lng": 8.5396636,
    "candidateSource": "osm",
    "candidateFoundAt": "2026-02-11",
    "candidateOsmType": "node",
    "candidateOsmId": 365892432,
    "candidateUrl": "https://www.dynamo.ch/restaurant-bar",
    "candidatePhone": "+41 44 415 76 90",
    "candidateHours": "Tu,We,Sa,Su 10:30-19:00; Th,Fr 10:30-21:00"
  },
  {
    "id": "osm-node-366922284-seestern",
    "name": "Seestern",
    "lat": 47.3437776,
    "lng": 8.7016315,
    "candidateSource": "osm",
    "candidateFoundAt": "2026-02-11",
    "candidateOsmType": "node",
    "candidateOsmId": 366922284,
    "candidateUrl": "https://ristorante-pizzeria-seestern.ch/",
    "candidateHours": "Mo 10:00-21:45; Tu 10:30-21:45; We 10:30-21:45; Th 10:30-13:45,16:45-21:45; Fr 10:30-13:45,16:30-21:45; Sa,Su 10:30-21:45"
  },
  {
    "id": "osm-node-366925078-pizza-forte",
    "name": "Pizza Forte",
    "lat": 47.3447459,
    "lng": 8.7044638,
    "candidateSource": "osm",
    "candidateFoundAt": "2026-02-11",
    "candidateOsmType": "node",
    "candidateOsmId": 366925078,
    "candidateUrl": "https://www.pizzaforte.ch/",
    "candidateHours": "Su 17:00-21:30; Mo-Th 11:00-13:30,17:00-22:00; Fr,Sa 11:00-13:30,17:00-22:30"
  },
  {
    "id": "osm-node-370529244-zum-grünen-glas",
    "name": "zum Grünen Glas",
    "lat": 47.3715334,
    "lng": 8.5457722,
    "candidateSource": "osm",
    "candidateFoundAt": "2026-02-11",
    "candidateOsmType": "node",
    "candidateOsmId": 370529244,
    "candidateUrl": "https://www.gruenesglas.ch/",
    "candidatePhone": "+41 44 251 62 04",
    "candidateHours": "Mo-Fr 11:30-14:00,17:30-23:00; Sa 17:30-23:00; PH closed"
  },
  {
    "id": "osm-node-370529368-piadina-bar",
    "name": "Piadina Bar",
    "lat": 47.37272,
    "lng": 8.5438402,
    "candidateSource": "osm",
    "candidateFoundAt": "2026-02-11",
    "candidateOsmType": "node",
    "candidateOsmId": 370529368,
    "candidateUrl": "https://www.piadina-bar-margherita.ch/",
    "candidatePhone": "+41 44 251 65 94",
    "candidateHours": "Mo-We 11:00-21:00; Th-Sa 11:00-22:00; Su off"
  },
  {
    "id": "osm-node-370530329-haus-zum-rüden",
    "name": "Haus zum Rüden",
    "lat": 47.3708573,
    "lng": 8.5432024,
    "candidateSource": "osm",
    "candidateFoundAt": "2026-02-11",
    "candidateOsmType": "node",
    "candidateOsmId": 370530329,
    "candidateUrl": "https://www.haus-zum-rueden.ch/",
    "candidatePhone": "+41 44 261 95 66",
    "candidateHours": "Tu-Fr 11:30-14:00,18:00-23:00; Sa 18:00-23:00; Su,Mo closed"
  },
  {
    "id": "osm-node-370531172-m-re-catherine",
    "name": "Mère Catherine",
    "lat": 47.3708655,
    "lng": 8.543806,
    "candidateSource": "osm",
    "candidateFoundAt": "2026-02-11",
    "candidateOsmType": "node",
    "candidateOsmId": 370531172,
    "candidateUrl": "https://www.mere-catherine.ch/",
    "candidateHours": "Mo-Fr 11:30-15:00, 17:30-23:00; Sa 11:30-23:00; Su closed"
  },
  {
    "id": "osm-node-370787088-erpel",
    "name": "Erpel",
    "lat": 47.266437,
    "lng": 8.5126206,
    "candidateSource": "osm",
    "candidateFoundAt": "2026-02-11",
    "candidateOsmType": "node",
    "candidateOsmId": 370787088,
    "candidateUrl": "https://www.erpel.ch/",
    "candidatePhone": "+41 44 764 07 71"
  },
  {
    "id": "osm-node-370809277-arcade-pizzeria",
    "name": "Arcade Pizzeria",
    "lat": 47.371054,
    "lng": 8.5243486,
    "candidateSource": "osm",
    "candidateFoundAt": "2026-02-11",
    "candidateOsmType": "node",
    "candidateOsmId": 370809277,
    "candidateUrl": "https://arcadepizzeria.ch/",
    "candidatePhone": "+41 44 241 21 63",
    "candidateHours": "Mo-Th 11:00-14:00,18:00-22:00; Fr 11:30-14:00,18:00-23:00; Sa-Su 12:00-14:30,18:00-22:30"
  },
  {
    "id": "osm-node-370822481-weinstube-1923",
    "name": "Weinstube 1923",
    "lat": 47.3764199,
    "lng": 8.5441261,
    "candidateSource": "osm",
    "candidateFoundAt": "2026-02-11",
    "candidateOsmType": "node",
    "candidateOsmId": 370822481,
    "candidateUrl": "https://weinstube1923.ch/",
    "candidatePhone": "+41 44 267 60 42",
    "candidateHours": "Mo-Fr 11:30-14:00,17:30-22:00; Sa,Su off"
  },
  {
    "id": "osm-node-370834132-la-pasta",
    "name": "La Pasta",
    "lat": 47.3760133,
    "lng": 8.5441095,
    "candidateSource": "osm",
    "candidateFoundAt": "2026-02-11",
    "candidateOsmType": "node",
    "candidateOsmId": 370834132,
    "candidateUrl": "https://www.lapasta-zh.ch",
    "candidatePhone": "+41 44 740 20 00",
    "candidateHours": "Mo-Th 11:30-14:00,17:30-22:00; Fr 11:30-14:00,17:30-22:30; Sa 12:00-22:30; Su off"
  },
  {
    "id": "osm-node-370834754-n-68",
    "name": "N-68",
    "lat": 47.3756656,
    "lng": 8.5441177,
    "candidateSource": "osm",
    "candidateFoundAt": "2026-02-11",
    "candidateOsmType": "node",
    "candidateOsmId": 370834754,
    "candidateUrl": "https://www.n68.ch/",
    "candidatePhone": "+41 44 261 08 12",
    "candidateHours": "Mo-Th 11:00-23:00, Fr,Sa 11:00-24:00, Su 11:00-22:00"
  },
  {
    "id": "osm-node-370839377-vallocaia",
    "name": "Vallocaia",
    "lat": 47.3734874,
    "lng": 8.5436348,
    "candidateSource": "osm",
    "candidateFoundAt": "2026-02-11",
    "candidateOsmType": "node",
    "candidateOsmId": 370839377,
    "candidateUrl": "https://www.bindella.ch/de/vallocaia.html",
    "candidatePhone": "+41 43 268 51 68",
    "candidateHours": "Mo-Su 11:30-23:30"
  },
  {
    "id": "osm-node-370840367-brasserie-louis",
    "name": "Brasserie Louis",
    "lat": 47.3730001,
    "lng": 8.5438598,
    "candidateSource": "osm",
    "candidateFoundAt": "2026-02-11",
    "candidateOsmType": "node",
    "candidateOsmId": 370840367,
    "candidateUrl": "https://brasserie-louis.ch/",
    "candidateHours": "Su-Th 11:30-23:00; Fr-Sa 11:30-24:00"
  },
  {
    "id": "osm-node-370840562-spaghetti-factory",
    "name": "Spaghetti Factory",
    "lat": 47.3729061,
    "lng": 8.5436598,
    "candidateSource": "osm",
    "candidateFoundAt": "2026-02-11",
    "candidateOsmType": "node",
    "candidateOsmId": 370840562,
    "candidateUrl": "https://www.bindella.ch/de/spaghetti-factory-rosenhof.html",
    "candidatePhone": "+41 44 251 94 00",
    "candidateHours": "Mo-Th 11:30-23:00; Fr-Sa 11:30-25:00; Su 11:30-22:30"
  },
  {
    "id": "osm-node-370840605-trattoria-sempre",
    "name": "Trattoria Sempre",
    "lat": 47.3729877,
    "lng": 8.5436586,
    "candidateSource": "osm",
    "candidateFoundAt": "2026-02-11",
    "candidateOsmType": "node",
    "candidateOsmId": 370840605,
    "candidateUrl": "https://www.bindella.ch/gastronomie/trattoria-sempre",
    "candidateHours": "11:30-23:00; Fr,Sa 11:30-23:30"
  },
  {
    "id": "osm-node-370841402-raclette-factory",
    "name": "Raclette Factory",
    "lat": 47.3723807,
    "lng": 8.5439299,
    "candidateSource": "osm",
    "candidateFoundAt": "2026-02-11",
    "candidateOsmType": "node",
    "candidateOsmId": 370841402,
    "candidateUrl": "https://www.raclette-factory.ch/",
    "candidateHours": "Mo-Th 11:00-22:00; Sa,Su 11:00-23:00"
  },
  {
    "id": "osm-node-370841763-rheinfelder-bierhaus",
    "name": "Rheinfelder Bierhaus",
    "lat": 47.3721304,
    "lng": 8.5437352,
    "candidateSource": "osm",
    "candidateFoundAt": "2026-02-11",
    "candidateOsmType": "node",
    "candidateOsmId": 370841763,
    "candidateUrl": "https://restaurant-rheinfelderbierhaus.ch/",
    "candidatePhone": "+41 44 251 29 91",
    "candidateHours": "Mo-Su 09:00-24:00"
  },
  {
    "id": "osm-node-372762306-wöschi",
    "name": "Wöschi",
    "lat": 47.3405767,
    "lng": 8.5381016,
    "candidateSource": "osm",
    "candidateFoundAt": "2026-02-11",
    "candidateOsmType": "node",
    "candidateOsmId": 372762306,
    "candidateUrl": "https://www.woeschi.ch/",
    "candidateHours": "Tu-Sa 18:30-18:00+"
  },
  {
    "id": "osm-node-373522259-frohsinn",
    "name": "Frohsinn",
    "lat": 47.239119,
    "lng": 8.7195317,
    "candidateSource": "osm",
    "candidateFoundAt": "2026-02-11",
    "candidateOsmType": "node",
    "candidateOsmId": 373522259,
    "candidateUrl": "https://www.frohsinn-staefa.ch/",
    "candidatePhone": "+41 44 926 13 40"
  },
  {
    "id": "osm-node-378321256-hong-kong-food-paradise",
    "name": "Hong-Kong Food Paradise",
    "lat": 47.3585224,
    "lng": 8.5233652,
    "candidateSource": "osm",
    "candidateFoundAt": "2026-02-11",
    "candidateOsmType": "node",
    "candidateOsmId": 378321256,
    "candidateUrl": "https://hongkongfoodparadise.ch/store_locator/sihlcity-2/",
    "candidateHours": "Mo-Sa 10:30-22:30"
  },
  {
    "id": "osm-node-383891068-seeperle",
    "name": "Seeperle",
    "lat": 47.2393879,
    "lng": 8.7182767,
    "candidateSource": "osm",
    "candidateFoundAt": "2026-02-11",
    "candidateOsmType": "node",
    "candidateOsmId": 383891068,
    "candidateUrl": "https://seeperle.ch",
    "candidatePhone": "+41 44 926 12 31",
    "candidateHours": "Tu - Sa 17:00 - 23:00"
  },
  {
    "id": "osm-node-383931304-kunming-garten",
    "name": "Kunming Garten",
    "lat": 47.2393541,
    "lng": 8.7183933,
    "candidateSource": "osm",
    "candidateFoundAt": "2026-02-11",
    "candidateOsmType": "node",
    "candidateOsmId": 383931304,
    "candidateUrl": "https://kunminggarten.ch/",
    "candidatePhone": "+41 43 818 05 21",
    "candidateHours": "Tu-Fr 11:30-14:00, 17:30-22:30; Su 11:30-14:00, 17:30-22:30; Sa 17:30-22:30"
  },
  {
    "id": "osm-node-383970845-il-delfino",
    "name": "Il Delfino",
    "lat": 47.2397321,
    "lng": 8.7227526,
    "candidateSource": "osm",
    "candidateFoundAt": "2026-02-11",
    "candidateOsmType": "node",
    "candidateOsmId": 383970845,
    "candidateUrl": "http://il-delfino.ch"
  },
  {
    "id": "osm-node-383993916-alte-krone",
    "name": "Alte Krone",
    "lat": 47.2415225,
    "lng": 8.7234404,
    "candidateSource": "osm",
    "candidateFoundAt": "2026-02-11",
    "candidateOsmType": "node",
    "candidateOsmId": 383993916,
    "candidateUrl": "http://www.altekrone.ch/herzlich_willkommen",
    "candidatePhone": "+41 44 926 40 10"
  },
  {
    "id": "osm-node-385208811-lasalle",
    "name": "LaSalle",
    "lat": 47.3886695,
    "lng": 8.5191166,
    "candidateSource": "osm",
    "candidateFoundAt": "2026-02-11",
    "candidateOsmType": "node",
    "candidateOsmId": 385208811,
    "candidateUrl": "https://www.lasalle-restaurant.ch",
    "candidatePhone": "+41 44 258 70 71",
    "candidateHours": "Mo-Fr 11:00-14:30, 17:00-24:00"
  },
  {
    "id": "osm-node-388398431-migros-restaurant",
    "name": "Migros Restaurant",
    "lat": 47.2404892,
    "lng": 8.7242123,
    "candidateSource": "osm",
    "candidateFoundAt": "2026-02-11",
    "candidateOsmType": "node",
    "candidateOsmId": 388398431,
    "candidateUrl": "https://filialen.migros.ch/de/migros-restaurant-staefa",
    "candidateHours": "Mo-Sa 08:00-19:00; PH off"
  },
  {
    "id": "osm-node-390465118-restaurant-bahnhof-wiedikon",
    "name": "Restaurant Bahnhof Wiedikon",
    "lat": 47.3709038,
    "lng": 8.5233636,
    "candidateSource": "osm",
    "candidateFoundAt": "2026-02-11",
    "candidateOsmType": "node",
    "candidateOsmId": 390465118,
    "candidateUrl": "https://restaurant-bahnhofwiedikon.ch/",
    "candidatePhone": "+41 44 462 64 24",
    "candidateHours": "Mo-Sa 08:00-23:30; Su 09:00-23:30"
  },
  {
    "id": "osm-node-391015242-hafenrestaurant",
    "name": "Hafenrestaurant",
    "lat": 47.1727745,
    "lng": 8.5046063,
    "candidateSource": "osm",
    "candidateFoundAt": "2026-02-11",
    "candidateOsmType": "node",
    "candidateOsmId": 391015242,
    "candidateUrl": "https://www.hafenrestaurant.ch/",
    "candidatePhone": "+41 41 711 90 70",
    "candidateHours": "Mo-Su 08:00-24:00"
  },
  {
    "id": "osm-node-393431002-da-carlo",
    "name": "Da Carlo",
    "lat": 47.3956584,
    "lng": 8.6075448,
    "candidateSource": "osm",
    "candidateFoundAt": "2026-02-11",
    "candidateOsmType": "node",
    "candidateOsmId": 393431002,
    "candidateUrl": "https://www.ristorante-dacarlo.ch/"
  },
  {
    "id": "osm-node-401363794-zur-trotte",
    "name": "zur Trotte",
    "lat": 47.3562321,
    "lng": 8.6286055,
    "candidateSource": "osm",
    "candidateFoundAt": "2026-02-11",
    "candidateOsmType": "node",
    "candidateOsmId": 401363794,
    "candidateUrl": "https://www.ristorante-daremo.ch/",
    "candidatePhone": "+41 44 980 39 82",
    "candidateHours": "Mo-Fr 08:00-23:00; Su 11:00-23:00"
  },
  {
    "id": "osm-node-410449503-speck",
    "name": "Speck",
    "lat": 47.3756214,
    "lng": 8.761926,
    "candidateSource": "osm",
    "candidateFoundAt": "2026-02-11",
    "candidateOsmType": "node",
    "candidateOsmId": 410449503,
    "candidateUrl": "https://www.im-speck.ch/",
    "candidatePhone": "+41 44 954 17 12",
    "candidateHours": "Tu-Sa 10:00-22:00; Su 09:00-22:00"
  },
  {
    "id": "osm-node-412559874-restaurant-burgmoos",
    "name": "Restaurant Burgmoos",
    "lat": 47.2080126,
    "lng": 8.6872297,
    "candidateSource": "osm",
    "candidateFoundAt": "2026-02-11",
    "candidateOsmType": "node",
    "candidateOsmId": 412559874,
    "candidateUrl": "https://www.tcburgmoos.ch/"
  },
  {
    "id": "osm-node-417640514-burnheart-s-schmankerl-dorfbeiz-kreuz",
    "name": "BurnHeart's Schmankerl Dorfbeiz Kreuz",
    "lat": 47.3709637,
    "lng": 8.6393968,
    "candidateSource": "osm",
    "candidateFoundAt": "2026-02-11",
    "candidateOsmType": "node",
    "candidateOsmId": 417640514,
    "candidateUrl": "http://www.burnhearts.ch/",
    "candidatePhone": "+41 44 548 12 34"
  },
  {
    "id": "osm-node-420849920-zen",
    "name": "Zen",
    "lat": 47.3217269,
    "lng": 8.5216676,
    "candidateSource": "osm",
    "candidateFoundAt": "2026-02-11",
    "candidateOsmType": "node",
    "candidateOsmId": 420849920,
    "candidateUrl": "https://www.restaurant-zen.ch/",
    "candidateHours": "We-Su 11:30-14:00,18:00-22:00"
  },
  {
    "id": "osm-node-420850746-restaurant-pizzaria-tomate",
    "name": "Restaurant & Pizzaria TOMATE",
    "lat": 47.3197595,
    "lng": 8.5218071,
    "candidateSource": "osm",
    "candidateFoundAt": "2026-02-11",
    "candidateOsmType": "node",
    "candidateOsmId": 420850746,
    "candidateUrl": "https://www.tomate-adliswil.ch/",
    "candidateHours": "Mo-Sa 09:00-14:00,17:00-22:00; Su 10:00-22:00"
  },
  {
    "id": "osm-node-428904008-bistro-909",
    "name": "Bistro 909",
    "lat": 47.3111795,
    "lng": 8.5273108,
    "candidateSource": "osm",
    "candidateFoundAt": "2026-02-11",
    "candidateOsmType": "node",
    "candidateOsmId": 428904008,
    "candidateUrl": "https://bistro909.ch/",
    "candidatePhone": "+41 44 594 78 80",
    "candidateHours": "Mo-Fr 11:45-14:00, Sa 17:00-23:00, Mo-Fr 18:00-22:00"
  },
  {
    "id": "osm-node-428904017-al-ponte",
    "name": "Al Ponte",
    "lat": 47.3120312,
    "lng": 8.526914,
    "candidateSource": "osm",
    "candidateFoundAt": "2026-02-11",
    "candidateOsmType": "node",
    "candidateOsmId": 428904017,
    "candidateUrl": "https://www.alponte-adliswil.ch/",
    "candidatePhone": "+41 44 709 05 45",
    "candidateHours": "Mo-Fr,Su 11:00-14:30,17:00-23:30; Sa 17:00-23:30"
  },