[
  {
    "id": "osm-node-292174602-le-casino",
    "name": "Le Casino",
    "lat": 46.5087227,
    "lng": 6.4999728,
    "candidateSource": "osm",
    "candidateFoundAt": "2026-02-17",
    "candidateOsmType": "node",
    "candidateOsmId": 292174602,
    "candidateUrl": "https://www.casinomorges.ch/",
    "candidatePhone": "+41 21 802 62 15",
    "candidateHours": "Tu-Sa 10:00-24:00, Su 10:00-17:30",
    "candidateUrlKind": "web"
  },
  {
    "id": "osm-node-292183798-fu-yiu",
    "name": "Fu-Yiu",
    "lat": 46.5118194,
    "lng": 6.4998891,
    "candidateSource": "osm",
    "candidateFoundAt": "2026-02-17",
    "candidateOsmType": "node",
    "candidateOsmId": 292183798,
    "candidateUrl": "https://fuyiu.simdif.com/",
    "candidatePhone": "+41 21 801 15 01",
    "candidateUrlKind": "web"
  },
  {
    "id": "osm-node-497304844-boccalino",
    "name": "Boccalino",
    "lat": 46.5071714,
    "lng": 6.6271334,
    "candidateSource": "osm",
    "candidateFoundAt": "2026-02-17",
    "candidateOsmType": "node",
    "candidateOsmId": 497304844,
    "candidateUrl": "https://www.boccalino.ch/",
    "candidatePhone": "+41 21 616 35 39",
    "candidateHours": "Mo-Fr 11:30-14:00, 18:00-22:00; Sa 11:30-22:00; Su 09:00-22:00",
    "candidateUrlKind": "web"
  },
  {
    "id": "osm-node-1078573246-ristorante-il-lido",
    "name": "Ristorante il Lido",
    "lat": 46.5117641,
    "lng": 6.6095633,
    "candidateSource": "osm",
    "candidateFoundAt": "2026-02-17",
    "candidateOsmType": "node",
    "candidateOsmId": 1078573246,
    "candidateUrl": "https://www.il-lido.ch/",
    "candidatePhone": "+41 21 601 11 61",
    "candidateHours": "Mo-Su 08:00-23:00",
    "candidateUrlKind": "web"
  },
  {
    "id": "osm-node-1104546246-restaurant-du-l-man",
    "name": "Restaurant du Léman",
    "lat": 46.5077325,
    "lng": 6.498554,
    "candidateSource": "osm",
    "candidateFoundAt": "2026-02-17",
    "candidateOsmType": "node",
    "candidateOsmId": 1104546246,
    "candidateUrl": "https://restaurant-leleman.ch",
    "candidatePhone": "+41 21 801 33 51",
    "candidateHours": "Tu-Fr 10:00-22:00; Sa 10:00-23:00; Su 11:00-21:00",
    "candidateUrlKind": "web"
  },
  {
    "id": "osm-node-1125363572-le-pavois",
    "name": "Le Pavois",
    "lat": 46.5077993,
    "lng": 6.4988449,
    "candidateSource": "osm",
    "candidateFoundAt": "2026-02-17",
    "candidateOsmType": "node",
    "candidateOsmId": 1125363572,
    "candidateUrl": "https://www.hotel-mont-blanc.ch/fr/page/pavois",
    "candidatePhone": "+41 21 804 87 87",
    "candidateUrlKind": "web"
  },
  {
    "id": "osm-node-1207862096-fukuoka",
    "name": "Fukuoka",
    "lat": 46.507582,
    "lng": 6.4973137,
    "candidateSource": "osm",
    "candidateFoundAt": "2026-02-17",
    "candidateOsmType": "node",
    "candidateOsmId": 1207862096,
    "candidateUrl": "https://lefukuoka.ch",
    "candidatePhone": "+41 21 801 26 87",
    "candidateHours": "Tu-Sa 11:30-14:00, 18:30-22:00; Su 11:30-14:30, 18:30-22:00",
    "candidateUrlKind": "web"
  },
  {
    "id": "osm-node-1230806994-la-riviera",
    "name": "La Riviera",
    "lat": 46.5071717,
    "lng": 6.6263109,
    "candidateSource": "osm",
    "candidateFoundAt": "2026-02-17",
    "candidateOsmType": "node",
    "candidateOsmId": 1230806994,
    "candidateUrl": "https://www.brasserieriviera.com",
    "candidatePhone": "+41 21 616 53 09",
    "candidateHours": "Mo-Su 10:00-23:00",
    "candidateUrlKind": "web"
  },
  {
    "id": "osm-node-1230808910-ch-teau-d-ouchy",
    "name": "Château d'Ouchy",
    "lat": 46.506718,
    "lng": 6.6276147,
    "candidateSource": "osm",
    "candidateFoundAt": "2026-02-17",
    "candidateOsmType": "node",
    "candidateOsmId": 1230808910,
    "candidateUrl": "https://www.chateaudouchy.ch/en/restaurants-bars/",
    "candidatePhone": "+41 21 331 32 32",
    "candidateUrlKind": "web"
  },
  {
    "id": "osm-node-1265612841-ch-teau-de-coudr-e",
    "name": "Château de Coudrée",
    "lat": 46.3401539,
    "lng": 6.3831664,
    "candidateSource": "osm",
    "candidateFoundAt": "2026-02-17",
    "candidateOsmType": "node",
    "candidateOsmId": 1265612841,
    "candidateUrl": "https://www.chateau-hotel-coudree.com/",
    "candidatePhone": "+33 4 50 72 62 33",
    "candidateUrlKind": "web"
  },
  {
    "id": "osm-node-1374163195-la-cambuse",
    "name": "La Cambuse",
    "lat": 46.4892628,
    "lng": 6.7396115,
    "candidateSource": "osm",
    "candidateFoundAt": "2026-02-17",
    "candidateOsmType": "node",
    "candidateOsmId": 1374163195,
    "candidatePhone": "+41217992279"
  },
  {
    "id": "osm-node-1420920378-le-major-davel",
    "name": "Le Major Davel",
    "lat": 46.4879104,
    "lng": 6.7314557,
    "candidateSource": "osm",
    "candidateFoundAt": "2026-02-17",
    "candidateOsmType": "node",
    "candidateOsmId": 1420920378,
    "candidateUrl": "https://www.major-davel.ch/",
    "candidateUrlKind": "web"
  },
  {
    "id": "osm-node-1433812389-cafe-du-vieil-ouchy",
    "name": "Cafe du Vieil Ouchy",
    "lat": 46.5071861,
    "lng": 6.6278714,
    "candidateSource": "osm",
    "candidateFoundAt": "2026-02-17",
    "candidateOsmType": "node",
    "candidateOsmId": 1433812389,
    "candidateUrl": "https://www.vieilouchy.ch/",
    "candidatePhone": "+41 21 616 21 94",
    "candidateHours": "Mo-Fr 10:00-00:00; Sa, Su 09:00-00:00",
    "candidateUrlKind": "web"
  },
  {
    "id": "osm-node-1433812390-l-accademia",
    "name": "L’Accademia",
    "lat": 46.5072597,
    "lng": 6.6283971,
    "candidateSource": "osm",
    "candidateFoundAt": "2026-02-17",
    "candidateOsmType": "node",
    "candidateOsmId": 1433812390,
    "candidateUrl": "https://www.angleterre-residence.ch/restaurants/laccademia/",
    "candidatePhone": "+41 21 613 39 74",
    "candidateHours": "Mo-Su 12:00-14:00,19:00-22:00",
    "candidateUrlKind": "web"
  },
  {
    "id": "osm-node-1433812391-cr-perie-d-ouchy",
    "name": "Crêperie d'Ouchy",
    "lat": 46.5071933,
    "lng": 6.6281182,
    "candidateSource": "osm",
    "candidateFoundAt": "2026-02-17",
    "candidateOsmType": "node",
    "candidateOsmId": 1433812391,
    "candidateUrl": "https://www.ouchycrep.ch",
    "candidatePhone": "+41 21 616 26 07",
    "candidateHours": "Mo-Fr 12:00-21:00; Sa,Su 11:30-21:00",
    "candidateUrlKind": "web"
  },
  {
    "id": "osm-node-1555717295-restaurant-de-l-union",
    "name": "Restaurant de l'Union",
    "lat": 46.5102675,
    "lng": 6.4996864,
    "candidateSource": "osm",
    "candidateFoundAt": "2026-02-17",
    "candidateOsmType": "node",
    "candidateOsmId": 1555717295,
    "candidateUrl": "https://www.hotelsavoie.ch/restaurant/",
    "candidatePhone": "+41 21 801 21 55",
    "candidateUrlKind": "web"
  },
  {
    "id": "osm-node-1555726142-club-nautique",
    "name": "Club Nautique",
    "lat": 46.5059071,
    "lng": 6.4974183,
    "candidateSource": "osm",
    "candidateFoundAt": "2026-02-17",
    "candidateOsmType": "node",
    "candidateOsmId": 1555726142,
    "candidateUrl": "https://www.restaurant-cnm.ch/",
    "candidatePhone": "+41 21 801 51 51",
    "candidateHours": "Su-Th 09:00-23:00; Fr-Sa 09:00-00:00",
    "candidateUrlKind": "web"
  },
  {
    "id": "osm-node-1625189968-sushi-zen",
    "name": "Sushi Zen",
    "lat": 46.5080691,
    "lng": 6.4983466,
    "candidateSource": "osm",
    "candidateFoundAt": "2026-02-17",
    "candidateOsmType": "node",
    "candidateOsmId": 1625189968,
    "candidateUrl": "https://www.sushizen.shop/francais/shop-page/sushizen-morges",
    "candidatePhone": "+41 21 801 72 89",
    "candidateUrlKind": "web"
  },
  {
    "id": "osm-node-2398768793-bellevue",
    "name": "Bellevue",
    "lat": 46.3939552,
    "lng": 6.8053968,
    "candidateSource": "osm",
    "candidateFoundAt": "2026-02-17",
    "candidateOsmType": "node",
    "candidateOsmId": 2398768793,
    "candidateUrl": "https://info@bellevue-restaurant.ch",
    "candidatePhone": "+41 24 481 62 72",
    "candidateHours": "Mo-Su 09:00-23:00",
    "candidateUrlKind": "web"
  },
  {
    "id": "osm-node-2470176477-hong-kong-city",
    "name": "Hong Kong City",
    "lat": 46.4519501,
    "lng": 6.8580011,
    "candidateSource": "osm",
    "candidateFoundAt": "2026-02-17",
    "candidateOsmType": "node",
    "candidateOsmId": 2470176477,
    "candidateUrl": "https://www.hongkongcity.ch/",
    "candidatePhone": "+41 21 944 21 71",
    "candidateUrlKind": "web"
  },
  {
    "id": "osm-node-3152678361-tha-au-lac",
    "name": "Thaï au Lac",
    "lat": 46.5119255,
    "lng": 6.6090754,
    "candidateSource": "osm",
    "candidateFoundAt": "2026-02-17",
    "candidateOsmType": "node",
    "candidateOsmId": 3152678361,
    "candidateUrl": "https://thaiaulac.ch/",
    "candidatePhone": "+41 21 601 10 00",
    "candidateHours": "Mo-Fr, Su 11:30-14:30, 18:30-23:30; Sa 18:30-23:30",
    "candidateUrlKind": "web"
  },
  {
    "id": "osm-node-3390849438-le-contretemps",
    "name": "Le Contretemps",
    "lat": 46.4262037,
    "lng": 6.9226427,
    "candidateSource": "osm",
    "candidateFoundAt": "2026-02-17",
    "candidateOsmType": "node",
    "candidateOsmId": 3390849438,
    "candidateUrl": "https://le-contretemps.ch/",
    "candidateHours": "We-Fr 11:30-14:30, 18:00-23:00; Sa 11:00-14:30, 18:00-23:00; Su 11:00-16:00",
    "candidateUrlKind": "web"
  },
  {
    "id": "osm-node-3478655521-club-house",
    "name": "Club House",
    "lat": 46.4011943,
    "lng": 6.5077874,
    "candidateSource": "osm",
    "candidateFoundAt": "2026-02-17",
    "candidateOsmType": "node",
    "candidateOsmId": 3478655521,
    "candidatePhone": "+33 4 50 26 09 91",
    "candidateUrl": ""
  },
  {
    "id": "osm-node-3784187099-la-nautique",
    "name": "La Nautique",
    "lat": 46.3792388,
    "lng": 6.2398521,
    "candidateSource": "osm",
    "candidateFoundAt": "2026-02-17",
    "candidateOsmType": "node",
    "candidateOsmId": 3784187099,
    "candidateUrl": "https://snny.ch/societe/restaurant/",
    "candidateUrlKind": "web"
  },
  {
    "id": "osm-node-4079640992-l-abri",
    "name": "L'abri",
    "lat": 46.3811057,
    "lng": 6.2414652,
    "candidateSource": "osm",
    "candidateFoundAt": "2026-02-17",
    "candidateOsmType": "node",
    "candidateOsmId": 4079640992,
    "candidateUrl": "https://www.labri-nyon.com",
    "candidateUrlKind": "web"
  },
  {
    "id": "osm-node-4261011250-chez-pitch",
    "name": "Chez Pitch",
    "lat": 46.5060304,
    "lng": 6.6654402,
    "candidateSource": "osm",
    "candidateFoundAt": "2026-02-17",
    "candidateOsmType": "node",
    "candidateOsmId": 4261011250,
    "candidateHours": "We-Su 10:00-15:00, 18:00-00:00",
    "candidateUrl": ""
  },
  {
    "id": "osm-node-4293099689-bistrot-du-petit-port",
    "name": "Bistrot Du Petit Port",
    "lat": 46.5169411,
    "lng": 6.5768211,
    "candidateSource": "osm",
    "candidateFoundAt": "2026-02-17",
    "candidateOsmType": "node",
    "candidateOsmId": 4293099689,
    "candidateHours": "PH,Mo-Su 09:00-23:00",
    "candidateUrl": ""
  },
  {
    "id": "osm-node-4299082593-pizzeria-la-d-me",
    "name": "Pizzeria La Dîme",
    "lat": 46.3702514,
    "lng": 6.3274849,
    "candidateSource": "osm",
    "candidateFoundAt": "2026-02-17",
    "candidateOsmType": "node",
    "candidateOsmId": 4299082593,
    "candidatePhone": "+33 4 50 72 89 87"
  },
  {
    "id": "osm-node-4299094800-la-perche",
    "name": "La Perche",
    "lat": 46.3702772,
    "lng": 6.327316,
    "candidateSource": "osm",
    "candidateFoundAt": "2026-02-17",
    "candidateOsmType": "node",
    "candidateOsmId": 4299094800,
    "candidatePhone": "+33 4 50 72 89 30"
  },
  {
    "id": "osm-node-4299096806-restaurant-des-p-cheurs",
    "name": "Restaurant des Pêcheurs",
    "lat": 46.3700185,
    "lng": 6.3266857,
    "candidateSource": "osm",
    "candidateFoundAt": "2026-02-17",
    "candidateOsmType": "node",
    "candidateOsmId": 4299096806,
    "candidateUrl": "https://restaurantdespecheurs.fr",
    "candidatePhone": "+33 4 50 72 80 26",
    "candidateUrlKind": "web"
  },
  {
    "id": "osm-node-4299109611-restaurant-du-port",
    "name": "Restaurant du Port",
    "lat": 46.370597,
    "lng": 6.3246244,
    "candidateSource": "osm",
    "candidateFoundAt": "2026-02-17",
    "candidateOsmType": "node",
    "candidateOsmId": 4299109611,
    "candidateUrl": "https://www.hotelrestaurantduport-yvoire.com/fr/index.php",
    "candidatePhone": "+33 4 50 72 80 17",
    "candidateUrlKind": "web"
  },
  {
    "id": "osm-node-4395835227-le-quai-gourmand",
    "name": "Le Quai Gourmand",
    "lat": 46.507661,
    "lng": 6.6252438,
    "candidateSource": "osm",
    "candidateFoundAt": "2026-02-17",
    "candidateOsmType": "node",
    "candidateOsmId": 4395835227,
    "candidateHours": "Mo-Fr 07:30-18:30; Sa,Su 07:30-18:00",
    "candidateUrl": ""
  },
  {
    "id": "osm-node-4684280354-le-toscane",
    "name": "Le Toscane",
    "lat": 46.3948198,
    "lng": 6.543143,
    "candidateSource": "osm",
    "candidateFoundAt": "2026-02-17",
    "candidateOsmType": "node",
    "candidateOsmId": 4684280354,
    "candidatePhone": "+33 4 50 81 43 62"
  },
  {
    "id": "osm-node-4684322969-le-brizolon",
    "name": "Le Brizolon",
    "lat": 46.3949335,
    "lng": 6.5424603,
    "candidateSource": "osm",
    "candidateFoundAt": "2026-02-17",
    "candidateOsmType": "node",
    "candidateOsmId": 4684322969,
    "candidatePhone": "+33 4 50 81 49 31"
  },
  {
    "id": "osm-node-4827468821-restaurant-le-l-man",
    "name": "Restaurant Le Léman",
    "lat": 46.5079839,
    "lng": 6.4982039,
    "candidateSource": "osm",
    "candidateFoundAt": "2026-02-17",
    "candidateOsmType": "node",
    "candidateOsmId": 4827468821,
    "candidatePhone": "+41 79 668 53 33",
    "candidateUrl": "https://restaurant-leleman.ch",
    "candidateUrlKind": "web"
  },
  {
    "id": "osm-node-5345601307-le-table-du-lac",
    "name": "Le Table du Lac",
    "lat": 46.3515925,
    "lng": 6.1471568,
    "candidateSource": "osm",
    "candidateFoundAt": "2026-02-17",
    "candidateOsmType": "node",
    "candidateOsmId": 5345601307,
    "candidateUrl": "https://www.la-table-du-lac.com/",
    "candidateUrlKind": "web"
  },
  {
    "id": "osm-node-6380531802-caf-restaurant-du-port",
    "name": "Café Restaurant du Port",
    "lat": 46.4579019,
    "lng": 6.8508077,
    "candidateSource": "osm",
    "candidateFoundAt": "2026-02-17",
    "candidateOsmType": "node",
    "candidateOsmId": 6380531802,
    "candidateUrl": "https://www.cafeduport.ch/",
    "candidatePhone": "+41 21 921 20 50",
    "candidateUrlKind": "web"
  },
  {
    "id": "osm-node-6470909506-rapha-l-vionnet",
    "name": "Raphaël Vionnet",
    "lat": 46.3747967,
    "lng": 6.4780457,
    "candidateSource": "osm",
    "candidateFoundAt": "2026-02-17",
    "candidateOsmType": "node",
    "candidateOsmId": 6470909506,
    "candidateUrl": "https://raphaelvionnet.fr/",
    "candidatePhone": "+33 4 50 72 24 61",
    "candidateUrlKind": "web"
  },
  {
    "id": "osm-node-6501212358-terrasse-d-ouchy",
    "name": "Terrasse d'Ouchy",
    "lat": 46.5065757,
    "lng": 6.6257375,
    "candidateSource": "osm",
    "candidateFoundAt": "2026-02-17",
    "candidateOsmType": "node",
    "candidateOsmId": 6501212358,
    "candidateUrl": "https://www.terrasse-ouchy.ch/",
    "candidatePhone": "+41 21 617 42 24",
    "candidateHours": "Mo-Su 10:00-23:00",
    "candidateUrlKind": "web"
  },
  {
    "id": "osm-node-6547616005-la-terrasse-du-port",
    "name": "La Terrasse du Port",
    "lat": 46.3858795,
    "lng": 6.8542634,
    "candidateSource": "osm",
    "candidateFoundAt": "2026-02-17",
    "candidateOsmType": "node",
    "candidateOsmId": 6547616005,
    "candidateUrl": "https://laterrasseduport.ch/",
    "candidatePhone": "+41 24 481 27 42",
    "candidateHours": "Sep 18-May 14 Mo-Su 08:00-23:00; May 15-Sep 15 Mo-Su 09:00-24:00",
    "candidateUrlKind": "web"
  },
  {
    "id": "osm-node-7501688641-filum",
    "name": "Filumé",
    "lat": 46.4579609,
    "lng": 6.8491761,
    "candidateSource": "osm",
    "candidateFoundAt": "2026-02-17",
    "candidateOsmType": "node",
    "candidateOsmId": 7501688641,
    "candidateUrl": "https://filume.ch",
    "candidatePhone": "+41 21 921 66 10",
    "candidateHours": "Mo 11:30-15:00; We-Su 11:30-15:00, 18:00-22:00",
    "candidateUrlKind": "web"
  },
  {
    "id": "osm-node-7837055886-le-chamarel-restaurant",
    "name": "Le chamarel restaurant",
    "lat": 46.5067644,
    "lng": 6.6659776,
    "candidateSource": "osm",
    "candidateFoundAt": "2026-02-17",
    "candidateOsmType": "node",
    "candidateOsmId": 7837055886,
    "candidateUrl": "https://www.lechamarelresto.ch/",
    "candidatePhone": "+41 21 711 14 87",
    "candidateHours": "Tu-Su 10:00-18:00; Jun 20-Sep 21: Mo-Su 09:00-20:00",
    "candidateUrlKind": "web"
  },
  {
    "id": "osm-node-7914061130-tomsab-thai-restaurant",
    "name": "TomSab Thai Restaurant",
    "lat": 46.4579262,
    "lng": 6.8514747,
    "candidateSource": "osm",
    "candidateFoundAt": "2026-02-17",
    "candidateOsmType": "node",
    "candidateOsmId": 7914061130,
    "candidateUrl": "https://www.tomsab.ch",
    "candidatePhone": "+41 21 922 42 42",
    "candidateHours": "Su-Fr 10:30-14:00,17:30-21:00; Sa 17:30-21:00",
    "candidateUrlKind": "web"
  },
  {
    "id": "osm-node-7968064194-villa-c-cile",
    "name": "Villa Cécile",
    "lat": 46.3683909,
    "lng": 6.322811,
    "candidateSource": "osm",
    "candidateFoundAt": "2026-02-17",
    "candidateOsmType": "node",
    "candidateOsmId": 7968064194,
    "candidateUrl": "https://www.villacecile.com/fr/index.php",
    "candidatePhone": "+33 4 50 72 27 40",
    "candidateUrlKind": "web"
  },
  {
    "id": "osm-node-8131580931-hoian",
    "name": "Hoian",
    "lat": 46.5076188,
    "lng": 6.6223241,
    "candidateSource": "osm",
    "candidateFoundAt": "2026-02-17",
    "candidateOsmType": "node",
    "candidateOsmId": 8131580931,
    "candidateUrl": "https://hoianbbq.com",
    "candidateHours": "Mo-Su 11:00-15:00,18:00-24:00",
    "candidateUrlKind": "web"
  },
  {
    "id": "osm-node-8717999889-happy-bowl",
    "name": "Happy Bowl",
    "lat": 46.5117289,
    "lng": 6.4998089,
    "candidateSource": "osm",
    "candidateFoundAt": "2026-02-17",
    "candidateOsmType": "node",
    "candidateOsmId": 8717999889,
    "candidateUrl": "https://morges.happybowl.ch/",
    "candidatePhone": "+41 21 552 25 55",
    "candidateHours": "Mo-Su 10:00-14:00, Mo-Su 18:00-21:00",
    "candidateUrlKind": "web"
  },
  {
    "id": "osm-node-8933246617-taverne-de-la-tour",
    "name": "Taverne de la Tour",
    "lat": 46.3865422,
    "lng": 6.8516614,
    "candidateSource": "osm",
    "candidateFoundAt": "2026-02-17",
    "candidateOsmType": "node",
    "candidateOsmId": 8933246617,
    "candidateUrl": "https://tavernedelatourbouveret.ch/",
    "candidatePhone": "+41 24 481 37 28",
    "candidateHours": "Mo-Su 10:00-24:00",
    "candidateUrlKind": "web"
  },
  {
    "id": "osm-node-8933246717-la-bateli-re",
    "name": "La Batelière",
    "lat": 46.3864327,
    "lng": 6.8517261,
    "candidateSource": "osm",
    "candidateFoundAt": "2026-02-17",
    "candidateOsmType": "node",
    "candidateOsmId": 8933246717,
    "candidateUrl": "https://la-bateliere.ch/",
    "candidatePhone": "+41 24 481 23 71",
    "candidateHours": "Mo-Sa 07:30-23:00; Su 07:30-22:00",
    "candidateUrlKind": "web"
  },
  {
    "id": "osm-node-8968972018-la-v-randa",
    "name": "La Véranda",
    "lat": 46.503508,
    "lng": 6.4881762,
    "candidateSource": "osm",
    "candidateFoundAt": "2026-02-17",
    "candidateOsmType": "node",
    "candidateOsmId": 8968972018,
    "candidatePhone": "+41 21 801 82 82"
  },
  {
    "id": "osm-node-9026784689-auberge-du-bacouni",
    "name": "Auberge du Bacouni",
    "lat": 46.3698884,
    "lng": 6.324323,
    "candidateSource": "osm",
    "candidateFoundAt": "2026-02-17",
    "candidateOsmType": "node",
    "candidateOsmId": 9026784689,
    "candidateUrl": "https://www.bacouni.com/html/",
    "candidatePhone": "+33 4 50 72 85 67",
    "candidateUrlKind": "web"
  },
  {
    "id": "osm-node-9140649754-restaurant-du-lac",
    "name": "Restaurant du Lac",
    "lat": 46.3653016,
    "lng": 6.3031456,
    "candidateSource": "osm",
    "candidateFoundAt": "2026-02-17",
    "candidateOsmType": "node",
    "candidateOsmId": 9140649754,
    "candidateUrl": "https://www.restaurantdulac.net/",
    "candidatePhone": "+33 4 50 72 80 52",
    "candidateHours": "Mo-Tu 12:00-14:00; We off; Th-Fr 12:00-14:30, 19:00-21:00; Sa-Su 12:00-14:30, 19:00-21:30",
    "candidateUrlKind": "web"
  },
  {
    "id": "osm-node-9687476717-villa-malfi",
    "name": "Villa Malfi",
    "lat": 46.5037184,
    "lng": 6.6799756,
    "candidateSource": "osm",
    "candidateFoundAt": "2026-02-17",
    "candidateOsmType": "node",
    "candidateOsmId": 9687476717,
    "candidateUrl": "https://villamalfi.ch/",
    "candidatePhone": "+41 21 791 07 25",
    "candidateHours": "Mo-Su 11:45-23:00",
    "candidateUrlKind": "web"
  },
  {
    "id": "osm-node-9838532083-la-nautica",
    "name": "La Nautica",
    "lat": 46.5077021,
    "lng": 6.6226467,
    "candidateSource": "osm",
    "candidateFoundAt": "2026-02-17",
    "candidateOsmType": "node",
    "candidateOsmId": 9838532083,
    "candidateUrl": "https://lanautica.ch/",
    "candidateUrlKind": "web"
  },
  {
    "id": "osm-node-12365580801-smaggy-burgers-branch",
    "name": "Smaggy Burgers & Branch",
    "lat": 46.5119791,
    "lng": 6.6091723,
    "candidateSource": "osm",
    "candidateFoundAt": "2026-02-17",
    "candidateOsmType": "node",
    "candidateOsmId": 12365580801,
    "candidateUrl": "https://www.smaggy.ch/",
    "candidatePhone": "+41 21 543 61 04",
    "candidateHours": "Tu-We 11:00-14:00, 18:00-22:00; Th-Sa 11:00-14:00, 18:00-23:00; Su 10:00-14:00",
    "candidateUrlKind": "web"
  },
  {
    "id": "osm-node-12613592220-emotions-by-guy-ravet",
    "name": "EMOTIONS by Guy Ravet",
    "lat": 46.4578065,
    "lng": 6.8518435,
    "candidateSource": "osm",
    "candidateFoundAt": "2026-02-17",
    "candidateOsmType": "node",
    "candidateOsmId": 12613592220,
    "candidateUrl": "https://www.ghdl.ch/fr/restaurants-bars/emotions-guy-ravet/",
    "candidateUrlKind": "web"
  },
  {
    "id": "osm-node-12737458464-le-pirate",
    "name": "Le Pirate",
    "lat": 46.3701589,
    "lng": 6.3241419,
    "candidateSource": "osm",
    "candidateFoundAt": "2026-02-17",
    "candidateOsmType": "node",
    "candidateOsmId": 12737458464,
    "candidateUrl": "https://www.restaurant-le-pirate-yvoire.com/",
    "candidatePhone": "+33450728361",
    "candidateUrlKind": "web"
  },
  {
    "id": "osm-node-12953528813-le-rivage-chez-monmon",
    "name": "Le Rivage \"Chez Monmon\"",
    "lat": 46.393693,
    "lng": 6.805511,
    "candidateSource": "osm",
    "candidateFoundAt": "2026-02-17",
    "candidateOsmType": "node",
    "candidateOsmId": 12953528813,
    "candidatePhone": "+41 24 482 70 32",
    "candidateHours": "Mo-Th 08:00-14:30; Fr-Su 08:00-22:00",
    "candidateUrl": ""
  },
  {
    "id": "osm-node-12959830001-la-brasserie-du-chalet-du-port",
    "name": "La Brasserie du Chalet du Port",
    "lat": 46.3402339,
    "lng": 6.3899162,
    "candidateSource": "osm",
    "candidateFoundAt": "2026-02-17",
    "candidateOsmType": "node",
    "candidateOsmId": 12959830001,
    "candidateUrl": "https://labrasserieduchaletduport.fr/",
    "candidatePhone": "+33 6 87 13 28 49",
    "candidateUrlKind": "web"
  },
  {
    "id": "osm-node-12959830101-le-noeud-de-8",
    "name": "Le Noeud de 8",
    "lat": 46.3396002,
    "lng": 6.390781,
    "candidateSource": "osm",
    "candidateFoundAt": "2026-02-17",
    "candidateOsmType": "node",
    "candidateOsmId": 12959830101,
    "candidateUrl": "https://au-noeud-de-8.odoo.com/",
    "candidatePhone": "+33 4 50 17 30 73",
    "candidateHours": "Fr-We 12:00-21:30",
    "candidateUrlKind": "web"
  },
  {
    "id": "osm-node-13555636801-le-bornan",
    "name": "Le Bornan",
    "lat": 46.5128382,
    "lng": 6.6055188,
    "candidateSource": "osm",
    "candidateFoundAt": "2026-02-17",
    "candidateOsmType": "node",
    "candidateOsmId": 13555636801,
    "candidateUrl": "https://www.lebornan.ch/",
    "candidatePhone": "+41 79 719 54 85",
    "candidateHours": "24/7",
    "candidateUrlKind": "web"
  },
  {
    "id": "osm-way-44157827-le-carrousel-de-vidy",
    "name": "Le Carrousel de Vidy",
    "lat": 46.5128587,
    "lng": 6.6061327,
    "candidateSource": "osm",
    "candidateFoundAt": "2026-02-17",
    "candidateOsmType": "way",
    "candidateOsmId": 44157827,
    "candidateUrl": "https://www.restaurant-carrousel-vidy.ch/",
    "candidatePhone": "+41 21 601 40 30",
    "candidateHours": "Tu-Su 11:00-24:00",
    "candidateUrlKind": "web"
  },
  {
    "id": "osm-way-44772670-le-lacustre",
    "name": "Le Lacustre",
    "lat": 46.504925,
    "lng": 6.6276291,
    "candidateSource": "osm",
    "candidateFoundAt": "2026-02-17",
    "candidateOsmType": "way",
    "candidateOsmId": 44772670,
    "candidateUrl": "https://www.thelacustre.com",
    "candidatePhone": "+41 21 617 42 00",
    "candidateHours": "We 14:00-00:00; Th 14:00-01:00; Fr 14:00-02:00; Sa 11:00-02:00; Su 11:00-00:00",
    "candidateUrlKind": "web"
  },
  {
    "id": "osm-way-66976720-la-voile",
    "name": "La Voile",
    "lat": 46.4022526,
    "lng": 6.6054082,
    "candidateSource": "osm",
    "candidateFoundAt": "2026-02-17",
    "candidateOsmType": "way",
    "candidateOsmId": 66976720,
    "candidateUrl": "https://www.la-voile.fr/",
    "candidatePhone": "+33 4 50 75 53 84",
    "candidateHours": "Th-Tu 10:00-18:00; We off",
    "candidateUrlKind": "web"
  },
  {
    "id": "osm-way-69011800-la-vieille-porte",
    "name": "La Vieille Porte",
    "lat": 46.3697729,
    "lng": 6.3273597,
    "candidateSource": "osm",
    "candidateFoundAt": "2026-02-17",
    "candidateOsmType": "way",
    "candidateOsmId": 69011800,
    "candidateUrl": "https://la-vieille-porte.com/",
    "candidatePhone": "+33 4 50 72 80 14",
    "candidateUrlKind": "web"
  },
  {
    "id": "osm-way-69051233-le-jolla",
    "name": "Le Jolla",
    "lat": 46.3510123,
    "lng": 6.4045337,
    "candidateSource": "osm",
    "candidateFoundAt": "2026-02-17",
    "candidateOsmType": "way",
    "candidateOsmId": 69051233,
    "candidateUrl": "https://www.lejolla.com/",
    "candidatePhone": "+33 4 50 72 63 06",
    "candidateUrlKind": "web"
  },
  {
    "id": "osm-way-69052604-les-cygnes",
    "name": "Les Cygnes",
    "lat": 46.3501562,
    "lng": 6.4028328,
    "candidateSource": "osm",
    "candidateFoundAt": "2026-02-17",
    "candidateOsmType": "way",
    "candidateOsmId": 69052604,
    "candidateUrl": "https://www.restaurant-les-cygnes-chez-jules.fr/",
    "candidatePhone": "+33 4 50 72 63 10",
    "candidateUrlKind": "web"
  },
  {
    "id": "osm-way-69053174-sechex-nous",
    "name": "Sechex-nous",
    "lat": 46.3491066,
    "lng": 6.4021201,
    "candidateSource": "osm",
    "candidateFoundAt": "2026-02-17",
    "candidateOsmType": "way",
    "candidateOsmId": 69053174,
    "candidateUrl": "https://www.sechex-nous.com/",
    "candidatePhone": "+33 4 50 72 48 81",
    "candidateHours": "Mo off; Tu 19:15-21:30; We-Sa 12:15-13:45, 19:15-21:30; Su 12:15-13:45",
    "candidateUrlKind": "web"
  },
  {
    "id": "osm-way-69053607-le-l-man",
    "name": "Le Léman",
    "lat": 46.3506766,
    "lng": 6.4035892,
    "candidateSource": "osm",
    "candidateFoundAt": "2026-02-17",
    "candidateOsmType": "way",
    "candidateOsmId": 69053607,
    "candidateUrl": "https://www.restaurant-le-leman.fr/",
    "candidatePhone": "+33 4 50 72 63 16",
    "candidateUrlKind": "web"
  },
  {
    "id": "osm-way-89292468-wagyu",
    "name": "Wagyu",
    "lat": 46.5037918,
    "lng": 6.68021,
    "candidateSource": "osm",
    "candidateFoundAt": "2026-02-17",
    "candidateOsmType": "way",
    "candidateOsmId": 89292468,
    "candidateUrl": "https://wagyu.cover.page",
    "candidatePhone": "+41217931888",
    "candidateHours": "Mo, We-Su 11:30-14:30, 18:30-22:30",
    "candidateUrlKind": "web"
  },
  {
    "id": "osm-way-89480083-la-barca",
    "name": "La Barca",
    "lat": 46.5020959,
    "lng": 6.6853054,
    "candidateSource": "osm",
    "candidateFoundAt": "2026-02-17",
    "candidateOsmType": "way",
    "candidateOsmId": 89480083,
    "candidateUrl": "https://la-barca.ch/",
    "candidatePhone": "+41 21 791 59 43",
    "candidateHours": "Mo-Su 10:00-15:00, 18:30-00:00",
    "candidateUrlKind": "web"
  },
  {
    "id": "osm-way-197270705-les-figuiers",
    "name": "Les Figuiers",
    "lat": 46.348863,
    "lng": 6.2777305,
    "candidateSource": "osm",
    "candidateFoundAt": "2026-02-17",
    "candidateOsmType": "way",
    "candidateOsmId": 197270705,
    "candidateUrl": "https://les-figuiers.eresto.net/",
    "candidatePhone": "+33 4 50 94 34 68",
    "candidateUrlKind": "web"
  },
  {
    "id": "osm-way-268477476-aux-d-lices-du-lac",
    "name": "Aux Délices du Lac",
    "lat": 46.5014094,
    "lng": 6.486506,
    "candidateSource": "osm",
    "candidateFoundAt": "2026-02-17",
    "candidateOsmType": "way",
    "candidateOsmId": 268477476,
    "candidateUrl": "https://www.aux-delices-du-lac.ch/",
    "candidatePhone": "+41 21 801 87 37",
    "candidateUrlKind": "web"
  },
  {
    "id": "osm-way-298638473-le-jardin",
    "name": "Le Jardin",
    "lat": 46.5079564,
    "lng": 6.4989427,
    "candidateSource": "osm",
    "candidateFoundAt": "2026-02-17",
    "candidateOsmType": "way",
    "candidateOsmId": 298638473,
    "candidateUrl": "https://www.hotel-mont-blanc.ch/fr/page/terrasse",
    "candidatePhone": "+41 21 804 87 87",
    "candidateUrlKind": "web"
  }
]
