[
  {
    "id": "osm-node-265064184-ristorante-la-piazza",
    "name": "Ristorante La Piazza",
    "lat": 46.5064876,
    "lng": 6.6716169,
    "candidateSource": "osm",
    "candidateFoundAt": "2026-02-11",
    "candidateOsmType": "node",
    "candidateOsmId": 265064184,
    "candidateUrl": "https://restolapiazza.ch/",
    "candidatePhone": "+41 21 791 57 27",
    "candidateHours": "Mo-Fr 11:00-14:00,18:00-22:00; Sa,Su 11:00-14:00,19:00-22:00"
  },
  {
    "id": "osm-node-270588431-signal-de-bougy",
    "name": "Signal de Bougy",
    "lat": 46.4841489,
    "lng": 6.3537012,
    "candidateSource": "osm",
    "candidateFoundAt": "2026-02-11",
    "candidateOsmType": "node",
    "candidateOsmId": 270588431,
    "candidateUrl": "https://signaldebougy.ch/"
  },
  {
    "id": "osm-node-292174602-le-casino",
    "name": "Le Casino",
    "lat": 46.5087227,
    "lng": 6.4999728,
    "candidateSource": "osm",
    "candidateFoundAt": "2026-02-11",
    "candidateOsmType": "node",
    "candidateOsmId": 292174602,
    "candidateUrl": "https://www.casinomorges.ch/",
    "candidatePhone": "+41 21 802 62 15",
    "candidateHours": "Tu-Sa 10:00-24:00, Su 10:00-17:30"
  },
  {
    "id": "osm-node-292181666-kikuzen",
    "name": "KikuZen",
    "lat": 46.5087138,
    "lng": 6.4959019,
    "candidateSource": "osm",
    "candidateFoundAt": "2026-02-11",
    "candidateOsmType": "node",
    "candidateOsmId": 292181666,
    "candidateUrl": "http://www.restaurant-kikuzen.ch",
    "candidatePhone": "+41 21 801 18 98",
    "candidateHours": "Mo-Sa 10:00-14:30,17:00-22:00"
  },
  {
    "id": "osm-node-292183798-fu-yiu",
    "name": "Fu-Yiu",
    "lat": 46.5118194,
    "lng": 6.4998891,
    "candidateSource": "osm",
    "candidateFoundAt": "2026-02-11",
    "candidateOsmType": "node",
    "candidateOsmId": 292183798,
    "candidateUrl": "https://fuyiu.simdif.com/",
    "candidatePhone": "+41 21 801 15 01"
  },
  {
    "id": "osm-node-310387725-l-union",
    "name": "L'Union",
    "lat": 46.5435104,
    "lng": 6.6608376,
    "candidateSource": "osm",
    "candidateFoundAt": "2026-02-11",
    "candidateOsmType": "node",
    "candidateOsmId": 310387725,
    "candidateUrl": "https://restaurant-lunion-epalinges.jimdosite.com/",
    "candidatePhone": "+41 21 654 41 00",
    "candidateHours": "Mo-Tu 07:00-15:00; We-Fr 07:00-22:00; Sa 09:00-22:00"
  },
  {
    "id": "osm-node-310601691-auberge-communale",
    "name": "Auberge communale",
    "lat": 46.4387872,
    "lng": 6.3052429,
    "candidateSource": "osm",
    "candidateFoundAt": "2026-02-11",
    "candidateOsmType": "node",
    "candidateOsmId": 310601691,
    "candidateUrl": "https://www.laclefdor.ch/"
  },
  {
    "id": "osm-node-316722853-o-les-terrasses-du-lac",
    "name": "O' Les Terrasses du Lac",
    "lat": 46.3831707,
    "lng": 6.2440325,
    "candidateSource": "osm",
    "candidateFoundAt": "2026-02-11",
    "candidateOsmType": "node",
    "candidateOsmId": 316722853,
    "candidateUrl": "https://olesterrassesdulac.ch/"
  },
  {
    "id": "osm-node-316722854-le-l-man",
    "name": "Le Léman",
    "lat": 46.3827789,
    "lng": 6.2433051,
    "candidateSource": "osm",
    "candidateFoundAt": "2026-02-11",
    "candidateOsmType": "node",
    "candidateOsmId": 316722854,
    "candidateUrl": "https://restorive-nyon.ch/le-leman-restaurant-a-nyon/"
  },
  {
    "id": "osm-node-334500409-piano",
    "name": "Piano",
    "lat": 46.520841,
    "lng": 6.5643819,
    "candidateSource": "osm",
    "candidateFoundAt": "2026-02-11",
    "candidateOsmType": "node",
    "candidateOsmId": 334500409,
    "candidateUrl": "https://www.epfl.ch/campus/restaurants-shops-hotels/fr/restauration/self-service/le-corbusier/",
    "candidateHours": "Mo-Fr 11:30-13:30"
  },
  {
    "id": "osm-node-370383054-china-house",
    "name": "China House",
    "lat": 46.4610845,
    "lng": 6.8413267,
    "candidateSource": "osm",
    "candidateFoundAt": "2026-02-11",
    "candidateOsmType": "node",
    "candidateOsmId": 370383054,
    "candidateUrl": "https://www.chinahousevevey.ch",
    "candidatePhone": "+41 21 922 48 08",
    "candidateHours": "Mo, We-Su 18:00-21:30"
  },
  {
    "id": "osm-node-410724036-tour-de-gourze",
    "name": "Tour de Gourze",
    "lat": 46.5100155,
    "lng": 6.7410593,
    "candidateSource": "osm",
    "candidateFoundAt": "2026-02-11",
    "candidateOsmType": "node",
    "candidateOsmId": 410724036,
    "candidateUrl": "https://www.gourze.ch/le-restaurant/",
    "candidatePhone": "+41 21 781 14 74",
    "candidateHours": "Tu-Sa 10:00-23:00; Su 10:00-19:00"
  },
  {
    "id": "osm-node-412815450-caf-restaurant-la-clef",
    "name": "Café Restaurant La Clef",
    "lat": 46.4606503,
    "lng": 6.8427725,
    "candidateSource": "osm",
    "candidateFoundAt": "2026-02-11",
    "candidateOsmType": "node",
    "candidateOsmId": 412815450,
    "candidateUrl": "https://www.laclefvevey.ch/",
    "candidatePhone": "+4121 922 88 33;+4179 832 82 81",
    "candidateHours": "Tu-Th 08:00-23:00; Fr-Sa 08:00-24:00"
  },
  {
    "id": "osm-node-412815453-pizzeria-ristorante-molino",
    "name": "Pizzeria Ristorante Molino",
    "lat": 46.4612394,
    "lng": 6.8434204,
    "candidateSource": "osm",
    "candidateFoundAt": "2026-02-11",
    "candidateOsmType": "node",
    "candidateOsmId": 412815453,
    "candidateUrl": "https://molino.ch/fr/restaurants/pizzeria-ristorante-molino-vevey/",
    "candidatePhone": "+41 21 925 95 45",
    "candidateHours": "Mo-Sa 10:00-23:00; Su 11:00-23:00"
  },
  {
    "id": "osm-node-412815457-tao-yuan",
    "name": "Tao Yuan",
    "lat": 46.4616411,
    "lng": 6.8436472,
    "candidateSource": "osm",
    "candidateFoundAt": "2026-02-11",
    "candidateOsmType": "node",
    "candidateOsmId": 412815457,
    "candidateUrl": "https://www.restaurant-chinois-tao-yuan.ch/",
    "candidatePhone": "+41 21 921 20 33",
    "candidateHours": "Mo-Sa 11:30-14:00, 18:30-22:00"
  },
  {
    "id": "osm-node-412815477-brasserie-historique-1912",
    "name": "Brasserie Historique 1912",
    "lat": 46.4625876,
    "lng": 6.8431229,
    "candidateSource": "osm",
    "candidateFoundAt": "2026-02-11",
    "candidateOsmType": "node",
    "candidateOsmId": 412815477,
    "candidateUrl": "https://astra-hotel.ch/brasserie-bars/",
    "candidatePhone": "+41 21 925 04 04",
    "candidateHours": "Mo-Su 08:00-23:00"
  },
  {
    "id": "osm-node-412815539-le-national",
    "name": "Le National",
    "lat": 46.4602965,
    "lng": 6.8409917,
    "candidateSource": "osm",
    "candidateFoundAt": "2026-02-11",
    "candidateOsmType": "node",
    "candidateOsmId": 412815539,
    "candidateUrl": "https://www.natio.ch/",
    "candidatePhone": "+41 21 923 76 25",
    "candidateHours": "Mo-Su 11:30-14:15, 17:00-23:00"
  },
  {
    "id": "osm-node-412817131-l-phant-blanc",
    "name": "Éléphant Blanc",
    "lat": 46.3963981,
    "lng": 6.9230681,
    "candidateSource": "osm",
    "candidateFoundAt": "2026-02-11",
    "candidateOsmType": "node",
    "candidateOsmId": 412817131,
    "candidateUrl": "https://www.elephantblanc-ned.ch/"
  },
  {
    "id": "osm-node-414665980-l-oasis",
    "name": "L'Oasis",
    "lat": 46.3974317,
    "lng": 6.9238682,
    "candidateSource": "osm",
    "candidateFoundAt": "2026-02-11",
    "candidateOsmType": "node",
    "candidateOsmId": 414665980,
    "candidateUrl": "https://www.restaurantoasis.ch/",
    "candidatePhone": "+41 21 965 60 20",
    "candidateHours": "Mo-Su 08:00-24:00"
  },
  {
    "id": "osm-node-417877586-da-nino",
    "name": "Da Nino",
    "lat": 46.5227635,
    "lng": 6.5802756,
    "candidateSource": "osm",
    "candidateFoundAt": "2026-02-11",
    "candidateOsmType": "node",
    "candidateOsmId": 417877586,
    "candidateUrl": "http://www.nino-dorigny.ch",
    "candidatePhone": "+41 21 692 26 88",
    "candidateHours": "Mo, Tu 08:00-15:00; We-Sa 08:00-15:00, 17:30-00:00"
  },
  {
    "id": "osm-node-418083178-domaine-de-la-buritaz",
    "name": "Domaine de la Buritaz",
    "lat": 46.4874976,
    "lng": 6.8051527,
    "candidateSource": "osm",
    "candidateFoundAt": "2026-02-11",
    "candidateOsmType": "node",
    "candidateOsmId": 418083178,
    "candidateUrl": "https://domaineburitaz.ch/",
    "candidatePhone": "+41 21 711 38 06",
    "candidateHours": "We-Fr 10:00-23:00; Su 09:00-14:00"
  },
  {
    "id": "osm-node-420370237-sabai-thai",
    "name": "Sabai Thai",
    "lat": 46.4742486,
    "lng": 6.4089167,
    "candidateSource": "osm",
    "candidateFoundAt": "2026-02-11",
    "candidateOsmType": "node",
    "candidateOsmId": 420370237,
    "candidateUrl": "https://www.sabaithai.ch/",
    "candidatePhone": "+41 21 808 02 56",
    "candidateHours": "Mo off; Tu-Fr 10:30-14:30,17:30-23:00; Sa 11:00-15:00,17:30-23:00; Su off"
  },
  {
    "id": "osm-node-428004541-la-p-cherie",
    "name": "La Pêcherie",
    "lat": 46.4651427,
    "lng": 6.3825654,
    "candidateSource": "osm",
    "candidateFoundAt": "2026-02-11",
    "candidateOsmType": "node",
    "candidateOsmId": 428004541,
    "candidateUrl": "https://www.restaurantlapecherie.ch/",
    "candidatePhone": "+41 21 807 30 37"
  },
  {
    "id": "osm-node-428244212-mekong",
    "name": "Mekong",
    "lat": 46.3818159,
    "lng": 6.242779,
    "candidateSource": "osm",
    "candidateFoundAt": "2026-02-11",
    "candidateOsmType": "node",
    "candidateOsmId": 428244212,
    "candidateUrl": "https://www.mekongnyon.ch/",
    "candidatePhone": "+41 22 362 54 84",
    "candidateHours": "Tu-Su 12:00-14:00, 18:00-21:30"
  },
  {
    "id": "osm-node-428635837-la-brasserie-du-rive",
    "name": "La Brasserie du Rive",
    "lat": 46.3823873,
    "lng": 6.2431485,
    "candidateSource": "osm",
    "candidateFoundAt": "2026-02-11",
    "candidateOsmType": "node",
    "candidateOsmId": 428635837,
    "candidateUrl": "https://hotel-le-rive.ch/brasserie.html",
    "candidatePhone": "+4122 552 20 82"
  },
  {
    "id": "osm-node-428781989-auberge-de-la-croix-blanche",
    "name": "Auberge de La Croix-Blanche",
    "lat": 46.5014332,
    "lng": 6.4045951,
    "candidateSource": "osm",
    "candidateFoundAt": "2026-02-11",
    "candidateOsmType": "node",
    "candidateOsmId": 428781989,
    "candidateUrl": "https://www.aubergelavigny.ch"
  },
  {
    "id": "osm-node-428804039-la-croix-verte",
    "name": "La Croix-Verte",
    "lat": 46.3830283,
    "lng": 6.2376325,
    "candidateSource": "osm",
    "candidateFoundAt": "2026-02-11",
    "candidateOsmType": "node",
    "candidateOsmId": 428804039,
    "candidateUrl": "https://www.croixverte.ch/",
    "candidateHours": "Mo-Th 09:30-15:00, 17:00-00:00; Fr, Sa 09:30-00:00; Su 09:30-23:00"
  },
  {
    "id": "osm-node-428844930-auberge-de-l-etoile",
    "name": "Auberge de l'Etoile",
    "lat": 46.310569,
    "lng": 6.9010553,
    "candidateSource": "osm",
    "candidateFoundAt": "2026-02-11",
    "candidateOsmType": "node",
    "candidateOsmId": 428844930,
    "candidateUrl": "https://aubergeetoile.ch/",
    "candidatePhone": "+41 244815354",
    "candidateHours": "Th-Tu 09:00-24:00"
  },
  {
    "id": "osm-node-428965980-le-xxe-si-cle",
    "name": "Le XXe Siècle",
    "lat": 46.5084895,
    "lng": 6.4968067,
    "candidateSource": "osm",
    "candidateFoundAt": "2026-02-11",
    "candidateOsmType": "node",
    "candidateOsmId": 428965980,
    "candidateUrl": "https://www.xxemesiecle.com/",
    "candidatePhone": "+41 21 801 27 00"
  },
  {
    "id": "osm-node-441288618-restaurant-taillepied",
    "name": "Restaurant Taillepied",
    "lat": 46.5051914,
    "lng": 6.6831789,
    "candidateSource": "osm",
    "candidateFoundAt": "2026-02-11",
    "candidateOsmType": "node",
    "candidateOsmId": 441288618,
    "candidateUrl": "https://www.restotaillepied.ch/",
    "candidatePhone": "+41 21 791 35 68",
    "candidateHours": "Mo-Fr 06:00-22:00; Sa 08:00-12:00; Su 08:00-15:00"
  },
  {
    "id": "osm-node-454181508-auberge-de-sonchaux",
    "name": "Auberge de Sonchaux",
    "lat": 46.4161858,
    "lng": 6.9482956,
    "candidateSource": "osm",
    "candidateFoundAt": "2026-02-11",
    "candidateOsmType": "node",
    "candidateOsmId": 454181508,
    "candidateUrl": "https://www.aubergedesonchaux.ch/",
    "candidatePhone": "+41 21 963 44 67",
    "candidateHours": "Apr 01-Jun 30 09:00-22:00; Apr 01-Jun 30 Tu off; Jul 01-Aug 30 09:00-22:00; Sep 01-Oct 30 Mo 09:00-22:15; Sep 01-Oct 30 We-Su 09:00-22:00"
  },
  {
    "id": "osm-node-458893716-les-marronniers",
    "name": "Les Marronniers",
    "lat": 46.367515,
    "lng": 6.4834251,
    "candidateSource": "osm",
    "candidateFoundAt": "2026-02-11",
    "candidateOsmType": "node",
    "candidateOsmId": 458893716,
    "candidateUrl": "https://www.hotellesmarronniers.com/restaurant.php",
    "candidatePhone": "+33 4 50 26 06 91"
  },
  {
    "id": "osm-node-470228002-la-trattoria-de-vevey-corseaux-plage",
    "name": "La Trattoria de Vevey-Corseaux Plage",
    "lat": 46.4680138,
    "lng": 6.8331165,
    "candidateSource": "osm",
    "candidateFoundAt": "2026-02-11",
    "candidateOsmType": "node",
    "candidateOsmId": 470228002,
    "candidateUrl": "https://veveycorseauxplage.ch/",
    "candidatePhone": "+41 21 921 23 48"
  },
  {
    "id": "osm-node-477535398-pizzeria-de-la-grosse-pierre",
    "name": "Pizzeria de la Grosse Pierre",
    "lat": 46.5181974,
    "lng": 6.5003219,
    "candidateSource": "osm",
    "candidateFoundAt": "2026-02-11",
    "candidateOsmType": "node",
    "candidateOsmId": 477535398,
    "candidateUrl": "https://www.pizzeria-grosse-pierre.ch",
    "candidatePhone": "+41 21 801 71 41",
    "candidateHours": "Mo-Fr 08:00-15:00, 18:00-23:30; Sa 09:00-15:00, 18:00-23:30"
  },
  {
    "id": "osm-node-495556619-restaurant-de-la-c-zille",
    "name": "Restaurant de la Cézille",
    "lat": 46.4463219,
    "lng": 6.2329735,
    "candidateSource": "osm",
    "candidateFoundAt": "2026-02-11",
    "candidateOsmType": "node",
    "candidateOsmId": 495556619,
    "candidateUrl": "https://www.facebook.com/restaurantlacezille/",
    "candidatePhone": "+41223660212"
  },
  {
    "id": "osm-node-497304844-boccalino",
    "name": "Boccalino",
    "lat": 46.5071714,
    "lng": 6.6271334,
    "candidateSource": "osm",
    "candidateFoundAt": "2026-02-11",
    "candidateOsmType": "node",
    "candidateOsmId": 497304844,
    "candidateUrl": "https://www.boccalino.ch/",
    "candidatePhone": "+41 21 616 35 39",
    "candidateHours": "Mo-Fr 11:30-14:00, 18:00-22:00; Sa 11:30-22:00; Su 09:00-22:00"
  },
  {
    "id": "osm-node-513744625-auberge-communale-de-st-l-gier-la-chi-saz",
    "name": "Auberge Communale de St-Légier - La Chiésaz",
    "lat": 46.4705942,
    "lng": 6.8839216,
    "candidateSource": "osm",
    "candidateFoundAt": "2026-02-11",
    "candidateOsmType": "node",
    "candidateOsmId": 513744625,
    "candidateUrl": "http://auberge-st-legier.ch/",
    "candidatePhone": "+41 21 943 11 77",
    "candidateHours": "We-Su 07:00-23:00"
  },
  {
    "id": "osm-node-599242031-buffet-de-la-gare",
    "name": "Buffet de la Gare",
    "lat": 46.3169115,
    "lng": 6.9645775,
    "candidateSource": "osm",
    "candidateFoundAt": "2026-02-11",
    "candidateOsmType": "node",
    "candidateOsmId": 599242031,
    "candidateUrl": "https://buffetdelagare.business.site/",
    "candidatePhone": "+41 24 466 26 61",
    "candidateHours": "Mo, Tu 06:30-20:30; We-Fr 06:30-22:00; Su 07:00-20:00"
  },
  {
    "id": "osm-node-599242379-la-nonna",
    "name": "La Nonna",
    "lat": 46.3183097,
    "lng": 6.9647246,
    "candidateSource": "osm",
    "candidateFoundAt": "2026-02-11",
    "candidateOsmType": "node",
    "candidateOsmId": 599242379,
    "candidateUrl": "http://www.la-nonna.ch/",
    "candidateHours": "Mo-Su 06:00-23:30"
  },
  {
    "id": "osm-node-599266636-la-fontaine",
    "name": "La Fontaine",
    "lat": 46.3192798,
    "lng": 6.9715941,
    "candidateSource": "osm",
    "candidateFoundAt": "2026-02-11",
    "candidateOsmType": "node",
    "candidateOsmId": 599266636,
    "candidateUrl": "https://www.restaurantdelafontaine.ch/",
    "candidatePhone": "+41 24 466 75 52",
    "candidateHours": "Mo-Fr 11:00-14:30,18:00-23:00; Tu 11:00-14:30"
  },
  {
    "id": "osm-node-603722681-tha-orchid-e",
    "name": "Thaï Orchidée",
    "lat": 46.5221288,
    "lng": 6.6264987,
    "candidateSource": "osm",
    "candidateFoundAt": "2026-02-11",
    "candidateOsmType": "node",
    "candidateOsmId": 603722681,
    "candidateUrl": "https://thaiorchideelausanne.ch/",
    "candidatePhone": "+41 21 312 52 03",
    "candidateHours": "Mo-Fr 11:30-14:30, 18:30-23:00; Sa, Su 11:30-23:30"
  },
  {
    "id": "osm-node-629119177-oh-liban",
    "name": "Oh! Liban",
    "lat": 46.5167265,
    "lng": 6.6358505,
    "candidateSource": "osm",
    "candidateFoundAt": "2026-02-11",
    "candidateOsmType": "node",
    "candidateOsmId": 629119177,
    "candidateUrl": "https://ohliban.ch/",
    "candidatePhone": "+41 21 311 57 56",
    "candidateHours": "Mo-We 11:30-14:00; Th-Fr 11:30-14:00,18:30-22:00; Sa 18:30-22:00"
  },
  {
    "id": "osm-node-629166764-le-lyrique",
    "name": "Le Lyrique",
    "lat": 46.5174992,
    "lng": 6.6377059,
    "candidateSource": "osm",
    "candidateFoundAt": "2026-02-11",
    "candidateOsmType": "node",
    "candidateOsmId": 629166764,
    "candidateUrl": "https://www.lelyrique.ch/",
    "candidateHours": "Mo-Fr 08:00-24:00, Sa 11:00-15:00,17:00-24:00"
  },
  {
    "id": "osm-node-652559287-pasta-e-sfizi",
    "name": "Pasta e Sfizi",
    "lat": 46.5164356,
    "lng": 6.6335973,
    "candidateSource": "osm",
    "candidateFoundAt": "2026-02-11",
    "candidateOsmType": "node",
    "candidateOsmId": 652559287,
    "candidateUrl": "https://pastaesfizi.ch/",
    "candidatePhone": "+41 21 323 23 50",
    "candidateHours": "Mo-Fr 11:30-14:00,18:30-23:00; Sa 18:30-24:00"
  },
  {
    "id": "osm-node-718707720-restaurant-du-tennis",
    "name": "Restaurant du Tennis",
    "lat": 46.5147317,
    "lng": 6.6086513,
    "candidateSource": "osm",
    "candidateFoundAt": "2026-02-11",
    "candidateOsmType": "node",
    "candidateOsmId": 718707720,
    "candidateUrl": "http://restaurantdutennislausanne.ch/",
    "candidatePhone": "+41 21 616 26 87",
    "candidateHours": "Mo-Fr 11:30-14:00, 18:00-21:30; Sa 11:30-14:00, 18:30-21:30; Su 11:30-14:00"
  },
  {
    "id": "osm-node-728370371-le-mont-d-or",
    "name": "Le Mont d'or",
    "lat": 46.5173336,
    "lng": 6.6120673,
    "candidateSource": "osm",
    "candidateFoundAt": "2026-02-11",
    "candidateOsmType": "node",
    "candidateOsmId": 728370371,
    "candidateUrl": "https://www.restaurant-lemontdor.ch/",
    "candidatePhone": "+41 21 617 00 10",
    "candidateHours": "Mo-Sa 10:30-14:30,17:30-23:00; Su 11:00-23:00"
  },
  {
    "id": "osm-node-747008871-le-palais-oriental",
    "name": "Le Palais Oriental",
    "lat": 46.4307074,
    "lng": 6.9091456,
    "candidateSource": "osm",
    "candidateFoundAt": "2026-02-11",
    "candidateOsmType": "node",
    "candidateOsmId": 747008871,
    "candidateUrl": "https://www.palaisoriental.ch",
    "candidatePhone": "+41 219631271",
    "candidateHours": "Mo closed; Tu-Su 11:30-22:00"
  },
  {
    "id": "osm-node-759497090-pizza-tof",
    "name": "Pizza TOF",
    "lat": 46.3325,
    "lng": 6.0586592,
    "candidateSource": "osm",
    "candidateFoundAt": "2026-02-11",
    "candidateOsmType": "node",
    "candidateOsmId": 759497090,
    "candidateUrl": "https://www.pizzas-pays-de-gex.com/",
    "candidatePhone": "+33 4 50 99 08 23"
  },
  {
    "id": "osm-node-786014815-caf-de-luan",
    "name": "Café de Luan",
    "lat": 46.3602332,
    "lng": 6.97735,
    "candidateSource": "osm",
    "candidateFoundAt": "2026-02-11",
    "candidateOsmType": "node",
    "candidateOsmId": 786014815,
    "candidateUrl": "https://www.cafedeluan.ch/",
    "candidatePhone": "+41 24 466 81 15"
  },
  {
    "id": "osm-node-847533632-votra-lausanne",
    "name": "Votra Lausanne",
    "lat": 46.5435509,
    "lng": 6.6475651,
    "candidateSource": "osm",
    "candidateFoundAt": "2026-02-11",
    "candidateOsmType": "node",
    "candidateOsmId": 847533632,
    "candidateUrl": "https://votralausanne.ch",
    "candidatePhone": "+41 21 652 59 59"
  },
  {
    "id": "osm-node-864613725-trattoria-du-commerce",
    "name": "Trattoria du Commerce",
    "lat": 46.536823,
    "lng": 6.582783,
    "candidateSource": "osm",
    "candidateFoundAt": "2026-02-11",
    "candidateOsmType": "node",
    "candidateOsmId": 864613725,
    "candidateUrl": "https://www.trattoriaducommerce.ch/",
    "candidatePhone": "+41 21 634 47 24"
  },
  {
    "id": "osm-node-864657270-le-vaudois",
    "name": "Le Vaudois",
    "lat": 46.523272,
    "lng": 6.6317433,
    "candidateSource": "osm",
    "candidateFoundAt": "2026-02-11",
    "candidateOsmType": "node",
    "candidateOsmId": 864657270,
    "candidateUrl": "http://levaudois-sa.ch",
    "candidatePhone": "+41 21 706 40 40",
    "candidateHours": "Su-Th 07:00-00:00; Fr-Sa 07:00-02:00"
  },
  {
    "id": "osm-node-886598383-bella-vita",
    "name": "Bella Vita",
    "lat": 46.5174069,
    "lng": 6.6305517,
    "candidateSource": "osm",
    "candidateFoundAt": "2026-02-11",
    "candidateOsmType": "node",
    "candidateOsmId": 886598383,
    "candidateUrl": "https://www.restaurant-bellavita.com/",
    "candidatePhone": "+41 21 312 12 60",
    "candidateHours": "PH,Mo-Su 09:00-24:00"
  },
  {
    "id": "osm-node-895287771-l-etoile-blanche",
    "name": "L'Etoile Blanche",
    "lat": 46.5195836,
    "lng": 6.6377084,
    "candidateSource": "osm",
    "candidateFoundAt": "2026-02-11",
    "candidateOsmType": "node",
    "candidateOsmId": 895287771,
    "candidateUrl": "https://etoileblanche.ch/",
    "candidatePhone": "+41 21 351 24 60",
    "candidateHours": "Mo-Th 07:00-01:00; Fr 07:00-02:00; Sa 09:00-02:00; Su 10:00-01:00"
  },
  {
    "id": "osm-node-907186181-pocoloco",
    "name": "PocoLoco",
    "lat": 46.5229422,
    "lng": 6.6259368,
    "candidateSource": "osm",
    "candidateFoundAt": "2026-02-11",
    "candidateOsmType": "node",
    "candidateOsmId": 907186181,
    "candidateUrl": "https://pocoloco-movida.ch/",
    "candidatePhone": "+41 21 329 11 11",
    "candidateHours": "Mo-We 11:30-14:00, 18:00-00:00; Th 09:00-14:00, 18:00-01:00; Fr 11:30-14:00, 18:00-02:00; Sa 18:00-02:00"
  },
  {
    "id": "osm-node-917957401-restaurant-le-ch-teau",
    "name": "Restaurant Le Château",
    "lat": 46.3952771,
    "lng": 6.9227647,
    "candidateSource": "osm",
    "candidateFoundAt": "2026-02-11",
    "candidateOsmType": "node",
    "candidateOsmId": 917957401,
    "candidateUrl": "https://www.lechateaudevilleneuve.ch/",
    "candidatePhone": "+41 21 960 20 09",
    "candidateHours": "Tu-Sa 10:00-15:00,18:00-22:00; Su 10:00-15:00"
  },
  {
    "id": "osm-node-918022476-caf-restaurant-l-toile",
    "name": "Café Restaurant L'Étoile",
    "lat": 46.395773,
    "lng": 6.9238855,
    "candidateSource": "osm",
    "candidateFoundAt": "2026-02-11",
    "candidateOsmType": "node",
    "candidateOsmId": 918022476,
    "candidateUrl": "https://www.restaurantetoile.ch/",
    "candidatePhone": "+41 21 960 22 40"
  },
  {
    "id": "osm-node-918612290-la-nonna",
    "name": "La Nonna",
    "lat": 46.5247077,
    "lng": 6.6257858,
    "candidateSource": "osm",
    "candidateFoundAt": "2026-02-11",
    "candidateOsmType": "node",
    "candidateOsmId": 918612290,
    "candidateUrl": "https://www.pizzeria-lanonna.ch/",
    "candidatePhone": "+41 21 646 54 12",
    "candidateHours": "Mo-Fr 09:00-15:00, 18:00-00:00; Sa 11:00-15:15, 18:00-00:00; Su 17:45-00:00"
  },
  {
    "id": "osm-node-919697164-brasserie-de-chaudron",
    "name": "Brasserie de Chaudron",
    "lat": 46.5235794,
    "lng": 6.6275916,
    "candidateSource": "osm",
    "candidateFoundAt": "2026-02-11",
    "candidateOsmType": "node",
    "candidateOsmId": 919697164,
    "candidateUrl": "http://chauderon.ch/",
    "candidatePhone": "+41 21 543 62 05",
    "candidateHours": "Mo-Sa 09:00-23:00"
  },
  {
    "id": "osm-node-926402727-caf-de-la-place",
    "name": "Café de la Place",
    "lat": 46.472421,
    "lng": 6.8748028,
    "candidateSource": "osm",
    "candidateFoundAt": "2026-02-11",
    "candidateOsmType": "node",
    "candidateOsmId": 926402727,
    "candidateUrl": "https://www.cafedelaplace.ch/",
    "candidatePhone": "+41 21 943 10 37",
    "candidateHours": "Tu-Fr 11:00-14:30; Tu-Fr 17:00-23:30; Sa 10:30-15:00; Sa 17:00-23:30"
  },
  {
    "id": "osm-node-939070129-restaurant-bar-pizzeria-des-commerces",
    "name": "Restaurant Bar Pizzeria des Commerces",
    "lat": 46.5340978,
    "lng": 6.5639669,
    "candidateSource": "osm",
    "candidateFoundAt": "2026-02-11",
    "candidateOsmType": "node",
    "candidateOsmId": 939070129,
    "candidateUrl": "https://restaurant-bar-pizzeria-des-commerces.ch/",
    "candidatePhone": "+41 21 697 07 10"
  },
  {
    "id": "osm-node-975898621-rani",
    "name": "Rani",
    "lat": 46.5160911,
    "lng": 6.6143739,
    "candidateSource": "osm",
    "candidateFoundAt": "2026-02-11",
    "candidateOsmType": "node",
    "candidateOsmId": 975898621,
    "candidateUrl": "https://www.rani-indian.ch/",
    "candidatePhone": "+41 21 617 85 25",
    "candidateHours": "Mo-Fr 11:00-14:30,18:00-23:30; Sa,Su 18:00-23:30"
  },
  {
    "id": "osm-node-1061009918-le-caf-de-l-ev-ch",
    "name": "Le Café de l'Evêché",
    "lat": 46.5217863,
    "lng": 6.6360667,
    "candidateSource": "osm",
    "candidateFoundAt": "2026-02-11",
    "candidateOsmType": "node",
    "candidateOsmId": 1061009918,
    "candidateUrl": "https://leveche.ch",
    "candidatePhone": "+41 21 323 93 23",
    "candidateHours": "Mo-Fr 07:00-00:00; Sa 11:30-00:00; Su 12:00-00:00"
  },
  {
    "id": "osm-node-1076819801-tout-un-monde",
    "name": "Tout un Monde",
    "lat": 46.4931994,
    "lng": 6.7167292,
    "candidateSource": "osm",
    "candidateFoundAt": "2026-02-11",
    "candidateOsmType": "node",
    "candidateOsmId": 1076819801,
    "candidateUrl": "https://toutunmonde.ch/",
    "candidatePhone": "+41 21 799 14 14",
    "candidateHours": "Nov-Mar: Tu-Fr 11:30-15:00,18:30-23:00, Sa 11:30-23:00; Apr-Oct: Tu-Sa 11:30-23:00"
  },
  {
    "id": "osm-node-1078573246-ristorante-il-lido",
    "name": "Ristorante il Lido",
    "lat": 46.5117641,
    "lng": 6.6095633,
    "candidateSource": "osm",
    "candidateFoundAt": "2026-02-11",
    "candidateOsmType": "node",
    "candidateOsmId": 1078573246,
    "candidateUrl": "https://www.il-lido.ch/",
    "candidatePhone": "+41 21 601 11 61",
    "candidateHours": "Mo-Su 08:00-23:00"
  },
  {
    "id": "osm-node-1104546246-restaurant-du-l-man",
    "name": "Restaurant du Léman",
    "lat": 46.5077325,
    "lng": 6.498554,
    "candidateSource": "osm",
    "candidateFoundAt": "2026-02-11",
    "candidateOsmType": "node",
    "candidateOsmId": 1104546246,
    "candidateUrl": "https://restaurant-leleman.ch",
    "candidatePhone": "+41 21 801 33 51",
    "candidateHours": "Tu-Fr 10:00-22:00; Sa 10:00-23:00; Su 11:00-21:00"
  },
  {
    "id": "osm-node-1105820425-le-nil-bleu",
    "name": "Le Nil Bleu",
    "lat": 46.5183078,
    "lng": 6.6386062,
    "candidateSource": "osm",
    "candidateFoundAt": "2026-02-11",
    "candidateOsmType": "node",
    "candidateOsmId": 1105820425,
    "candidateUrl": "https://www.nil-bleu.ch/",
    "candidatePhone": "+41 21 312 89 80",
    "candidateHours": "Mo-Sa 10:30-14:30, 17:30-22:30; Su 17:30-22:00"
  },
  {
    "id": "osm-node-1125363572-le-pavois",
    "name": "Le Pavois",
    "lat": 46.5077993,
    "lng": 6.4988449,
    "candidateSource": "osm",
    "candidateFoundAt": "2026-02-11",
    "candidateOsmType": "node",
    "candidateOsmId": 1125363572,
    "candidateUrl": "https://www.hotel-mont-blanc.ch/fr/page/pavois",
    "candidatePhone": "+41 21 804 87 87"
  },
  {
    "id": "osm-node-1133646787-forbici",
    "name": "Forbici",
    "lat": 46.5209365,
    "lng": 6.6297501,
    "candidateSource": "osm",
    "candidateFoundAt": "2026-02-11",
    "candidateOsmType": "node",
    "candidateOsmId": 1133646787,
    "candidateUrl": "https://forbici-flon.ch/",
    "candidatePhone": "+41 21 320 13 13",
    "candidateHours": "Mo-Th 10:00-24:00; Fr-Sa 10:00-01:00"
  },
  {
    "id": "osm-node-1207861988-le-gallion",
    "name": "Le gallion",
    "lat": 46.50939,
    "lng": 6.499536,
    "candidateSource": "osm",
    "candidateFoundAt": "2026-02-11",
    "candidateOsmType": "node",
    "candidateOsmId": 1207861988,
    "candidateUrl": "https://legallion-morges.ch/",
    "candidatePhone": "+41 21 800 32 76",
    "candidateHours": "Mo-Th,Su 09:00-15:00,17:30-23:00; Fr-Sa 09:00-15:00,17:30-00:00"
  },
  {
    "id": "osm-node-1207862096-fukuoka",
    "name": "Fukuoka",
    "lat": 46.507582,
    "lng": 6.4973137,
    "candidateSource": "osm",
    "candidateFoundAt": "2026-02-11",
    "candidateOsmType": "node",
    "candidateOsmId": 1207862096,
    "candidateUrl": "http://lefukuoka.ch",
    "candidatePhone": "+41 21 801 26 87",
    "candidateHours": "Tu-Sa 11:30-14:00, 18:30-22:00; Su 11:30-14:30, 18:30-22:00"
  },
  {
    "id": "osm-node-1230801025-farmacia-angelucci",
    "name": "Farmacia Angelucci",
    "lat": 46.5164106,
    "lng": 6.6263104,
    "candidateSource": "osm",
    "candidateFoundAt": "2026-02-11",
    "candidateOsmType": "node",
    "candidateOsmId": 1230801025,
    "candidateUrl": "https://www.angeluccis.ch/"
  },
  {
    "id": "osm-node-1230806994-la-riviera",
    "name": "La Riviera",
    "lat": 46.5071717,
    "lng": 6.6263109,
    "candidateSource": "osm",
    "candidateFoundAt": "2026-02-11",
    "candidateOsmType": "node",
    "candidateOsmId": 1230806994,
    "candidateUrl": "https://www.brasserieriviera.com",
    "candidatePhone": "+41 21 616 53 09",
    "candidateHours": "Mo-Su 10:00-23:00"
  },
  {
    "id": "osm-node-1230808910-ch-teau-d-ouchy",
    "name": "Château d'Ouchy",
    "lat": 46.506718,
    "lng": 6.6276147,
    "candidateSource": "osm",
    "candidateFoundAt": "2026-02-11",
    "candidateOsmType": "node",
    "candidateOsmId": 1230808910,
    "candidateUrl": "https://www.chateaudouchy.ch/en/restaurants-bars/",
    "candidatePhone": "+41 21 331 32 32"
  },
  {
    "id": "osm-node-1244874486-cusco-11",
    "name": "Cusco 11",
    "lat": 46.518365,
    "lng": 6.6304277,
    "candidateSource": "osm",
    "candidateFoundAt": "2026-02-11",
    "candidateOsmType": "node",
    "candidateOsmId": 1244874486,
    "candidateUrl": "https://cusco11.ch/",
    "candidatePhone": "+41 21 312 40 12"
  },
  {
    "id": "osm-node-1252267327-au-canard-p-kinois",
    "name": "Au Canard Pékinois",
    "lat": 46.5239404,
    "lng": 6.6253316,
    "candidateSource": "osm",
    "candidateFoundAt": "2026-02-11",
    "candidateOsmType": "node",
    "candidateOsmId": 1252267327,
    "candidateUrl": "http://au-canard-pekinois.ch/",
    "candidateHours": "Mo-Sa 12:00-14:30,19:00-22:30"
  },
  {
    "id": "osm-node-1263305516-abyssinia",
    "name": "Abyssinia",
    "lat": 46.5243323,
    "lng": 6.6318266,
    "candidateSource": "osm",
    "candidateFoundAt": "2026-02-11",
    "candidateOsmType": "node",
    "candidateOsmId": 1263305516,
    "candidateUrl": "https://www.abyssinia.ch/",
    "candidatePhone": "+41 21 311 49 07",
    "candidateHours": "Mo-Su 11:00-24:00"
  },
  {
    "id": "osm-node-1263690648-taiyo",
    "name": "Taiyo",
    "lat": 46.5186325,
    "lng": 6.631927,
    "candidateSource": "osm",
    "candidateFoundAt": "2026-02-11",
    "candidateOsmType": "node",
    "candidateOsmId": 1263690648,
    "candidateUrl": "https://www.taiyo-sushi-lausanne.ch/",
    "candidatePhone": "+41 21 312 43 12",
    "candidateHours": "Mo-Fr 11:00-13:30, 17:00-21:30; Sa-Su 17:00-21:30"
  },
  {
    "id": "osm-node-1265612841-ch-teau-de-coudr-e",
    "name": "Château de Coudrée",
    "lat": 46.3401539,
    "lng": 6.3831664,
    "candidateSource": "osm",
    "candidateFoundAt": "2026-02-11",
    "candidateOsmType": "node",
    "candidateOsmId": 1265612841,
    "candidateUrl": "https://www.chateau-hotel-coudree.com/",
    "candidatePhone": "+33 4 50 72 62 33"
  },
  {
    "id": "osm-node-1265905067-auberge-de-rivaz",
    "name": "Auberge de Rivaz",
    "lat": 46.4742462,
    "lng": 6.7831659,
    "candidateSource": "osm",
    "candidateFoundAt": "2026-02-11",
    "candidateOsmType": "node",
    "candidateOsmId": 1265905067,
    "candidateUrl": "http://www.aubergederivaz.ch/"
  },
  {
    "id": "osm-node-1275937401-le-th-tre",
    "name": "Le Théâtre",
    "lat": 46.5181142,
    "lng": 6.6367574,
    "candidateSource": "osm",
    "candidateFoundAt": "2026-02-11",
    "candidateOsmType": "node",
    "candidateOsmId": 1275937401,
    "candidateUrl": "https://www.restaurant-du-theatre.ch/",
    "candidatePhone": "+41 21 351 51 15",
    "candidateHours": "Mo-Sa 10:00-15:00,18:30-24:00"
  },
  {
    "id": "osm-node-1276218812-le-java",
    "name": "Le Java",
    "lat": 46.5205713,
    "lng": 6.6385134,
    "candidateSource": "osm",
    "candidateFoundAt": "2026-02-11",
    "candidateOsmType": "node",
    "candidateOsmId": 1276218812,
    "candidateUrl": "https://www.lejava.ch/",
    "candidatePhone": "+41 21 321 38 37",
    "candidateHours": "Mo-Th 07:30-24:00; Fr 07:30-01:00; Sa-Su 09:30-24:00"
  },
  {
    "id": "osm-node-1319951496-cr-perie-la-chandeleur",
    "name": "Crêperie la Chandeleur",
    "lat": 46.5215978,
    "lng": 6.6347858,
    "candidateSource": "osm",
    "candidateFoundAt": "2026-02-11",
    "candidateOsmType": "node",
    "candidateOsmId": 1319951496,
    "candidateUrl": "https://www.lachandeleur.ch/",
    "candidatePhone": "+41 21 312 84 19",
    "candidateHours": "Tu-Th 11:30-23:00; Fr, Sa 11:30-23:30"
  },
  {
    "id": "osm-node-1388844696-nirvana",
    "name": "Nirvana",
    "lat": 46.3106406,
    "lng": 6.9446652,
    "candidateSource": "osm",
    "candidateFoundAt": "2026-02-11",
    "candidateOsmType": "node",
    "candidateOsmId": 1388844696,
    "candidateUrl": "https://www.nirvanalounge.ch/",
    "candidateHours": "Mo-Th 12:00-15:00,18:30-21:30; Fr,Sa 12:00-22:00"
  },
  {
    "id": "osm-node-1392885140-la-tr-lasse",
    "name": "La Trélasse",
    "lat": 46.4506929,
    "lng": 6.1046695,
    "candidateSource": "osm",
    "candidateFoundAt": "2026-02-11",
    "candidateOsmType": "node",
    "candidateOsmId": 1392885140,
    "candidateUrl": "http://www.latrelasse.ch/"
  },
  {
    "id": "osm-node-1392885143-chalet-restaurant-de-cuvaloup-de-crans",
    "name": "Chalet Restaurant de Cuvaloup de Crans",
    "lat": 46.4411743,
    "lng": 6.0931361,
    "candidateSource": "osm",
    "candidateFoundAt": "2026-02-11",
    "candidateOsmType": "node",
    "candidateOsmId": 1392885143,
    "candidateUrl": "https://www.cuvaloup-de-crans.ch/",
    "candidatePhone": "+41 22 360 12 84",
    "candidateHours": "Mo-Sa 09:00-21:00; Su 09:00-17:00"
  },
  {
    "id": "osm-node-1420759585-taverne-grecque-podilato",
    "name": "Taverne Grecque Podilato",
    "lat": 46.4883158,
    "lng": 6.7304207,
    "candidateSource": "osm",
    "candidateFoundAt": "2026-02-11",
    "candidateOsmType": "node",
    "candidateOsmId": 1420759585,
    "candidateUrl": "https://www.taverne-grecque.ch/",
    "candidateHours": "Tu-Sa 12:00-15:00,19:00-22:00"
  },
  {
    "id": "osm-node-1420920378-le-major-davel",
    "name": "Le Major Davel",
    "lat": 46.4879104,
    "lng": 6.7314557,
    "candidateSource": "osm",
    "candidateFoundAt": "2026-02-11",
    "candidateOsmType": "node",
    "candidateOsmId": 1420920378,
    "candidateUrl": "https://www.major-davel.ch/"
  },
  {
    "id": "osm-node-1423114737-restaurant-mirabeau",
    "name": "Restaurant Mirabeau",
    "lat": 46.5167543,
    "lng": 6.6355174,
    "candidateSource": "osm",
    "candidateFoundAt": "2026-02-11",
    "candidateOsmType": "node",
    "candidateOsmId": 1423114737,
    "candidateUrl": "https://www.mirabeau.ch/"
  },
  {
    "id": "osm-node-1433812389-cafe-du-vieil-ouchy",
    "name": "Cafe du Vieil Ouchy",
    "lat": 46.5071861,
    "lng": 6.6278714,
    "candidateSource": "osm",
    "candidateFoundAt": "2026-02-11",
    "candidateOsmType": "node",
    "candidateOsmId": 1433812389,
    "candidateUrl": "https://www.vieilouchy.ch/",
    "candidatePhone": "+41 21 616 21 94",
    "candidateHours": "Mo-Fr 10:00-00:00; Sa, Su 09:00-00:00"
  },
  {
    "id": "osm-node-1433812390-l-accademia",
    "name": "L’Accademia",
    "lat": 46.5072597,
    "lng": 6.6283971,
    "candidateSource": "osm",
    "candidateFoundAt": "2026-02-11",
    "candidateOsmType": "node",
    "candidateOsmId": 1433812390,
    "candidateUrl": "https://www.angleterre-residence.ch/restaurants/laccademia/",
    "candidatePhone": "+41 21 613 39 74",
    "candidateHours": "Mo-Su 12:00-14:00,19:00-22:00"
  },
  {
    "id": "osm-node-1433812391-cr-perie-d-ouchy",
    "name": "Crêperie d'Ouchy",
    "lat": 46.5071933,
    "lng": 6.6281182,
    "candidateSource": "osm",
    "candidateFoundAt": "2026-02-11",
    "candidateOsmType": "node",
    "candidateOsmId": 1433812391,
    "candidateUrl": "https://www.ouchycrep.ch",
    "candidatePhone": "+41 21 616 26 07",
    "candidateHours": "Mo-Fr 12:00-21:00; Sa,Su 11:30-21:00"
  },
  {
    "id": "osm-node-1469329812-a-la-valsainte",
    "name": "A la Valsainte",
    "lat": 46.4588566,
    "lng": 6.8488389,
    "candidateSource": "osm",
    "candidateFoundAt": "2026-02-11",
    "candidateOsmType": "node",
    "candidateOsmId": 1469329812,
    "candidateUrl": "https://www.alavalsainte.ch/",
    "candidatePhone": "+41 21 921 32 60",
    "candidateHours": "Mo 10:30-14:30; Tu-Sa 10:30-14:30,18:00-00:00"
  },
  {
    "id": "osm-node-1519377153-le-caf-des-avenues",
    "name": "Le café des Avenues",
    "lat": 46.5112215,
    "lng": 6.6368592,
    "candidateSource": "osm",
    "candidateFoundAt": "2026-02-11",
    "candidateOsmType": "node",
    "candidateOsmId": 1519377153,
    "candidateUrl": "https://www.cafe-des-avenues.ch/",
    "candidatePhone": "+41 21 616 11 11",
    "candidateHours": "Mo-Fr 06:30-00:00; Sa-Su 09:00-00:00"
  },
  {
    "id": "osm-node-1539636449-caf-de-grancy",
    "name": "Café de Grancy",
    "lat": 46.5152658,
    "lng": 6.6286248,
    "candidateSource": "osm",
    "candidateFoundAt": "2026-02-11",
    "candidateOsmType": "node",
    "candidateOsmId": 1539636449,
    "candidateUrl": "https://www.cafedegrancy.ch/",
    "candidatePhone": "+41 21 616 86 66",
    "candidateHours": "Mo-Fr 08:00-24:00; Sa-Su 09:00-24:00"
  },
  {
    "id": "osm-node-1539645226-les-trois-rois",
    "name": "Les Trois Rois",
    "lat": 46.5156128,
    "lng": 6.6310227,
    "candidateSource": "osm",
    "candidateFoundAt": "2026-02-11",
    "candidateOsmType": "node",
    "candidateOsmId": 1539645226,
    "candidateUrl": "https://brasserie-lestroisrois.ch/",
    "candidatePhone": "+41 21 616 38 22",
    "candidateHours": "Tu-Sa 11:30-14:30,18:30-23:30"
  },
  {
    "id": "osm-node-1541130285-tang-roulou",
    "name": "Tang RouLou",
    "lat": 46.5126265,
    "lng": 6.6370074,
    "candidateSource": "osm",
    "candidateFoundAt": "2026-02-11",
    "candidateOsmType": "node",
    "candidateOsmId": 1541130285,
    "candidateUrl": "https://tangroulou.ch/",
    "candidatePhone": "+41 21 616 55 19",
    "candidateHours": "Tu 18:30-22:00; We, Th 11:30-14:00, 18:30-22:00; Fr 18:30-22:30; Sa 12:00-14:30, 18:30-22:30; Su 12:00-14:30, 18:30-21:30"
  },
  {
    "id": "osm-node-1541546045-caf-du-grütli",
    "name": "Café du Grütli",
    "lat": 46.5217909,
    "lng": 6.6335811,
    "candidateSource": "osm",
    "candidateFoundAt": "2026-02-11",
    "candidateOsmType": "node",
    "candidateOsmId": 1541546045,
    "candidateUrl": "http://www.cafedugruetli.ch/",
    "candidatePhone": "+41 21 312 94 93",
    "candidateHours": "Mo-Fr 10:00-14:30, 18:30-23:00; Sa 10:00-15:00, 18:30-23:00"
  },
  {
    "id": "osm-node-1552814775-keyann",
    "name": "Keyann",
    "lat": 46.5146217,
    "lng": 6.6531325,
    "candidateSource": "osm",
    "candidateFoundAt": "2026-02-11",
    "candidateOsmType": "node",
    "candidateOsmId": 1552814775,
    "candidateUrl": "https://keyann.ch/",
    "candidatePhone": "+41 21 711 00 44",
    "candidateHours": "Tu-Sa 11:00-14:00, 18:00-22:00"
  },
  {
    "id": "osm-node-1555717295-restaurant-de-l-union",
    "name": "Restaurant de l'Union",
    "lat": 46.5102675,
    "lng": 6.4996864,
    "candidateSource": "osm",
    "candidateFoundAt": "2026-02-11",
    "candidateOsmType": "node",
    "candidateOsmId": 1555717295,
    "candidateUrl": "https://www.hotelsavoie.ch/restaurant/",
    "candidatePhone": "+41 21 801 21 55"
  },
  {
    "id": "osm-node-1555726142-club-nautique",
    "name": "Club Nautique",
    "lat": 46.5059071,
    "lng": 6.4974183,
    "candidateSource": "osm",
    "candidateFoundAt": "2026-02-11",
    "candidateOsmType": "node",
    "candidateOsmId": 1555726142,
    "candidateUrl": "https://www.restaurant-cnm.ch/",
    "candidatePhone": "+41 21 801 51 51",
    "candidateHours": "Su-Th 09:00-23:00; Fr-Sa 09:00-00:00"
  },
  {
    "id": "osm-node-1555766425-restaurant-de-la-tour",
    "name": "Restaurant de la Tour",
    "lat": 46.5133538,
    "lng": 6.492027,
    "candidateSource": "osm",
    "candidateFoundAt": "2026-02-11",
    "candidateOsmType": "node",
    "candidateOsmId": 1555766425,
    "candidateUrl": "https://www.restaurant-morges.com/",
    "candidatePhone": "+41 21 801 73 78",
    "candidateHours": "Mo-Th 09:30-14:30,17:30-23:00; Fr,Sa 09:30-14:30,17:30-24:00; PH 17:30-23:00"
  },
  {
    "id": "osm-node-1594450071-restaurant-le-tournesol",
    "name": "Restaurant Le Tournesol",
    "lat": 46.5421928,
    "lng": 6.6249302,
    "candidateSource": "osm",
    "candidateFoundAt": "2026-02-11",
    "candidateOsmType": "node",
    "candidateOsmId": 1594450071,
    "candidateUrl": "https://www.fbg.ch/pages?section_id=2&menu_id=6&sub_id=8",
    "candidateHours": "Mo-Fr 09:00-17:00, Sa,Su 10:00-17:00"
  },
  {
    "id": "osm-node-1601303902-le-fair-play",
    "name": "Le Fair Play",
    "lat": 46.4900078,
    "lng": 6.7674911,
    "candidateSource": "osm",
    "candidateFoundAt": "2026-02-11",
    "candidateOsmType": "node",
    "candidateOsmId": 1601303902,
    "candidateUrl": "https://www.restaurant-fairplay.ch/"
  },
  {
    "id": "osm-node-1623784717-caf-du-simplon",
    "name": "Café du Simplon",
    "lat": 46.5157858,
    "lng": 6.6301762,
    "candidateSource": "osm",
    "candidateFoundAt": "2026-02-11",
    "candidateOsmType": "node",
    "candidateOsmId": 1623784717,
    "candidateUrl": "https://www.cafedusimplon.ch/",
    "candidatePhone": "+41 21 616 31 04",
    "candidateHours": "Mo-Fr 07:00-23:30; Sa 17:00-24:00"
  },
  {
    "id": "osm-node-1625189968-sushi-zen",
    "name": "Sushi Zen",
    "lat": 46.5080691,
    "lng": 6.4983466,
    "candidateSource": "osm",
    "candidateFoundAt": "2026-02-11",
    "candidateOsmType": "node",
    "candidateOsmId": 1625189968,
    "candidateUrl": "https://www.sushizen.shop/francais/shop-page/sushizen-morges",
    "candidatePhone": "+41 21 801 72 89"
  },
  {
    "id": "osm-node-1625568232-le-chemin-de-fer",
    "name": "Le Chemin de Fer",
    "lat": 46.4628725,
    "lng": 6.3357324,
    "candidateSource": "osm",
    "candidateFoundAt": "2026-02-11",
    "candidateOsmType": "node",
    "candidateOsmId": 1625568232,
    "candidateUrl": "https://www.restaurantchemindefer.ch/",
    "candidatePhone": "+41 21 825 17 06"
  },
  {
    "id": "osm-node-1628258295-inglewood",
    "name": "Inglewood",
    "lat": 46.5158781,
    "lng": 6.6279684,
    "candidateSource": "osm",
    "candidateFoundAt": "2026-02-11",
    "candidateOsmType": "node",
    "candidateOsmId": 1628258295,
    "candidateUrl": "https://inglewood.ch/",
    "candidatePhone": "+41 21 323 63 88",
    "candidateHours": "Mo-Su 11:30-14:00,18:30-21:30"
  },
  {
    "id": "osm-node-1635770331-la-principessa",
    "name": "La Principessa",
    "lat": 46.5236424,
    "lng": 6.6786245,
    "candidateSource": "osm",
    "candidateFoundAt": "2026-02-11",
    "candidateOsmType": "node",
    "candidateOsmId": 1635770331,
    "candidateUrl": "https://laprincipessa.ch/"
  },
  {
    "id": "osm-node-1640336585-la-coccinelle",
    "name": "La Coccinelle",
    "lat": 46.5216295,
    "lng": 6.6307171,
    "candidateSource": "osm",
    "candidateFoundAt": "2026-02-11",
    "candidateOsmType": "node",
    "candidateOsmId": 1640336585,
    "candidateUrl": "https://www.coccinelle-cafe.ch",
    "candidatePhone": "+41 21 312 08 90",
    "candidateHours": "Mo-Fr 07:00-19:00; Sa 07:00-18:00"
  },
  {
    "id": "osm-node-1642174194-laxmi",
    "name": "Laxmi",
    "lat": 46.5219686,
    "lng": 6.6336577,
    "candidateSource": "osm",
    "candidateFoundAt": "2026-02-11",
    "candidateOsmType": "node",
    "candidateOsmId": 1642174194,
    "candidateUrl": "https://www.laxmi.ch/",
    "candidatePhone": "+41 21 323 03 13",
    "candidateHours": "Mo-Sa 11:30-14:00, 18:30-23:00; Su 18:30-23:00"
  },
  {
    "id": "osm-node-1668061386-shambala",
    "name": "Shambala",
    "lat": 46.53414,
    "lng": 6.6051009,
    "candidateSource": "osm",
    "candidateFoundAt": "2026-02-11",
    "candidateOsmType": "node",
    "candidateOsmId": 1668061386,
    "candidateUrl": "https://shambala.restaurant/",
    "candidateHours": "Mo-Su 11:30-14:00,18:30-22:30"
  },
  {
    "id": "osm-node-1695185680-le-moulin",
    "name": "Le Moulin",
    "lat": 46.5115333,
    "lng": 6.492486,
    "candidateSource": "osm",
    "candidateFoundAt": "2026-02-11",
    "candidateOsmType": "node",
    "candidateOsmId": 1695185680,
    "candidateUrl": "https://www.restaurant-pizzeria-italien-le-moulin.ch",
    "candidatePhone": "+41 21 801 85 75",
    "candidateHours": "Mo-Sa 08:00-15:00,17:00-24:00, Su 08:00-15:00,17:00-23:00"
  },
  {
    "id": "osm-node-1775097880-les-reflets-du-lac",
    "name": "Les Reflets du Lac",
    "lat": 46.4048311,
    "lng": 6.6563907,
    "candidateSource": "osm",
    "candidateFoundAt": "2026-02-11",
    "candidateOsmType": "node",
    "candidateOsmId": 1775097880,
    "candidateUrl": "https://www.refletsdulac.com/"
  },
  {
    "id": "osm-node-1785692645-da-noi",
    "name": "Da Noi",
    "lat": 46.5251304,
    "lng": 6.6376492,
    "candidateSource": "osm",
    "candidateFoundAt": "2026-02-11",
    "candidateOsmType": "node",
    "candidateOsmId": 1785692645,
    "candidateUrl": "https://ristorantedanoi.ch/",
    "candidatePhone": "+41 21 214 21 12"
  },
  {
    "id": "osm-node-1792784668-le-cinq",
    "name": "Le cinq",
    "lat": 46.5209843,
    "lng": 6.6329685,
    "candidateSource": "osm",
    "candidateFoundAt": "2026-02-11",
    "candidateOsmType": "node",
    "candidateOsmId": 1792784668,
    "candidateUrl": "https://www.lecinq.ch/",
    "candidatePhone": "+41 21 312 40 11",
    "candidateHours": "Mo-Fr 12:00-14:00, 19:00-22:00"
  },
  {
    "id": "osm-node-1807704066-pol",
    "name": "Pol",
    "lat": 46.3716829,
    "lng": 6.4796065,
    "candidateSource": "osm",
    "candidateFoundAt": "2026-02-11",
    "candidateOsmType": "node",
    "candidateOsmId": 1807704066,
    "candidateUrl": "https://pol-restaurant.fr/"
  },
  {
    "id": "osm-node-1816637627-chez-jacques",
    "name": "Chez Jacques",
    "lat": 46.333342,
    "lng": 6.3878483,
    "candidateSource": "osm",
    "candidateFoundAt": "2026-02-11",
    "candidateOsmType": "node",
    "candidateOsmId": 1816637627,
    "candidateUrl": "https://restaurant-chez-jacques.business.site",
    "candidatePhone": "+33 4 50 72 55 12"
  },
  {
    "id": "osm-node-1932766554-le-syrien",
    "name": "Le Syrien",
    "lat": 46.4593147,
    "lng": 6.8442522,
    "candidateSource": "osm",
    "candidateFoundAt": "2026-02-11",
    "candidateOsmType": "node",
    "candidateOsmId": 1932766554,
    "candidateUrl": "https://www.local.ch/fr/d/vevey/1800/cuisine-orientale/le-syrien-yKqVNnXYJiFRsWBGTwz-ew",
    "candidatePhone": "+41 21 921 02 57",
    "candidateHours": "Jun-Sep 10:00-22:00; 10:00-20:00"
  },
  {
    "id": "osm-node-1978496514-l-ornithorynque",
    "name": "L'Ornithorynque",
    "lat": 46.5200508,
    "lng": 6.5636699,
    "candidateSource": "osm",
    "candidateFoundAt": "2026-02-11",
    "candidateOsmType": "node",
    "candidateOsmId": 1978496514,
    "candidateUrl": "https://restauration.epfl.ch/op/edit/Ornithorynque",
    "candidateHours": "Mo-Fr 11:30-14:00"
  },
  {
    "id": "osm-node-1978513795-puur-innovation",
    "name": "Puur Innovation",
    "lat": 46.5163226,
    "lng": 6.5621224,
    "candidateSource": "osm",
    "candidateFoundAt": "2026-02-11",
    "candidateOsmType": "node",
    "candidateOsmId": 1978513795,
    "candidateUrl": "https://www.epfl.ch/campus/restaurants-shops-hotels/self-service-2/puur/",
    "candidateHours": "Mo-Fr 8:00-16:00"
  },
  {
    "id": "osm-node-1997685081-pizza-taxi",
    "name": "Pizza Taxi",
    "lat": 46.458335,
    "lng": 6.8451539,
    "candidateSource": "osm",
    "candidateFoundAt": "2026-02-11",
    "candidateOsmType": "node",
    "candidateOsmId": 1997685081,
    "candidateUrl": "https://www.pizzataxi-vevey.ch/",
    "candidatePhone": "+41 21 923 55 60",
    "candidateHours": "Mo-Fr 11:15-14:00, 17:45-22:30; Sa, Su 11:15-22:30"
  },
  {
    "id": "osm-node-2105707494-auberge-communale-cafe-du-jura",
    "name": "Auberge Communale, Cafe du Jura",
    "lat": 46.4985831,
    "lng": 6.3092091,
    "candidateSource": "osm",
    "candidateFoundAt": "2026-02-11",
    "candidateOsmType": "node",
    "candidateOsmId": 2105707494,
    "candidateUrl": "https://auberge-saint-oyens.ch/"
  },
  {
    "id": "osm-node-2108024585-la-stella",
    "name": "La Stella",
    "lat": 46.5101744,
    "lng": 6.6609899,
    "candidateSource": "osm",
    "candidateFoundAt": "2026-02-11",
    "candidateOsmType": "node",
    "candidateOsmId": 2108024585,
    "candidateUrl": "https://restaurantlastella.ch/",
    "candidatePhone": "+41 21 728 06 60",
    "candidateHours": "Mo-Sa 09:00-14:00, 18:00-23:00"
  },
  {
    "id": "osm-node-2136666581-la-casa",
    "name": "La Casa",
    "lat": 46.5252991,
    "lng": 6.6028985,
    "candidateSource": "osm",
    "candidateFoundAt": "2026-02-11",
    "candidateOsmType": "node",
    "candidateOsmId": 2136666581,
    "candidateUrl": "https://mcalzolari93.wixsite.com/piadineriamammamia"
  },
  {
    "id": "osm-node-2145075525-auberge-de-la-fleur-de-lys",
    "name": "Auberge de la Fleur-de-Lys",
    "lat": 46.5446586,
    "lng": 6.6049531,
    "candidateSource": "osm",
    "candidateFoundAt": "2026-02-11",
    "candidateOsmType": "node",
    "candidateOsmId": 2145075525,
    "candidateUrl": "https://aubergedelafleurdelys.ch",
    "candidatePhone": "+41 21 647 09 09",
    "candidateHours": "Tu-Sa 08:00-00:00; Su 08:00-15:00"
  },
  {
    "id": "osm-node-2162536768-happy-days-longhorn-steakhouse",
    "name": "Happy Days - Longhorn steakhouse",
    "lat": 46.5196326,
    "lng": 6.6372618,
    "candidateSource": "osm",
    "candidateFoundAt": "2026-02-11",
    "candidateOsmType": "node",
    "candidateOsmId": 2162536768,
    "candidateUrl": "https://www.happydays-bargrill.ch/",
    "candidatePhone": "+41 21 324 06 06",
    "candidateHours": "Mo-Th 08:00-01:00; Fr-Sa 08:00-02:00; Su 08:00-00:00"
  },
  {
    "id": "osm-node-2167291594-new-delhi",
    "name": "New Delhi",
    "lat": 46.5181389,
    "lng": 6.6274004,
    "candidateSource": "osm",
    "candidateFoundAt": "2026-02-11",
    "candidateOsmType": "node",
    "candidateOsmId": 2167291594,
    "candidateUrl": "https://newdelhi.ch/",
    "candidateHours": "Mo-Su 11:00-14:00, 18:00-23:00"
  },
  {
    "id": "osm-node-2167296689-vasano",
    "name": "Vasano",
    "lat": 46.5176553,
    "lng": 6.6293048,
    "candidateSource": "osm",
    "candidateFoundAt": "2026-02-11",
    "candidateOsmType": "node",
    "candidateOsmId": 2167296689,
    "candidateUrl": "https://vasanoristorante.ch/",
    "candidatePhone": "+41 21 320 48 48",
    "candidateHours": "Mo-Su 10:00-23:00"
  },
  {
    "id": "osm-node-2167334876-holy-cow",
    "name": "Holy Cow",
    "lat": 46.5201863,
    "lng": 6.6363424,
    "candidateSource": "osm",
    "candidateFoundAt": "2026-02-11",
    "candidateOsmType": "node",
    "candidateOsmId": 2167334876,
    "candidateUrl": "https://www.holycow.ch/",
    "candidateHours": "Mo-We, Su 11:00-22:00; Th-Sa 11:00-23:00"
  },
  {
    "id": "osm-node-2241362756-restaurant-ausonia",
    "name": "Restaurant Ausonia",
    "lat": 46.5151801,
    "lng": 6.5375731,
    "candidateSource": "osm",
    "candidateFoundAt": "2026-02-11",
    "candidateOsmType": "node",
    "candidateOsmId": 2241362756,
    "candidateUrl": "https://www.ausonia.ch",
    "candidatePhone": "+41 21 633 74 51",
    "candidateHours": "Mo-Su,PH 11:45-14:30,17:45-22:00"
  },
  {
    "id": "osm-node-2326082263-ichioshi",
    "name": "Ichioshi",
    "lat": 46.4602518,
    "lng": 6.8438189,
    "candidateSource": "osm",
    "candidateFoundAt": "2026-02-11",
    "candidateOsmType": "node",
    "candidateOsmId": 2326082263,
    "candidateUrl": "https://www.ichioshi-sushi-vevey.ch/",
    "candidatePhone": "+41 21 921 44 20",
    "candidateHours": "Tu-Sa 11:00-14:00, 18:00-23:30"
  },
  {
    "id": "osm-node-2331708256-la-longeraie",
    "name": "La Longeraie",
    "lat": 46.5079161,
    "lng": 6.4828304,
    "candidateSource": "osm",
    "candidateFoundAt": "2026-02-11",
    "candidateOsmType": "node",
    "candidateOsmId": 2331708256,
    "candidateUrl": "http://www.lalongeraie.ch/fr/hotel-restaurant-morges-lausanne.php#restaurant-morges.php",
    "candidatePhone": "+41 21 804 64 00"
  },
  {
    "id": "osm-node-2350751342-bleu-lezard",
    "name": "Bleu Lezard",
    "lat": 46.5201097,
    "lng": 6.637723,
    "candidateSource": "osm",
    "candidateFoundAt": "2026-02-11",
    "candidateOsmType": "node",
    "candidateOsmId": 2350751342,
    "candidateUrl": "https://bleu-lezard.ch/",
    "candidateHours": "Mo, We, Th 07:30-00:00, 09:00-18:00; Tu, Fr 07:30-01:00; Sa 08:00-01:00; Su 09:30-00:00"
  },
  {
    "id": "osm-node-2368737807-brasserie-des-sauges",
    "name": "Brasserie des Sauges",
    "lat": 46.5362001,
    "lng": 6.6199923,
    "candidateSource": "osm",
    "candidateFoundAt": "2026-02-11",
    "candidateOsmType": "node",
    "candidateOsmId": 2368737807,
    "candidateUrl": "https://brasserie-des-sauges.com",
    "candidatePhone": "+41 21 647 74 86"
  },
  {
    "id": "osm-node-2398768793-bellevue",
    "name": "Bellevue",
    "lat": 46.3939552,
    "lng": 6.8053968,
    "candidateSource": "osm",
    "candidateFoundAt": "2026-02-11",
    "candidateOsmType": "node",
    "candidateOsmId": 2398768793,
    "candidateUrl": "https://info@bellevue-restaurant.ch",
    "candidatePhone": "+41 24 481 62 72",
    "candidateHours": "Mo-Su 09:00-23:00"
  },
  {
    "id": "osm-node-2406789699-le-radeau",
    "name": "Le radeau",
    "lat": 46.3971491,
    "lng": 6.5364235,
    "candidateSource": "osm",
    "candidateFoundAt": "2026-02-11",
    "candidateOsmType": "node",
    "candidateOsmId": 2406789699,
    "candidateUrl": "https://www.hotelplage74.com/",
    "candidatePhone": "+33 4 50 70 46 57"
  },
  {
    "id": "osm-node-2446720650-aux-trois-tonneaux",
    "name": "Aux Trois Tonneaux",
    "lat": 46.5215882,
    "lng": 6.6311846,
    "candidateSource": "osm",
    "candidateFoundAt": "2026-02-11",
    "candidateOsmType": "node",
    "candidateOsmId": 2446720650,
    "candidateUrl": "https://www.aux-trois-tonneaux.ch",
    "candidatePhone": "+41 21 312 02 66",
    "candidateHours": "Mo 11:30-14:30; Tu-Fr 11:30-14:30, 18:30-23:45; Sa 19:00-23:45"
  },
  {
    "id": "osm-node-2464429521-brasserie-de-chailly",
    "name": "Brasserie de Chailly",
    "lat": 46.5271484,
    "lng": 6.6516532,
    "candidateSource": "osm",
    "candidateFoundAt": "2026-02-11",
    "candidateOsmType": "node",
    "candidateOsmId": 2464429521,
    "candidateUrl": "https://brasserie-chailly.ch/",
    "candidatePhone": "+41 21 653 35 35",
    "candidateHours": "Mo-Sa 07:00-23:30"
  },
  {
    "id": "osm-node-2469119721-l-ananas",
    "name": "L'Ananas",
    "lat": 46.5322761,
    "lng": 6.5982856,
    "candidateSource": "osm",
    "candidateFoundAt": "2026-02-11",
    "candidateOsmType": "node",
    "candidateOsmId": 2469119721,
    "candidateUrl": "https://www.asia-ananas.ch"
  },
  {
    "id": "osm-node-2470176477-hong-kong-city",
    "name": "Hong Kong City",
    "lat": 46.4519501,
    "lng": 6.8580011,
    "candidateSource": "osm",
    "candidateFoundAt": "2026-02-11",
    "candidateOsmType": "node",
    "candidateOsmId": 2470176477,
    "candidateUrl": "https://www.hongkongcity.ch/",
    "candidatePhone": "+41 21 944 21 71"
  },
  {
    "id": "osm-node-2507678574-caf-mozart",
    "name": "Café Mozart",
    "lat": 46.5185804,
    "lng": 6.6336608,
    "candidateSource": "osm",
    "candidateFoundAt": "2026-02-11",
    "candidateOsmType": "node",
    "candidateOsmId": 2507678574,
    "candidateUrl": "https://www.mozartcafe.ch/",
    "candidatePhone": "+41 21 323 10 30",
    "candidateHours": "Mo 08:30-17:30; Tu-Fr 08:30-23:00; Sa 09:00-18:00"
  },
  {
    "id": "osm-node-2518861132-les-rosalys",
    "name": "Les Rosalys",
    "lat": 46.5174765,
    "lng": 6.9607181,
    "candidateSource": "osm",
    "candidateFoundAt": "2026-02-11",
    "candidateOsmType": "node",
    "candidateOsmId": 2518861132,
    "candidateUrl": "https://www.lesrosalys.ch/",
    "candidatePhone": "+41 21 948 80 80",
    "candidateHours": "Fr-Tu 09:00-23:00"
  },
  {
    "id": "osm-node-2523496971-le-dragon",
    "name": "Le Dragon",
    "lat": 46.5364701,
    "lng": 6.5778659,
    "candidateSource": "osm",
    "candidateFoundAt": "2026-02-11",
    "candidateOsmType": "node",
    "candidateOsmId": 2523496971,
    "candidateUrl": "https://www.restodragon.ch/",
    "candidatePhone": "+41 21 634 02 73",
    "candidateHours": "Mo-Su 11:30-15:00,17:30-23:00"
  },
  {
    "id": "osm-node-2613661654-eat-me",
    "name": "Eat Me",
    "lat": 46.520243,
    "lng": 6.632309,
    "candidateSource": "osm",
    "candidateFoundAt": "2026-02-11",
    "candidateOsmType": "node",
    "candidateOsmId": 2613661654,
    "candidateUrl": "https://www.eat-me.ch/",
    "candidatePhone": "+41 21 311 76 59"
  },
  {
    "id": "osm-node-2659762464-tibits",
    "name": "Tibits",
    "lat": 46.5171856,
    "lng": 6.6281226,
    "candidateSource": "osm",
    "candidateFoundAt": "2026-02-11",
    "candidateOsmType": "node",
    "candidateOsmId": 2659762464,
    "candidateUrl": "https://www.tibits.ch/fr/",
    "candidatePhone": "+41 32 531 38 88",
    "candidateHours": "Mo-Fr 07:00-22:00; Sa 06:30-22:30; Su 08:00-22:00"
  },
  {
    "id": "osm-node-2669865508-restaurant-vieux-lausanne",
    "name": "Restaurant Vieux-Lausanne",
    "lat": 46.5223736,
    "lng": 6.634302,
    "candidateSource": "osm",
    "candidateFoundAt": "2026-02-11",
    "candidateOsmType": "node",
    "candidateOsmId": 2669865508,
    "candidateUrl": "https://www.vieux-lausanne.ch/le-restaurant-du-vieux-lausanne",
    "candidatePhone": "+41 21 323 53 90",
    "candidateHours": "Tu-Th 12:00-14:30, 19:00-23:00; Fr 12:00-14:30, 19:00-24:00; Sa 19:00-24:00"
  },
  {
    "id": "osm-node-2773355447-restaurant-de-la-gare",
    "name": "Restaurant de la Gare",
    "lat": 46.5259924,
    "lng": 6.8524707,
    "candidateSource": "osm",
    "candidateFoundAt": "2026-02-11",
    "candidateOsmType": "node",
    "candidateOsmId": 2773355447,
    "candidateUrl": "http://www.resto-lagarebossonnens.ch/"
  },
  {
    "id": "osm-node-2776732754-gina-ristorante",
    "name": "Gina Ristorante",
    "lat": 46.5225192,
    "lng": 6.5657129,
    "candidateSource": "osm",
    "candidateFoundAt": "2026-02-11",
    "candidateOsmType": "node",
    "candidateOsmId": 2776732754,
    "candidateUrl": "https://restauration.epfl.ch/gina",
    "candidatePhone": "+41 21 691 01 33",
    "candidateHours": "Mo-Fr 11:45-14:00,18:45-21:30"
  },
  {
    "id": "osm-node-2850354167-brasserie-de-malley",
    "name": "Brasserie de Malley",
    "lat": 46.5283449,
    "lng": 6.6043014,
    "candidateSource": "osm",
    "candidateFoundAt": "2026-02-11",
    "candidateOsmType": "node",
    "candidateOsmId": 2850354167,
    "candidateUrl": "https://www.brasseriemalley.com",
    "candidatePhone": "+41 21 625 95 25",
    "candidateHours": "Mo-Fr 06:00-23:00, Sa 08:00-23:00, Su 08:00-20:00"
  },
  {
    "id": "osm-node-2850365213-st-paul",
    "name": "St.Paul",
    "lat": 46.5281253,
    "lng": 6.6163489,
    "candidateSource": "osm",
    "candidateFoundAt": "2026-02-11",
    "candidateOsmType": "node",
    "candidateOsmId": 2850365213,
    "candidateUrl": "https://www.ristorante-st-paul.ch/",
    "candidatePhone": "+41 21 544 73 91",
    "candidateHours": "Tu-Fr 11:45-14:45, 19:00-00:00; Sa 19:00-00:00"
  },
  {
    "id": "osm-node-2940823115-chez-xu",
    "name": "Chez Xu",
    "lat": 46.517945,
    "lng": 6.6296423,
    "candidateSource": "osm",
    "candidateFoundAt": "2026-02-11",
    "candidateOsmType": "node",
    "candidateOsmId": 2940823115,
    "candidateUrl": "https://www.ubereats.com/ch/store/chez-xu-petit-chene/AF3yq3sjSCmTENzJ2_OfQw",
    "candidatePhone": "+41 21 320 72 68",
    "candidateHours": "Mo-Sa 11:30-14:30,18:00-22:30"
  },
  {
    "id": "osm-node-2941838101-chez-cff",
    "name": "Chez CFF",
    "lat": 46.516769,
    "lng": 6.630486,
    "candidateSource": "osm",
    "candidateFoundAt": "2026-02-11",
    "candidateOsmType": "node",
    "candidateOsmId": 2941838101,
    "candidateUrl": "https://www.zfv.ch/fr/se-restaurer/restaurant-cff-lausanne-voyageurs",
    "candidateHours": "Mo-Fr 06:30-20:00; Sa 06:45-14:00"
  },
  {
    "id": "osm-node-2961348214-taco-s-bar",
    "name": "Taco's Bar",
    "lat": 46.5213585,
    "lng": 6.628565,
    "candidateSource": "osm",
    "candidateFoundAt": "2026-02-11",
    "candidateOsmType": "node",
    "candidateOsmId": 2961348214,
    "candidateUrl": "https://tacos-bar.ch/",
    "candidatePhone": "+41 21 320 15 25",
    "candidateHours": "Mo-Th, Su 17:30-01:00; Fr, Sa 17:30-02:00"
  },
  {
    "id": "osm-node-2968187833-ristorante-invivo",
    "name": "Ristorante InVivo",
    "lat": 46.5138962,
    "lng": 6.50099,
    "candidateSource": "osm",
    "candidateFoundAt": "2026-02-11",
    "candidateOsmType": "node",
    "candidateOsmId": 2968187833,
    "candidateUrl": "http://www.ristorante-invivo.ch",
    "candidatePhone": "+41 21 803 06 17",
    "candidateHours": "Mo-Fr 11:30-14:30,18:00-00:00; Sa 18:00-00:00"
  },
  {
    "id": "osm-node-2974366301-la-rive",
    "name": "La Rive",
    "lat": 46.5077161,
    "lng": 6.4953166,
    "candidateSource": "osm",
    "candidateFoundAt": "2026-02-11",
    "candidateOsmType": "node",
    "candidateOsmId": 2974366301,
    "candidateUrl": "https://www.restaurantlarive.ch/",
    "candidatePhone": "+41 21 803 53 53",
    "candidateHours": "Mo-Th 07:00-23:00; Fr-Sa 07:00-00:00; Su 09:00-23:00"
  },
  {
    "id": "osm-node-2975869180-chez-fernand",
    "name": "Chez Fernand",
    "lat": 46.3718541,
    "lng": 6.4797664,
    "candidateSource": "osm",
    "candidateFoundAt": "2026-02-11",
    "candidateOsmType": "node",
    "candidateOsmId": 2975869180,
    "candidateUrl": "http://www.bistrot-chezfernand.com/"
  },
  {
    "id": "osm-node-2977336940-nandanam",
    "name": "Nandanam",
    "lat": 46.5182065,
    "lng": 6.6263778,
    "candidateSource": "osm",
    "candidateFoundAt": "2026-02-11",
    "candidateOsmType": "node",
    "candidateOsmId": 2977336940,
    "candidateUrl": "https://www.nandanam.ch/",
    "candidatePhone": "+41 21 312 23 00",
    "candidateHours": "Tu-Sa 11:30-14:30,18:30-22:30"
  },
  {
    "id": "osm-node-2980907916-la-carbonara",
    "name": "La Carbonara",
    "lat": 46.3688731,
    "lng": 6.4765892,
    "candidateSource": "osm",
    "candidateFoundAt": "2026-02-11",
    "candidateOsmType": "node",
    "candidateOsmId": 2980907916,
    "candidateUrl": "http://www.pizzeria-thonon.com/"
  },
  {
    "id": "osm-node-3002335033-kung-fu-cuisine",
    "name": "Kung-Fu Cuisine",
    "lat": 46.5232886,
    "lng": 6.6291632,
    "candidateSource": "osm",
    "candidateFoundAt": "2026-02-11",
    "candidateOsmType": "node",
    "candidateOsmId": 3002335033,
    "candidateUrl": "https://www.kungfucuisine.ch/",
    "candidatePhone": "+41 21 311 18 88",
    "candidateHours": "Mo-Sa 08:00-23:00; Su 10:30-23:00"
  },
  {
    "id": "osm-node-3003087489-au-charbon",
    "name": "Au Charbon",
    "lat": 46.5255177,
    "lng": 6.6521982,
    "candidateSource": "osm",
    "candidateFoundAt": "2026-02-11",
    "candidateOsmType": "node",
    "candidateOsmId": 3003087489,
    "candidateUrl": "http://www.pizza-charbon.ch/",
    "candidateHours": "Tu-Fr 08:00-23:30; Sa 09:00-23:30"
  },
  {
    "id": "osm-node-3016773026-la-route-de-la-soie",
    "name": "La Route de la Soie",
    "lat": 46.5104007,
    "lng": 6.498062,
    "candidateSource": "osm",
    "candidateFoundAt": "2026-02-11",
    "candidateOsmType": "node",
    "candidateOsmId": 3016773026,
    "candidateUrl": "https://www.routedelasoie.ch/"
  },
  {
    "id": "osm-node-3030092556-le-gandhi",
    "name": "Le Gandhi",
    "lat": 46.5197366,
    "lng": 6.5073795,
    "candidateSource": "osm",
    "candidateFoundAt": "2026-02-11",
    "candidateOsmType": "node",
    "candidateOsmId": 3030092556,
    "candidateUrl": "http://www.legandhi.ch",
    "candidatePhone": "+41 21 803 67 75"
  },
  {
    "id": "osm-node-3063636756-le-raisin",
    "name": "Le Raisin",
    "lat": 46.5219557,
    "lng": 6.6330517,
    "candidateSource": "osm",
    "candidateFoundAt": "2026-02-11",
    "candidateOsmType": "node",
    "candidateOsmId": 3063636756,
    "candidateUrl": "https://www.leraisin-lausanne.ch/",
    "candidatePhone": "+41 21 312 27 56"
  },
  {
    "id": "osm-node-3063652312-brasserie-de-montbenon",
    "name": "Brasserie de Montbenon",
    "lat": 46.5202516,
    "lng": 6.6249812,
    "candidateSource": "osm",
    "candidateFoundAt": "2026-02-11",
    "candidateOsmType": "node",
    "candidateOsmId": 3063652312,
    "candidateUrl": "https://www.brasseriedemontbenon.ch/",
    "candidatePhone": "+41 21 320 40 30",
    "candidateHours": "09:00-24:00"
  },
  {
    "id": "osm-node-3137095928-kashmir",
    "name": "Kashmir",
    "lat": 46.5356344,
    "lng": 6.5919542,
    "candidateSource": "osm",
    "candidateFoundAt": "2026-02-11",
    "candidateOsmType": "node",
    "candidateOsmId": 3137095928,
    "candidateUrl": "https://restaurant-kashmir.ch/",
    "candidatePhone": "+41 78 889 76 94",
    "candidateHours": "Mo-Fr 11:00-14:30, Mo-Fr 18:00-22:30; Sa 18:00-23:00"
  },
  {
    "id": "osm-node-3152678361-tha-au-lac",
    "name": "Thaï au Lac",
    "lat": 46.5119255,
    "lng": 6.6090754,
    "candidateSource": "osm",
    "candidateFoundAt": "2026-02-11",
    "candidateOsmType": "node",
    "candidateOsmId": 3152678361,
    "candidateUrl": "http://thaiaulac.ch/",
    "candidatePhone": "+41 21 601 10 00",
    "candidateHours": "Mo-Fr, Su 11:30-14:30, 18:30-23:30; Sa 18:30-23:30"
  },
  {
    "id": "osm-node-3210622721-au-couscous",
    "name": "Au Couscous",
    "lat": 46.519914,
    "lng": 6.6370197,
    "candidateSource": "osm",
    "candidateFoundAt": "2026-02-11",
    "candidateOsmType": "node",
    "candidateOsmId": 3210622721,
    "candidateUrl": "https://au-couscous.ch/",
    "candidatePhone": "+41 21 312 98 00",
    "candidateHours": "Mo-Sa 11:30-14:30, Su-Th 18:30-24:00, Fr,Sa 18:30-01:00"
  },
  {
    "id": "osm-node-3210640361-le-comptoir-des-3-places",
    "name": "Le Comptoir des 3 Places",
    "lat": 46.5225918,
    "lng": 6.6325139,
    "candidateSource": "osm",
    "candidateFoundAt": "2026-02-11",
    "candidateOsmType": "node",
    "candidateOsmId": 3210640361,
    "candidateUrl": "https://www.lecomptoirdes3places.ch/",
    "candidatePhone": "+41 21 218 54 00",
    "candidateHours": "Tu-Sa 09:00-00:00"
  },
  {
    "id": "osm-node-3233153499-caf-de-pr-laz",
    "name": "Café de Prélaz",
    "lat": 46.5262089,
    "lng": 6.6128807,
    "candidateSource": "osm",
    "candidateFoundAt": "2026-02-11",
    "candidateOsmType": "node",
    "candidateOsmId": 3233153499,
    "candidateUrl": "https://cafedeprelaz.ch/#section-2077",
    "candidatePhone": "+41 21 558 40 90",
    "candidateHours": "Mo 08:00-16:00; Tu-Th 08:00-23:00; Fr 08:00-00:00; Sa 09:00-00:00; Su 09:00-16:00"
  },
  {
    "id": "osm-node-3256772570-bamee-bar",
    "name": "Bamee Bar",
    "lat": 46.5172634,
    "lng": 6.6324666,
    "candidateSource": "osm",
    "candidateFoundAt": "2026-02-11",
    "candidateOsmType": "node",
    "candidateOsmId": 3256772570,
    "candidateUrl": "https://www.bameebar.ch/",
    "candidatePhone": "+41 79 456 28 72;+41 21 320 20 11"
  },
  {
    "id": "osm-node-3271076966-brasserie-saint-laurent",
    "name": "Brasserie Saint-Laurent",
    "lat": 46.522396,
    "lng": 6.6312908,
    "candidateSource": "osm",
    "candidateFoundAt": "2026-02-11",
    "candidateOsmType": "node",
    "candidateOsmId": 3271076966,
    "candidateUrl": "http://www.brasserie-saint-Laurent.ch",
    "candidatePhone": "+41213121444",
    "candidateHours": "Mo-Tu, Th-Fr 08:30-23:00; We, Sa 07:30-23:00"
  },
  {
    "id": "osm-node-3389304149-that-s-amore",
    "name": "That's Amore",
    "lat": 46.5281469,
    "lng": 6.6486823,
    "candidateSource": "osm",
    "candidateFoundAt": "2026-02-11",
    "candidateOsmType": "node",
    "candidateOsmId": 3389304149,
    "candidateUrl": "https://www.thatsamore-restaurant.ch/",
    "candidatePhone": "+41 21 653 04 02",
    "candidateHours": "Tu-Fr 11:00-15:00, 18:30-23:30; Sa 18:30-23:30"
  },
  {
    "id": "osm-node-3389463200-caf-du-village",
    "name": "Café du Village",
    "lat": 46.5230949,
    "lng": 6.6560083,
    "candidateSource": "osm",
    "candidateFoundAt": "2026-02-11",
    "candidateOsmType": "node",
    "candidateOsmId": 3389463200,
    "candidateUrl": "https://cafeduvillagechailly.ch/",
    "candidatePhone": "+41 21 728 92 43",
    "candidateHours": "Mo 07:30-21:00; Tu-Fr 07:30-23:00; Sa 10:00-21:00"
  },
  {
    "id": "osm-node-3390849438-le-contretemps",
    "name": "Le Contretemps",
    "lat": 46.4262037,
    "lng": 6.9226427,
    "candidateSource": "osm",
    "candidateFoundAt": "2026-02-11",
    "candidateOsmType": "node",
    "candidateOsmId": 3390849438,
    "candidateUrl": "https://le-contretemps.ch/",
    "candidateHours": "We-Fr 11:30-14:30, 18:00-23:00; Sa 11:00-14:30, 18:00-23:00; Su 11:00-16:00"
  },
  {
    "id": "osm-node-3426925912-restaurant-pizzeria-22",
    "name": "Restaurant Pizzeria Ô22",
    "lat": 46.5392073,
    "lng": 6.5836364,
    "candidateSource": "osm",
    "candidateFoundAt": "2026-02-11",
    "candidateOsmType": "node",
    "candidateOsmId": 3426925912,
    "candidateUrl": "https://restauranto22.ch",
    "candidatePhone": "+41 21 551 14 01",
    "candidateHours": "Tu-Su 10:00-14:30, 18:00-00:00"
  },
  {
    "id": "osm-node-3439005245-henan",
    "name": "Henan",
    "lat": 46.5317466,
    "lng": 6.5839505,
    "candidateSource": "osm",
    "candidateFoundAt": "2026-02-11",
    "candidateOsmType": "node",
    "candidateOsmId": 3439005245,
    "candidateUrl": "https://restaurant-henan.business.site/",
    "candidatePhone": "+41 21 635 46 10",
    "candidateHours": "Mo-Fr 10:00-14:30,17:30-23:30, Sa 10:00-14:30,17:30-24:00, Su closed"
  },
  {
    "id": "osm-node-3507232083-auberge-de-vouvry",
    "name": "Auberge de Vouvry",
    "lat": 46.3361732,
    "lng": 6.8905766,
    "candidateSource": "osm",
    "candidateFoundAt": "2026-02-11",
    "candidateOsmType": "node",
    "candidateOsmId": 3507232083,
    "candidateUrl": "https://www.restaubergevouvry.ch/",
    "candidatePhone": "+41 24 481 12 21",
    "candidateHours": "Tu-Sa 11:00-14:30,18:00-22:00"
  },
  {
    "id": "osm-node-3515520557-la-jonque",
    "name": "La Jonque",
    "lat": 46.5121889,
    "lng": 6.6250716,
    "candidateSource": "osm",
    "candidateFoundAt": "2026-02-11",
    "candidateOsmType": "node",
    "candidateOsmId": 3515520557,
    "candidateUrl": "https://www.lajonque.com/",
    "candidatePhone": "+41 21 616 55 11",
    "candidateHours": "Mo-Sa 11:45-14:00, Mo-Su 18:30-22:00"
  },
  {
    "id": "osm-node-3525927400-ph-vi",
    "name": "Phò' Vi",
    "lat": 46.5101801,
    "lng": 6.498209,
    "candidateSource": "osm",
    "candidateFoundAt": "2026-02-11",
    "candidateOsmType": "node",
    "candidateOsmId": 3525927400,
    "candidateUrl": "https://phovi.ch"
  },
  {
    "id": "osm-node-3525927403-charme-tha",
    "name": "Charme Thaï",
    "lat": 46.5173162,
    "lng": 6.45746,
    "candidateSource": "osm",
    "candidateFoundAt": "2026-02-11",
    "candidateOsmType": "node",
    "candidateOsmId": 3525927403,
    "candidateUrl": "https://charmethai.ch/",
    "candidatePhone": "+41 21 802 01 03"
  },
  {
    "id": "osm-node-3525927404-cr-perie-de-l-ancien-port",
    "name": "Crêperie de l'Ancien Port",
    "lat": 46.4590472,
    "lng": 6.8445239,
    "candidateSource": "osm",
    "candidateFoundAt": "2026-02-11",
    "candidateOsmType": "node",
    "candidateOsmId": 3525927404,
    "candidateUrl": "https://www.creperiedelancienport.ch",
    "candidatePhone": "+41 21 922 10 24",
    "candidateHours": "Mo-Su 12:00-21:00"
  },
  {
    "id": "osm-node-3530976694-sopoong",
    "name": "Sopoong",
    "lat": 46.5211441,
    "lng": 6.6386319,
    "candidateSource": "osm",
    "candidateFoundAt": "2026-02-11",
    "candidateOsmType": "node",
    "candidateOsmId": 3530976694,
    "candidateUrl": "https://sopoong-lausanne.ch/",
    "candidateHours": "Tu-Fr 11:00-16:00; Sa 11:00-15:00"
  },
  {
    "id": "osm-node-3543243525-l-auberge-au-lion-d-or",
    "name": "L’auberge Au Lion d’Or",
    "lat": 46.3088674,
    "lng": 6.1759066,
    "candidateSource": "osm",
    "candidateFoundAt": "2026-02-11",
    "candidateOsmType": "node",
    "candidateOsmId": 3543243525,
    "candidateUrl": "http://www.au-liondor.ch/",
    "candidatePhone": "+41 22 776 04 23"
  },
  {
    "id": "osm-node-3581245793-les-d-lices-du-siam",
    "name": "Les Délices du Siam",
    "lat": 46.5364503,
    "lng": 6.5780685,
    "candidateSource": "osm",
    "candidateFoundAt": "2026-02-11",
    "candidateOsmType": "node",
    "candidateOsmId": 3581245793,
    "candidateUrl": "https://les-delices-du-siam.odoo.com/",
    "candidatePhone": "+41 21 635 81 77",
    "candidateHours": "Mo-Sa 11:15-14:15,18:00-23:00"
  },
  {
    "id": "osm-node-3586104915-chez-paul",
    "name": "Chez Paul",
    "lat": 46.3896641,
    "lng": 6.86096,
    "candidateSource": "osm",
    "candidateFoundAt": "2026-02-11",
    "candidateOsmType": "node",
    "candidateOsmId": 3586104915,
    "candidateUrl": "https://chezpaul.ch",
    "candidateHours": "We-Sa 10:00-23:00; Su 10:00-17:00"
  },
  {
    "id": "osm-node-3637167964-sibo",
    "name": "Sibo",
    "lat": 46.5261919,
    "lng": 6.4978901,
    "candidateSource": "osm",
    "candidateFoundAt": "2026-02-11",
    "candidateOsmType": "node",
    "candidateOsmId": 3637167964,
    "candidateUrl": "http://www.sibo-ristorante.ch/",
    "candidateHours": "Tu-Sa 10:00-14:00,18:00-22:00"
  },
  {
    "id": "osm-node-3661129125-chez-lin",
    "name": "Chez Lin",
    "lat": 46.3829319,
    "lng": 6.2371082,
    "candidateSource": "osm",
    "candidateFoundAt": "2026-02-11",
    "candidateOsmType": "node",
    "candidateOsmId": 3661129125,
    "candidateUrl": "https://www.sushi-chezlin.ch/accueil_nyon.html",
    "candidateHours": "Mo-Sa 11:00-20:00"
  },
  {
    "id": "osm-node-3661620662-la-puccia",
    "name": "La Puccia",
    "lat": 46.382445,
    "lng": 6.239069,
    "candidateSource": "osm",
    "candidateFoundAt": "2026-02-11",
    "candidateOsmType": "node",
    "candidateOsmId": 3661620662,
    "candidateUrl": "https://www.lapuccia.ch/",
    "candidatePhone": "+41 22 361 20 20",
    "candidateHours": "Mo-Sa 10:00-15:00,17:30-00:00; Su 11:00-15:00,17:00-22:00"
  },
  {
    "id": "osm-node-3662931828-sushi-haiku",
    "name": "Sushi Haiku",
    "lat": 46.3818435,
    "lng": 6.238849,
    "candidateSource": "osm",
    "candidateFoundAt": "2026-02-11",
    "candidateOsmType": "node",
    "candidateOsmId": 3662931828,
    "candidateUrl": "http://www.haiku-lausanne.ch/",
    "candidateHours": "Mo-Su 10:30-14:00, 17:30-21:30"
  },
  {
    "id": "osm-node-3664389925-khana-mandir",
    "name": "Khana Mandir",
    "lat": 46.3817929,
    "lng": 6.2386259,
    "candidateSource": "osm",
    "candidateFoundAt": "2026-02-11",
    "candidateOsmType": "node",
    "candidateOsmId": 3664389925,
    "candidateUrl": "https://www.mumbaibar.ch/"
  },
  {
    "id": "osm-node-3664390425-caf-du-march",
    "name": "Café du Marché",
    "lat": 46.3820112,
    "lng": 6.2380574,
    "candidateSource": "osm",
    "candidateFoundAt": "2026-02-11",
    "candidateOsmType": "node",
    "candidateOsmId": 3664390425,
    "candidateUrl": "https://www.lecafedumarche.ch/"
  },
  {
    "id": "osm-node-3664390426-bosphore",
    "name": "Bosphore",
    "lat": 46.382039,
    "lng": 6.2379132,
    "candidateSource": "osm",
    "candidateFoundAt": "2026-02-11",
    "candidateOsmType": "node",
    "candidateOsmId": 3664390426,
    "candidateUrl": "https://www.bosphore-pizza-kebab.ch/"
  },
  {
    "id": "osm-node-3687461622-l-ardoise",
    "name": "L'ardoise",
    "lat": 46.5124076,
    "lng": 6.6277297,
    "candidateSource": "osm",
    "candidateFoundAt": "2026-02-11",
    "candidateOsmType": "node",
    "candidateOsmId": 3687461622,
    "candidateUrl": "https://www.carltonlausanne.com/bar-restaurant",
    "candidatePhone": "+41 21 613 07 00",
    "candidateHours": "Mo-Fr 12:00-14:00, Tu-Sa 19:00-23:00"
  },
  {
    "id": "osm-node-3700184467-volver",
    "name": "Volver",
    "lat": 46.509865,
    "lng": 6.4989467,
    "candidateSource": "osm",
    "candidateFoundAt": "2026-02-11",
    "candidateOsmType": "node",
    "candidateOsmId": 3700184467,
    "candidateUrl": "https://volver-tapas.ch/",
    "candidatePhone": "+41 21 801 80 60",
    "candidateHours": "Mo,Tu 07:30-23:00; We 07:00-23:00; Th 07:30-00:00; Fr 07:30-01:00; Sa 07:00-00:00"
  },
  {
    "id": "osm-node-3700667492-la-brasserie-du-g-n-ral",
    "name": "La Brasserie du Général",
    "lat": 46.3734522,
    "lng": 6.4794749,
    "candidateSource": "osm",
    "candidateFoundAt": "2026-02-11",
    "candidateOsmType": "node",
    "candidateOsmId": 3700667492,
    "candidateUrl": "http://www.labrasseriedugeneral.com"
  },
  {
    "id": "osm-node-3721634748-restaurent-herat",
    "name": "Restaurent Herat",
    "lat": 46.5442587,
    "lng": 6.6242953,
    "candidateSource": "osm",
    "candidateFoundAt": "2026-02-11",
    "candidateOsmType": "node",
    "candidateOsmId": 3721634748,
    "candidateUrl": "https://restaurant-lasosta.ch/",
    "candidatePhone": "+41 21 646 31 42",
    "candidateHours": "Tu-Fr 10:00-14:30,18:00-22:00; Sa,Su 11:30-22:00"
  },
  {
    "id": "osm-node-3743048583-le-cro-bidou",
    "name": "Le Cro-Bidou",
    "lat": 46.3681725,
    "lng": 6.656013,
    "candidateSource": "osm",
    "candidateFoundAt": "2026-02-11",
    "candidateOsmType": "node",
    "candidateOsmId": 3743048583,
    "candidateUrl": "http://www.hoteldecharmepaysduleman.com/le-restaurant-du-crobidou/",
    "candidatePhone": "+33 4 50 73 10 93"
  },
  {
    "id": "osm-node-3758546943-auberge-d-anthy",
    "name": "Auberge d'Anthy",
    "lat": 46.3554236,
    "lng": 6.4271804,
    "candidateSource": "osm",
    "candidateFoundAt": "2026-02-11",
    "candidateOsmType": "node",
    "candidateOsmId": 3758546943,
    "candidateUrl": "https://www.auberge-anthy.com/",
    "candidatePhone": "+33 4 50 70 35 00"
  },
  {
    "id": "osm-node-3759960923-restaurant-la-for-t",
    "name": "Restaurant la Forêt",
    "lat": 46.5365855,
    "lng": 6.6348808,
    "candidateSource": "osm",
    "candidateFoundAt": "2026-02-11",
    "candidateOsmType": "node",
    "candidateOsmId": 3759960923,
    "candidateUrl": "http://www.restaurantlaforet.ch/",
    "candidatePhone": "+41 21 648 08 15",
    "candidateHours": "Mo-Fr 09:30-14:30, 17:30-23:45; Sa 10:30-23:45; Su 11:00-23:00"
  },
  {
    "id": "osm-node-3784187099-la-nautique",
    "name": "La Nautique",
    "lat": 46.3792388,
    "lng": 6.2398521,
    "candidateSource": "osm",
    "candidateFoundAt": "2026-02-11",
    "candidateOsmType": "node",
    "candidateOsmId": 3784187099,
    "candidateUrl": "https://snny.ch/societe/restaurant/"
  },
  {
    "id": "osm-node-3785915946-ramberia",
    "name": "Ramberia",
    "lat": 46.461654,
    "lng": 6.8441667,
    "candidateSource": "osm",
    "candidateFoundAt": "2026-02-11",
    "candidateOsmType": "node",
    "candidateOsmId": 3785915946,
    "candidateUrl": "https://www.ramberia-vevey.ch/"
  },
  {
    "id": "osm-node-3791651501-le-cabanon-du-montriond",
    "name": "Le Cabanon du Montriond",
    "lat": 46.5149741,
    "lng": 6.6251654,
    "candidateSource": "osm",
    "candidateFoundAt": "2026-02-11",
    "candidateOsmType": "node",
    "candidateOsmId": 3791651501,
    "candidateUrl": "https://www.lemontriond.ch/",
    "candidateHours": "Tu-Sa 14:30-23:30; Su 14:30-21:30"
  },
  {
    "id": "osm-node-3888253448-passaggio-restaurant",
    "name": "Passaggio Restaurant",
    "lat": 46.5048549,
    "lng": 6.709911,
    "candidateSource": "osm",
    "candidateFoundAt": "2026-02-11",
    "candidateOsmType": "node",
    "candidateOsmId": 3888253448,
    "candidateUrl": "http://www.vyaggio.com/location/802/Restoroute_de_Lavaux/1764/Passaggio_Restaurant"
  },
  {
    "id": "osm-node-3956685676-sultan",
    "name": "Sultan",
    "lat": 46.383953,
    "lng": 6.2445182,
    "candidateSource": "osm",
    "candidateFoundAt": "2026-02-11",
    "candidateOsmType": "node",
    "candidateOsmId": 3956685676,
    "candidateUrl": "https://sultanindian.ch/"
  },
  {
    "id": "osm-node-3971026269-auberge-du-ch-teau",
    "name": "Auberge du Château",
    "lat": 46.3819687,
    "lng": 6.2398921,
    "candidateSource": "osm",
    "candidateFoundAt": "2026-02-11",
    "candidateOsmType": "node",
    "candidateOsmId": 3971026269,
    "candidateUrl": "http://aubergeduchateau.ch/",
    "candidateHours": "Tu-Su 08:00-24:00"
  },
  {
    "id": "osm-node-4037354303-il-gambero",
    "name": "Il Gambero",
    "lat": 46.5170088,
    "lng": 6.6098173,
    "candidateSource": "osm",
    "candidateFoundAt": "2026-02-11",
    "candidateOsmType": "node",
    "candidateOsmId": 4037354303,
    "candidateUrl": "http://ilgambero.ch/",
    "candidatePhone": "+41 21 616 67 64",
    "candidateHours": "Mo-Fr 09:00-00:00; Sa 10:00-15:00,17:30-00:00; Su 10:00-15:00"
  },
  {
    "id": "osm-node-4079640992-l-abri",
    "name": "L'abri",
    "lat": 46.3811057,
    "lng": 6.2414652,
    "candidateSource": "osm",
    "candidateFoundAt": "2026-02-11",
    "candidateOsmType": "node",
    "candidateOsmId": 4079640992,
    "candidateUrl": "https://www.labri-nyon.com"
  },
  {
    "id": "osm-node-4111161679-la-mamma-osteria",
    "name": "La Mamma Osteria",
    "lat": 46.5184434,
    "lng": 6.6300991,
    "candidateSource": "osm",
    "candidateFoundAt": "2026-02-11",
    "candidateOsmType": "node",
    "candidateOsmId": 4111161679,
    "candidateUrl": "https://www.lamammarestaurant.ch",
    "candidatePhone": "+41215555999",
    "candidateHours": "Mo-Su 06:30-23:30"
  },
  {
    "id": "osm-node-4127523276-l-auberge-de-beaulieu",
    "name": "L’Auberge de Beaulieu",
    "lat": 46.527522,
    "lng": 6.6244673,
    "candidateSource": "osm",
    "candidateFoundAt": "2026-02-11",
    "candidateOsmType": "node",
    "candidateOsmId": 4127523276,
    "candidateUrl": "https://www.aubergedebeaulieu.ch",
    "candidatePhone": "+41 21 683 03 03",
    "candidateHours": "Tu-We 10:30-00:00; Th 10:30-01:00; Fr-Sa 10:30-02:00; Su 10:30-18:00"
  },
  {
    "id": "osm-node-4141751989-chez-mario",
    "name": "Chez Mario",
    "lat": 46.519869,
    "lng": 6.6362795,
    "candidateSource": "osm",
    "candidateFoundAt": "2026-02-11",
    "candidateOsmType": "node",
    "candidateOsmId": 4141751989,
    "candidateUrl": "https://www.chezmario.ch/",
    "candidatePhone": "+41 21 323 74 04",
    "candidateHours": "Su-Th 11:30-14:00, 18:30-22:00; Fr-Sa 11:30-14:00, 18:30-22:30"
  },
  {
    "id": "osm-node-4154998108-takumi-ramen",
    "name": "Takumi Ramen",
    "lat": 46.5083584,
    "lng": 6.4963026,
    "candidateSource": "osm",
    "candidateFoundAt": "2026-02-11",
    "candidateOsmType": "node",
    "candidateOsmId": 4154998108,
    "candidateUrl": "https://www.takumi-ramen.ch",
    "candidatePhone": "+41 21 802 05 93",
    "candidateHours": "Mo-Su 11:00-14:30, 18:00-22:30"
  },
  {
    "id": "osm-node-4212012190-il-vesuvio",
    "name": "Il Vesuvio",
    "lat": 46.3692513,
    "lng": 6.4812661,
    "candidateSource": "osm",
    "candidateFoundAt": "2026-02-11",
    "candidateOsmType": "node",
    "candidateOsmId": 4212012190,
    "candidateUrl": "http://www.pagesjaunes.fr/pros/55726719#",
    "candidatePhone": "+33450711850"
  },
  {
    "id": "osm-node-4241126394-ming-xuan",
    "name": "Ming Xuan",
    "lat": 46.520392,
    "lng": 6.636976,
    "candidateSource": "osm",
    "candidateFoundAt": "2026-02-11",
    "candidateOsmType": "node",
    "candidateOsmId": 4241126394,
    "candidateUrl": "https://www.mingxuan-resto.ch/",
    "candidatePhone": "+41 21 323 89 10",
    "candidateHours": "Mo-Sa 11:30-14:30, 18:30-00:00"
  },
  {
    "id": "osm-node-4250807995-veneto",
    "name": "Veneto",
    "lat": 46.4554836,
    "lng": 6.8548856,
    "candidateSource": "osm",
    "candidateFoundAt": "2026-02-11",
    "candidateOsmType": "node",
    "candidateOsmId": 4250807995,
    "candidateUrl": "https://www.restaurant-veneto.ch/"
  },
  {
    "id": "osm-node-4279322005-auberge-de-la-gare",
    "name": "Auberge de la Gare",
    "lat": 46.4967732,
    "lng": 6.7212777,
    "candidateSource": "osm",
    "candidateFoundAt": "2026-02-11",
    "candidateOsmType": "node",
    "candidateOsmId": 4279322005,
    "candidateUrl": "https://www.aubergegrandvaux.ch/"
  },
  {
    "id": "osm-node-4299096806-restaurant-des-p-cheurs",
    "name": "Restaurant des Pêcheurs",
    "lat": 46.3700185,
    "lng": 6.3266857,
    "candidateSource": "osm",
    "candidateFoundAt": "2026-02-11",
    "candidateOsmType": "node",
    "candidateOsmId": 4299096806,
    "candidateUrl": "https://restaurantdespecheurs.fr",
    "candidatePhone": "+33 4 50 72 80 26"
  },
  {
    "id": "osm-node-4299109611-restaurant-du-port",
    "name": "Restaurant du Port",
    "lat": 46.370597,
    "lng": 6.3246244,
    "candidateSource": "osm",
    "candidateFoundAt": "2026-02-11",
    "candidateOsmType": "node",
    "candidateOsmId": 4299109611,
    "candidateUrl": "http://www.hotelrestaurantduport-yvoire.com/fr/index.php",
    "candidatePhone": "+33 4 50 72 80 17"
  },
  {
    "id": "osm-node-4411834489-luigia",
    "name": "Luigia",
    "lat": 46.3842204,
    "lng": 6.2372345,
    "candidateSource": "osm",
    "candidateFoundAt": "2026-02-11",
    "candidateOsmType": "node",
    "candidateOsmId": 4411834489,
    "candidateUrl": "https://www.luigia.ch/fr",
    "candidatePhone": "+41 22 310 09 00",
    "candidateHours": "Mo-Th 11:30-14:00, 18:00-23:30; Fr 11:30-14:00, 18:00-23:00; Sa 12:00-23:00; Su 12:00-22:30"
  },
  {
    "id": "osm-node-4414762944-le-perdtemps",
    "name": "Le Perdtemps",
    "lat": 46.3840375,
    "lng": 6.237919,
    "candidateSource": "osm",
    "candidateFoundAt": "2026-02-11",
    "candidateOsmType": "node",
    "candidateOsmId": 4414762944,
    "candidateUrl": "https://www.alpes-nyon.ch/restaurant-perdtemps.html",
    "candidatePhone": "+41 22 994 30 01",
    "candidateHours": "Mo-Sa 06:30-23:00"
  },
  {
    "id": "osm-node-4427285672-le-comptoir-de-val-rie",
    "name": "Le Comptoir de Valérie",
    "lat": 46.5100887,
    "lng": 6.4986843,
    "candidateSource": "osm",
    "candidateFoundAt": "2026-02-11",
    "candidateOsmType": "node",
    "candidateOsmId": 4427285672,
    "candidateUrl": "https://www.lecomptoirdevalerie.ch/",
    "candidatePhone": "+41 21 802 18 29"
  },
  {
    "id": "osm-node-4436918102-la-station",
    "name": "La Station",
    "lat": 46.5260881,
    "lng": 6.6232685,
    "candidateSource": "osm",
    "candidateFoundAt": "2026-02-11",
    "candidateOsmType": "node",
    "candidateOsmId": 4436918102,
    "candidateUrl": "https://www.lastationlausanne.ch/",
    "candidatePhone": "+41 21 646 31 60",
    "candidateHours": "Mo-We 17:30-23:00; Th-Sa 17:30-24:00"
  },
  {
    "id": "osm-node-4581495732-h-tel-de-torgon",
    "name": "Hôtel de Torgon",
    "lat": 46.320355,
    "lng": 6.8763528,
    "candidateSource": "osm",
    "candidateFoundAt": "2026-02-11",
    "candidateOsmType": "node",
    "candidateOsmId": 4581495732,
    "candidateUrl": "https://www.hotel-torgon.ch/",
    "candidatePhone": "+41 24 481 15 71"
  },
  {
    "id": "osm-node-4678912424-la-terrasse",
    "name": "La Terrasse",
    "lat": 46.5112368,
    "lng": 6.636292,
    "candidateSource": "osm",
    "candidateFoundAt": "2026-02-11",
    "candidateOsmType": "node",
    "candidateOsmId": 4678912424,
    "candidateUrl": "https://laterrassedarnaud.ch/",
    "candidatePhone": "+41 21 616 64 00",
    "candidateHours": "Mo 07:00-15:30; Tu-Fr 07:00-23:00; Sa 09:00-23:00"
  },
  {
    "id": "osm-node-4717198400-vertigo-by-anna",
    "name": "Vertigo by Anna",
    "lat": 46.5138523,
    "lng": 6.6179925,
    "candidateSource": "osm",
    "candidateFoundAt": "2026-02-11",
    "candidateOsmType": "node",
    "candidateOsmId": 4717198400,
    "candidateUrl": "https://vertigobyanna.ch",
    "candidatePhone": "+41 21 543 64 22",
    "candidateHours": "Mo-Fr 08:00-15:00"
  },
  {
    "id": "osm-node-4839798224-restaurant-du-commerce",
    "name": "Restaurant du Commerce",
    "lat": 46.4667603,
    "lng": 6.8443169,
    "candidateSource": "osm",
    "candidateFoundAt": "2026-02-11",
    "candidateOsmType": "node",
    "candidateOsmId": 4839798224,
    "candidateUrl": "https://www.restaurant-du-commerce.ch/",
    "candidatePhone": "+41 21 921 15 11",
    "candidateHours": "Mo-Sa 10:30-14:00, 17:30-22:15"
  },
  {
    "id": "osm-node-4861639006-osteria-lupaia",
    "name": "Osteria Lupaia",
    "lat": 46.5118185,
    "lng": 6.6256924,
    "candidateSource": "osm",
    "candidateFoundAt": "2026-02-11",
    "candidateOsmType": "node",
    "candidateOsmId": 4861639006,
    "candidateUrl": "https://lupaia.ch",
    "candidatePhone": "+41 21 601 42 78",
    "candidateHours": "Tu-We 11:45-14:30, 18:30-22:15; Th-Sa 11:45-14:30, 18:45-23:00"
  },
  {
    "id": "osm-node-4871242795-lido-du-l-man",
    "name": "Lido du Léman",
    "lat": 46.5042309,
    "lng": 6.4923689,
    "candidateSource": "osm",
    "candidateFoundAt": "2026-02-11",
    "candidateOsmType": "node",
    "candidateOsmId": 4871242795,
    "candidateUrl": "https://www.lidoduleman.ch",
    "candidatePhone": "+41218024704",
    "candidateHours": "Mo-Su 09:30-22:00"
  },
  {
    "id": "osm-node-4887328163-restaurant-de-colovray",
    "name": "Restaurant de Colovray",
    "lat": 46.3708758,
    "lng": 6.2275681,
    "candidateSource": "osm",
    "candidateFoundAt": "2026-02-11",
    "candidateOsmType": "node",
    "candidateOsmId": 4887328163,
    "candidateUrl": "http://restaurantdecolovray.ch/",
    "candidatePhone": "+41 22 362 70 00",
    "candidateHours": "08:00-23:30"
  },
  {
    "id": "osm-node-4900531021-aki",
    "name": "Aki",
    "lat": 46.5213278,
    "lng": 6.6396421,
    "candidateSource": "osm",
    "candidateFoundAt": "2026-02-11",
    "candidateOsmType": "node",
    "candidateOsmId": 4900531021,
    "candidateUrl": "https://aki-restaurant.com/",
    "candidatePhone": "+41 21 558 58 66;+41 21 553 03 51",
    "candidateHours": "Mo-Sa 11:00-14:00,18:00-23:00"
  },
  {
    "id": "osm-node-4921708803-le-byblos",
    "name": "Le Byblos",
    "lat": 46.5208008,
    "lng": 6.6361854,
    "candidateSource": "osm",
    "candidateFoundAt": "2026-02-11",
    "candidateOsmType": "node",
    "candidateOsmId": 4921708803,
    "candidateUrl": "https://lebyblos.ch/",
    "candidatePhone": "+41 21 311 83 73"
  },
  {
    "id": "osm-node-4935349839-shanti",
    "name": "Shanti",
    "lat": 46.5170787,
    "lng": 6.6356229,
    "candidateSource": "osm",
    "candidateFoundAt": "2026-02-11",
    "candidateOsmType": "node",
    "candidateOsmId": 4935349839,
    "candidateUrl": "https://www.shanti-restaurant.ch/",
    "candidatePhone": "+41 21 323 74 80",
    "candidateHours": "Mo-Sa 11:30-14:00,18:30-23:00"
  },
  {
    "id": "osm-node-4963270663-l-esquisse",
    "name": "L'Esquisse",
    "lat": 46.5284912,
    "lng": 6.6371193,
    "candidateSource": "osm",
    "candidateFoundAt": "2026-02-11",
    "candidateOsmType": "node",
    "candidateOsmId": 4963270663,
    "candidateUrl": "https://www.lesquisse.ch/",
    "candidatePhone": "+41 21 320 50 07"
  },
  {
    "id": "osm-node-4977163723-qing-dao-express",
    "name": "Qing Dao Express",
    "lat": 46.3830578,
    "lng": 6.2394496,
    "candidateSource": "osm",
    "candidateFoundAt": "2026-02-11",
    "candidateOsmType": "node",
    "candidateOsmId": 4977163723,
    "candidateUrl": "https://www.qingdaoexpress.ch/",
    "candidatePhone": "+41 22 361 07 07",
    "candidateHours": "Mo 11:30-14:00; Tu-Fr 11:30-14:00 17:00-21:00; Sa 17:00-21:00; Su 11:30-14:00 17:00-21:00"
  },
  {
    "id": "osm-node-4983797421-buvette-de-la-plage",
    "name": "buvette de la plage",
    "lat": 46.3046121,
    "lng": 6.1814278,
    "candidateSource": "osm",
    "candidateFoundAt": "2026-02-11",
    "candidateOsmType": "node",
    "candidateOsmId": 4983797421,
    "candidateUrl": "http://www.buvettedelaplage.ch/"
  },
  {
    "id": "osm-node-5018637061-manoir-du-vignoble",
    "name": "Manoir du Vignoble",
    "lat": 46.3115414,
    "lng": 6.9001702,
    "candidateSource": "osm",
    "candidateFoundAt": "2026-02-11",
    "candidateOsmType": "node",
    "candidateOsmId": 5018637061,
    "candidateUrl": "https://manoirduvignoble.ch/",
    "candidatePhone": "+41 24 565 04 44",
    "candidateHours": "We-Su 10:30-14:30,18:30-23:00"
  },
  {
    "id": "osm-node-5024266644-restaurant-generali",
    "name": "Restaurant Generali",
    "lat": 46.3859137,
    "lng": 6.2390869,
    "candidateSource": "osm",
    "candidateFoundAt": "2026-02-11",
    "candidateOsmType": "node",
    "candidateOsmId": 5024266644,
    "candidateUrl": "https://zfv.ch/fr/microsites/generali-restaurant-nyon/",
    "candidatePhone": "+41 58 471 01 72",
    "candidateHours": "Mo-Fr 11:15-13:30"
  },
  {
    "id": "osm-node-5051689525-rumah",
    "name": "Rumah",
    "lat": 46.5123688,
    "lng": 6.6389535,
    "candidateSource": "osm",
    "candidateFoundAt": "2026-02-11",
    "candidateOsmType": "node",
    "candidateOsmId": 5051689525,
    "candidateUrl": "https://rumah.ch/",
    "candidatePhone": "+41 21 616 09 41",
    "candidateHours": "Tu-Fr 11:45-14:00, 18:45-22:00; Sa, Su 18:45-22:00"
  },
  {
    "id": "osm-node-5057709540-fu-li",
    "name": "Fu Li",
    "lat": 46.5250016,
    "lng": 6.6529479,
    "candidateSource": "osm",
    "candidateFoundAt": "2026-02-11",
    "candidateOsmType": "node",
    "candidateOsmId": 5057709540,
    "candidateUrl": "https://www.facebook.com/Restaurant-FU-LI-2225392630839731/",
    "candidateHours": "Tu-Su 09:30-23:30"
  },
  {
    "id": "osm-node-5090615676-restaurant-de-la-bourdonnette",
    "name": "Restaurant de la Bourdonnette",
    "lat": 46.5241215,
    "lng": 6.5887888,
    "candidateSource": "osm",
    "candidateFoundAt": "2026-02-11",
    "candidateOsmType": "node",
    "candidateOsmId": 5090615676,
    "candidateUrl": "http://www.restaurant-de-la-bourdonnette.com/",
    "candidatePhone": "+41 21 625 62 62",
    "candidateHours": "Mo-Fr 08:00-00:00; Sa 09:00-00:00"
  },
  {
    "id": "osm-node-5111530090-migros",
    "name": "Migros",
    "lat": 46.3173096,
    "lng": 6.9378325,
    "candidateSource": "osm",
    "candidateFoundAt": "2026-02-11",
    "candidateOsmType": "node",
    "candidateOsmId": 5111530090,
    "candidateUrl": "https://www.migros.ch",
    "candidatePhone": "+41 585735180",
    "candidateHours": "Mo 08:30-18:30; Tu-Th 08:00-18:30; Fr 08:00-21:00; Sa 07:30-17:00; Su,PH closed"
  },
  {
    "id": "osm-node-5126250921-pizzeria-molino-montreux",
    "name": "Pizzeria Molino Montreux",
    "lat": 46.4315775,
    "lng": 6.9093662,
    "candidateSource": "osm",
    "candidateFoundAt": "2026-02-11",
    "candidateOsmType": "node",
    "candidateOsmId": 5126250921,
    "candidateUrl": "https://molino.ch/fr/nos-restaurants/montreux.html"
  },
  {
    "id": "osm-node-5129928621-10-dieci",
    "name": "10' dieci",
    "lat": 46.5093045,
    "lng": 6.6651779,
    "candidateSource": "osm",
    "candidateFoundAt": "2026-02-11",
    "candidateOsmType": "node",
    "candidateOsmId": 5129928621,
    "candidateUrl": "https://dieci.ch/fr/livraison-pizza-pully",
    "candidatePhone": "+4121 907 10 10",
    "candidateHours": "Mo-Sa 11:00-13:30, 17:00-22:00, Su 11:30-14:00,17:00-22:00"
  },
  {
    "id": "osm-node-5256731341-kung-fu-cuisine",
    "name": "功夫小厨Kung-Fu Cuisine",
    "lat": 46.521309,
    "lng": 6.6220816,
    "candidateSource": "osm",
    "candidateFoundAt": "2026-02-11",
    "candidateOsmType": "node",
    "candidateOsmId": 5256731341,
    "candidateUrl": "https://www.kung-fu-cuisine-lausanne.ch/contact",
    "candidatePhone": "+41 21 311 1888",
    "candidateHours": "Tu-Su 11:30-14:00, 18:30-21:45"
  },
  {
    "id": "osm-node-5256731342-la-molisana",
    "name": "La Molisana",
    "lat": 46.5211312,
    "lng": 6.6167027,
    "candidateSource": "osm",
    "candidateFoundAt": "2026-02-11",
    "candidateOsmType": "node",
    "candidateOsmId": 5256731342,
    "candidateUrl": "https://molisana.ch/",
    "candidatePhone": "+41 21 624 83 00",
    "candidateHours": "Mo-Fr 11:15-13:45, 18:15-21:55; Sa 18:15-22:00"
  },
  {
    "id": "osm-node-5256731560-zafferano",
    "name": "Zafferano",
    "lat": 46.5211701,
    "lng": 6.6173803,
    "candidateSource": "osm",
    "candidateFoundAt": "2026-02-11",
    "candidateOsmType": "node",
    "candidateOsmId": 5256731560,
    "candidateUrl": "https://www.zafferano-restaurant.ch/",
    "candidatePhone": "+41 21 624 43 02",
    "candidateHours": "Tu-Fr 11:30-14:30, 19:00-00:00; Sa, Su 19:00-00:00"
  },
  {
    "id": "osm-node-5256731646-oniwa",
    "name": "Oniwa",
    "lat": 46.5213187,
    "lng": 6.6215674,
    "candidateSource": "osm",
    "candidateFoundAt": "2026-02-11",
    "candidateOsmType": "node",
    "candidateOsmId": 5256731646,
    "candidateUrl": "https://www.oniwa-sushi.com/",
    "candidatePhone": "+41 21 312 69 69",
    "candidateHours": "Mo-Sa 11:30-14:30, 18:00-23:00"
  },
  {
    "id": "osm-node-5282221575-happy-days",
    "name": "Happy Days",
    "lat": 46.3869436,
    "lng": 6.2295589,
    "candidateSource": "osm",
    "candidateFoundAt": "2026-02-11",
    "candidateOsmType": "node",
    "candidateOsmId": 5282221575,
    "candidateUrl": "https://www.americandiner.ch/",
    "candidatePhone": "+41 22 361 37 37",
    "candidateHours": "Tu-Th 11:30-14:00, 18:00-21:30; Fr 11:30-14:00, 18:00-22:00; Sa 09:00-15:00, 18:00-22:00; Su 09:30-21:30"
  },
  {
    "id": "osm-node-5282331804-tartines-co",
    "name": "Tartines & Co",
    "lat": 46.389579,
    "lng": 6.2225636,
    "candidateSource": "osm",
    "candidateFoundAt": "2026-02-11",
    "candidateOsmType": "node",
    "candidateOsmId": 5282331804,
    "candidateUrl": "https://tartinesco.ch/",
    "candidateHours": "Mo-We 08:00-16:00; Th-Su 08:00-21:00"
  },
  {
    "id": "osm-node-5329035228-cusson-vaudois",
    "name": "Écusson Vaudois",
    "lat": 46.3752827,
    "lng": 6.9186755,
    "candidateSource": "osm",
    "candidateFoundAt": "2026-02-11",
    "candidateOsmType": "node",
    "candidateOsmId": 5329035228,
    "candidateUrl": "https://www.ecusson-rennaz.ch/",
    "candidatePhone": "+41 21 960 10 85"
  },