[
  {
    "id": "osm-node-287647794-tonkin-pub",
    "name": "Tonkin Pub",
    "lat": 46.3862383,
    "lng": 6.8520348,
    "candidateSource": "osm",
    "candidateFoundAt": "2026-02-11",
    "candidateOsmType": "node",
    "candidateOsmId": 287647794,
    "candidateUrl": "http://tonkin.ch/#",
    "candidatePhone": "+41 24 481 21 44",
    "candidateHours": "Tu-Th 19:00-00:00; Fr,Sa 19:00-01:00"
  },
  {
    "id": "osm-node-292174272-white-horse-pub",
    "name": "White Horse Pub",
    "lat": 46.5099693,
    "lng": 6.4985355,
    "candidateSource": "osm",
    "candidateFoundAt": "2026-02-11",
    "candidateOsmType": "node",
    "candidateOsmId": 292174272,
    "candidatePhone": "+41 21 801 23 32",
    "candidateUrl": ""
  },
  {
    "id": "osm-node-292174279-jameson-s-pub",
    "name": "Jameson's Pub",
    "lat": 46.5079456,
    "lng": 6.4961058,
    "candidateSource": "osm",
    "candidateFoundAt": "2026-02-11",
    "candidateOsmType": "node",
    "candidateOsmId": 292174279,
    "candidateUrl": "https://www.jamesonspub.ch/",
    "candidatePhone": "+41 21 801 20 16",
    "candidateHours": "Mo-We 14:00-24:00, Th 14:00-01:00, Fr 14:00-02:00; Sa 10:00-02:00"
  },
  {
    "id": "osm-node-292174602-le-casino",
    "name": "Le Casino",
    "lat": 46.5087227,
    "lng": 6.4999728,
    "candidateSource": "osm",
    "candidateFoundAt": "2026-02-11",
    "candidateOsmType": "node",
    "candidateOsmId": 292174602,
    "candidateUrl": "https://www.casinomorges.ch/",
    "candidatePhone": "+41 21 802 62 15",
    "candidateHours": "Tu-Sa 10:00-24:00, Su 10:00-17:30"
  },
  {
    "id": "osm-node-292181665-il-bivio",
    "name": "Il Bivio",
    "lat": 46.5090779,
    "lng": 6.4960959,
    "candidateSource": "osm",
    "candidateFoundAt": "2026-02-11",
    "candidateOsmType": "node",
    "candidateOsmId": 292181665
  },
  {
    "id": "osm-node-292181666-kikuzen",
    "name": "KikuZen",
    "lat": 46.5087138,
    "lng": 6.4959019,
    "candidateSource": "osm",
    "candidateFoundAt": "2026-02-11",
    "candidateOsmType": "node",
    "candidateOsmId": 292181666,
    "candidateUrl": "http://www.restaurant-kikuzen.ch",
    "candidatePhone": "+41 21 801 18 98",
    "candidateHours": "Mo-Sa 10:00-14:30,17:00-22:00"
  },
  {
    "id": "osm-node-292183626-metropolis",
    "name": "Metropolis",
    "lat": 46.5097567,
    "lng": 6.4997709,
    "candidateSource": "osm",
    "candidateFoundAt": "2026-02-11",
    "candidateOsmType": "node",
    "candidateOsmId": 292183626
  },
  {
    "id": "osm-node-292183798-fu-yiu",
    "name": "Fu-Yiu",
    "lat": 46.5118194,
    "lng": 6.4998891,
    "candidateSource": "osm",
    "candidateFoundAt": "2026-02-11",
    "candidateOsmType": "node",
    "candidateOsmId": 292183798,
    "candidateUrl": "https://fuyiu.simdif.com/",
    "candidatePhone": "+41 21 801 15 01"
  },
  {
    "id": "osm-node-316722855-quai-23",
    "name": "Quai 23",
    "lat": 46.3819051,
    "lng": 6.2427885,
    "candidateSource": "osm",
    "candidateFoundAt": "2026-02-11",
    "candidateOsmType": "node",
    "candidateOsmId": 316722855
  },
  {
    "id": "osm-node-347816932-le-balzac",
    "name": "Le Balzac",
    "lat": 46.5089213,
    "lng": 6.4994102,
    "candidateSource": "osm",
    "candidateFoundAt": "2026-02-11",
    "candidateOsmType": "node",
    "candidateOsmId": 347816932,
    "candidateHours": "Tu-Fr 10:00-17:00; Sa 09:00-18:00"
  },
  {
    "id": "osm-node-347818138-l-arlequin",
    "name": "L'Arlequin",
    "lat": 46.5090524,
    "lng": 6.4981868,
    "candidateSource": "osm",
    "candidateFoundAt": "2026-02-11",
    "candidateOsmType": "node",
    "candidateOsmId": 347818138,
    "candidateUrl": "https://www.fornerod.ch/",
    "candidatePhone": "+41 21 801 21 24",
    "candidateHours": "Tu-Fr 07:00-18:30; Sa,Su 07:00-18:00"
  },
  {
    "id": "osm-node-402922574-restaurant-port-de-pully",
    "name": "Restaurant Port de Pully",
    "lat": 46.5059938,
    "lng": 6.6627064,
    "candidateSource": "osm",
    "candidateFoundAt": "2026-02-11",
    "candidateOsmType": "node",
    "candidateOsmId": 402922574,
    "candidateUrl": ""
  },
  {
    "id": "osm-node-412817108-la-gondola",
    "name": "La Gondola",
    "lat": 46.3959907,
    "lng": 6.9221898,
    "candidateSource": "osm",
    "candidateFoundAt": "2026-02-11",
    "candidateOsmType": "node",
    "candidateOsmId": 412817108
  },
  {
    "id": "osm-node-412817131-l-phant-blanc",
    "name": "Éléphant Blanc",
    "lat": 46.3963981,
    "lng": 6.9230681,
    "candidateSource": "osm",
    "candidateFoundAt": "2026-02-11",
    "candidateOsmType": "node",
    "candidateOsmId": 412817131,
    "candidateUrl": "https://www.elephantblanc-ned.ch/"
  },
  {
    "id": "osm-node-414665980-l-oasis",
    "name": "L'Oasis",
    "lat": 46.3974317,
    "lng": 6.9238682,
    "candidateSource": "osm",
    "candidateFoundAt": "2026-02-11",
    "candidateOsmType": "node",
    "candidateOsmId": 414665980,
    "candidateUrl": "https://www.restaurantoasis.ch/",
    "candidatePhone": "+41 21 965 60 20",
    "candidateHours": "Mo-Su 08:00-24:00"
  },
  {
    "id": "osm-node-428244212-mekong",
    "name": "Mekong",
    "lat": 46.3818159,
    "lng": 6.242779,
    "candidateSource": "osm",
    "candidateFoundAt": "2026-02-11",
    "candidateOsmType": "node",
    "candidateOsmId": 428244212,
    "candidateUrl": "https://www.mekongnyon.ch/",
    "candidatePhone": "+41 22 362 54 84",
    "candidateHours": "Tu-Su 12:00-14:00, 18:00-21:30"
  },
  {
    "id": "osm-node-428467231-the-fishermen-s-pub",
    "name": "The Fishermen's Pub",
    "lat": 46.381874,
    "lng": 6.2421521,
    "candidateSource": "osm",
    "candidateFoundAt": "2026-02-11",
    "candidateOsmType": "node",
    "candidateOsmId": 428467231,
    "candidateUrl": "https://www.facebook.com/fishermenspub/",
    "candidateHours": "Mo-We 16:00-24:00, Th 16:00-01:00, Fr 16:00-02:00, Sa 15:00-02:00, Su 15:00-24:00"
  },
  {
    "id": "osm-node-428467232-au-cheval-blanc",
    "name": "Au Cheval Blanc",
    "lat": 46.3813679,
    "lng": 6.2416194,
    "candidateSource": "osm",
    "candidateFoundAt": "2026-02-11",
    "candidateOsmType": "node",
    "candidateOsmId": 428467232,
    "candidateUrl": ""
  },
  {
    "id": "osm-node-428635837-la-brasserie-du-rive",
    "name": "La Brasserie du Rive",
    "lat": 46.3823873,
    "lng": 6.2431485,
    "candidateSource": "osm",
    "candidateFoundAt": "2026-02-11",
    "candidateOsmType": "node",
    "candidateOsmId": 428635837,
    "candidateUrl": "https://hotel-le-rive.ch/brasserie.html",
    "candidatePhone": "+4122 552 20 82"
  },
  {
    "id": "osm-node-428933778-caf-de-la-poste",
    "name": "Café de la Poste",
    "lat": 46.4882521,
    "lng": 6.7307601,
    "candidateSource": "osm",
    "candidateFoundAt": "2026-02-11",
    "candidateOsmType": "node",
    "candidateOsmId": 428933778,
    "candidateUrl": ""
  },
  {
    "id": "osm-node-428933782-caveau-des-vignerons",
    "name": "Caveau des Vignerons",
    "lat": 46.4877959,
    "lng": 6.7309357,
    "candidateSource": "osm",
    "candidateFoundAt": "2026-02-11",
    "candidateOsmType": "node",
    "candidateOsmId": 428933782,
    "candidateHours": "\"Ouverture selon la saison.\"",
    "candidateUrl": ""
  },
  {
    "id": "osm-node-428965980-le-xxe-si-cle",
    "name": "Le XXe Siècle",
    "lat": 46.5084895,
    "lng": 6.4968067,
    "candidateSource": "osm",
    "candidateFoundAt": "2026-02-11",
    "candidateOsmType": "node",
    "candidateOsmId": 428965980,
    "candidateUrl": "https://www.xxemesiecle.com/",
    "candidatePhone": "+41 21 801 27 00"
  },
  {
    "id": "osm-node-431535063-buvette-de-la-plage-de-perroy",
    "name": "Buvette de la Plage de Perroy",
    "lat": 46.4626357,
    "lng": 6.3625047,
    "candidateSource": "osm",
    "candidateFoundAt": "2026-02-11",
    "candidateOsmType": "node",
    "candidateOsmId": 431535063,
    "candidateUrl": ""
  },
  {
    "id": "osm-node-441246118-restaurant-de-la-tour",
    "name": "Restaurant de la Tour",
    "lat": 46.5031161,
    "lng": 6.6836365,
    "candidateSource": "osm",
    "candidateFoundAt": "2026-02-11",
    "candidateOsmType": "node",
    "candidateOsmId": 441246118,
    "candidateUrl": ""
  },
  {
    "id": "osm-node-441247222-le-richelieu",
    "name": "Le Richelieu",
    "lat": 46.5022485,
    "lng": 6.6848737,
    "candidateSource": "osm",
    "candidateFoundAt": "2026-02-11",
    "candidateOsmType": "node",
    "candidateOsmId": 441247222
  },
  {
    "id": "osm-node-441247633-restaurant-du-l-man",
    "name": "Restaurant du Léman",
    "lat": 46.5025249,
    "lng": 6.684963,
    "candidateSource": "osm",
    "candidateFoundAt": "2026-02-11",
    "candidateOsmType": "node",
    "candidateOsmId": 441247633,
    "candidateUrl": ""
  },
  {
    "id": "osm-node-470276145-le-bout-du-monde",
    "name": "Le Bout du Monde",
    "lat": 46.4582378,
    "lng": 6.8508251,
    "candidateSource": "osm",
    "candidateFoundAt": "2026-02-11",
    "candidateOsmType": "node",
    "candidateOsmId": 470276145,
    "candidateUrl": "https://www.leboutdumonde.ch/",
    "candidatePhone": "+41 21 921 40 04",
    "candidateHours": "Mo-Th, Su 18:00-24:00; Fr, Sa 18:00-02:00"
  },
  {
    "id": "osm-node-497304844-boccalino",
    "name": "Boccalino",
    "lat": 46.5071714,
    "lng": 6.6271334,
    "candidateSource": "osm",
    "candidateFoundAt": "2026-02-11",
    "candidateOsmType": "node",
    "candidateOsmId": 497304844,
    "candidateUrl": "https://www.boccalino.ch/",
    "candidatePhone": "+41 21 616 35 39",
    "candidateHours": "Mo-Fr 11:30-14:00, 18:00-22:00; Sa 11:30-22:00; Su 09:00-22:00"
  },
  {
    "id": "osm-node-718707720-restaurant-du-tennis",
    "name": "Restaurant du Tennis",
    "lat": 46.5147317,
    "lng": 6.6086513,
    "candidateSource": "osm",
    "candidateFoundAt": "2026-02-11",
    "candidateOsmType": "node",
    "candidateOsmId": 718707720,
    "candidateUrl": "http://restaurantdutennislausanne.ch/",
    "candidatePhone": "+41 21 616 26 87",
    "candidateHours": "Mo-Fr 11:30-14:00, 18:00-21:30; Sa 11:30-14:00, 18:30-21:30; Su 11:30-14:00"
  },
  {
    "id": "osm-node-746488326-la-barge-du-l-man",
    "name": "La Barge du Léman",
    "lat": 46.3868293,
    "lng": 6.8573711,
    "candidateSource": "osm",
    "candidateFoundAt": "2026-02-11",
    "candidateOsmType": "node",
    "candidateOsmId": 746488326,
    "candidateUrl": "https://www.facebook.com/labargebouveret/",
    "candidatePhone": "+41799086928"
  },
  {
    "id": "osm-node-809009127-la-fr-gate",
    "name": "La Frégate",
    "lat": 46.4012864,
    "lng": 6.5952157,
    "candidateSource": "osm",
    "candidateFoundAt": "2026-02-11",
    "candidateOsmType": "node",
    "candidateOsmId": 809009127
  },
  {
    "id": "osm-node-809011347-le-refuge-du-lac",
    "name": "Le Refuge du Lac",
    "lat": 46.4010957,
    "lng": 6.5936415,
    "candidateSource": "osm",
    "candidateFoundAt": "2026-02-11",
    "candidateOsmType": "node",
    "candidateOsmId": 809011347,
    "candidateUrl": ""
  },
  {
    "id": "osm-node-809018938-la-rotonde",
    "name": "La Rotonde",
    "lat": 46.4003425,
    "lng": 6.5869738,
    "candidateSource": "osm",
    "candidateFoundAt": "2026-02-11",
    "candidateOsmType": "node",
    "candidateOsmId": 809018938,
    "candidatePhone": "+33 4 50 75 29 97",
    "candidateHours": "Su-Tu,Th 08:00-20:00; We off; Fr-Sa 08:00-22:30"
  },
  {
    "id": "osm-node-809019721-zaino",
    "name": "Zaino",
    "lat": 46.401255,
    "lng": 6.5947061,
    "candidateSource": "osm",
    "candidateFoundAt": "2026-02-11",
    "candidateOsmType": "node",
    "candidateOsmId": 809019721
  },
  {
    "id": "osm-node-809027175-la-baie-de-halong",
    "name": "La Baie de Halong",
    "lat": 46.4004097,
    "lng": 6.5865975,
    "candidateSource": "osm",
    "candidateFoundAt": "2026-02-11",
    "candidateOsmType": "node",
    "candidateOsmId": 809027175,
    "candidateUrl": ""
  },
  {
    "id": "osm-node-917957401-restaurant-le-ch-teau",
    "name": "Restaurant Le Château",
    "lat": 46.3952771,
    "lng": 6.9227647,
    "candidateSource": "osm",
    "candidateFoundAt": "2026-02-11",
    "candidateOsmType": "node",
    "candidateOsmId": 917957401,
    "candidateUrl": "https://www.lechateaudevilleneuve.ch/",
    "candidatePhone": "+41 21 960 20 09",
    "candidateHours": "Tu-Sa 10:00-15:00,18:00-22:00; Su 10:00-15:00"
  },
  {
    "id": "osm-node-918022476-caf-restaurant-l-toile",
    "name": "Café Restaurant L'Étoile",
    "lat": 46.395773,
    "lng": 6.9238855,
    "candidateSource": "osm",
    "candidateFoundAt": "2026-02-11",
    "candidateOsmType": "node",
    "candidateOsmId": 918022476,
    "candidateUrl": "https://www.restaurantetoile.ch/",
    "candidatePhone": "+41 21 960 22 40"
  },
  {
    "id": "osm-node-918022676-restaurant-de-l-aigle",
    "name": "Restaurant de L'Aigle",
    "lat": 46.3963861,
    "lng": 6.9245808,
    "candidateSource": "osm",
    "candidateFoundAt": "2026-02-11",
    "candidateOsmType": "node",
    "candidateOsmId": 918022676,
    "candidateUrl": ""
  },
  {
    "id": "osm-node-1078573246-ristorante-il-lido",
    "name": "Ristorante il Lido",
    "lat": 46.5117641,
    "lng": 6.6095633,
    "candidateSource": "osm",
    "candidateFoundAt": "2026-02-11",
    "candidateOsmType": "node",
    "candidateOsmId": 1078573246,
    "candidateUrl": "https://www.il-lido.ch/",
    "candidatePhone": "+41 21 601 11 61",
    "candidateHours": "Mo-Su 08:00-23:00"
  },
  {
    "id": "osm-node-1104546246-restaurant-du-l-man",
    "name": "Restaurant du Léman",
    "lat": 46.5077325,
    "lng": 6.498554,
    "candidateSource": "osm",
    "candidateFoundAt": "2026-02-11",
    "candidateOsmType": "node",
    "candidateOsmId": 1104546246,
    "candidateUrl": "https://restaurant-leleman.ch",
    "candidatePhone": "+41 21 801 33 51",
    "candidateHours": "Tu-Fr 10:00-22:00; Sa 10:00-23:00; Su 11:00-21:00"
  },
  {
    "id": "osm-node-1125363209-il-napoletano",
    "name": "Il napoletano",
    "lat": 46.5078885,
    "lng": 6.4970903,
    "candidateSource": "osm",
    "candidateFoundAt": "2026-02-11",
    "candidateOsmType": "node",
    "candidateOsmId": 1125363209
  },
  {
    "id": "osm-node-1125363572-le-pavois",
    "name": "Le Pavois",
    "lat": 46.5077993,
    "lng": 6.4988449,
    "candidateSource": "osm",
    "candidateFoundAt": "2026-02-11",
    "candidateOsmType": "node",
    "candidateOsmId": 1125363572,
    "candidateUrl": "https://www.hotel-mont-blanc.ch/fr/page/pavois",
    "candidatePhone": "+41 21 804 87 87"
  },
  {
    "id": "osm-node-1207861911-alambic-lounge-bar",
    "name": "Alambic Lounge Bar",
    "lat": 46.5087718,
    "lng": 6.498165,
    "candidateSource": "osm",
    "candidateFoundAt": "2026-02-11",
    "candidateOsmType": "node",
    "candidateOsmId": 1207861911,
    "candidateUrl": "https://www.alambic-loungebar.ch/",
    "candidateHours": "Mo-Th 08:00-23:45, Fr-Sa 08:00-01:00, Su 09:00-23:00"
  },
  {
    "id": "osm-node-1207861988-le-gallion",
    "name": "Le gallion",
    "lat": 46.50939,
    "lng": 6.499536,
    "candidateSource": "osm",
    "candidateFoundAt": "2026-02-11",
    "candidateOsmType": "node",
    "candidateOsmId": 1207861988,
    "candidateUrl": "https://legallion-morges.ch/",
    "candidatePhone": "+41 21 800 32 76",
    "candidateHours": "Mo-Th,Su 09:00-15:00,17:30-23:00; Fr-Sa 09:00-15:00,17:30-00:00"
  },
  {
    "id": "osm-node-1207862055-lykke",
    "name": "lykke",
    "lat": 46.5080263,
    "lng": 6.4972797,
    "candidateSource": "osm",
    "candidateFoundAt": "2026-02-11",
    "candidateOsmType": "node",
    "candidateOsmId": 1207862055
  },
  {
    "id": "osm-node-1207862096-fukuoka",
    "name": "Fukuoka",
    "lat": 46.507582,
    "lng": 6.4973137,
    "candidateSource": "osm",
    "candidateFoundAt": "2026-02-11",
    "candidateOsmType": "node",
    "candidateOsmId": 1207862096,
    "candidateUrl": "http://lefukuoka.ch",
    "candidatePhone": "+41 21 801 26 87",
    "candidateHours": "Tu-Sa 11:30-14:00, 18:30-22:00; Su 11:30-14:30, 18:30-22:00"
  },
  {
    "id": "osm-node-1230806994-la-riviera",
    "name": "La Riviera",
    "lat": 46.5071717,
    "lng": 6.6263109,
    "candidateSource": "osm",
    "candidateFoundAt": "2026-02-11",
    "candidateOsmType": "node",
    "candidateOsmId": 1230806994,
    "candidateUrl": "https://www.brasserieriviera.com",
    "candidatePhone": "+41 21 616 53 09",
    "candidateHours": "Mo-Su 10:00-23:00"
  },
  {
    "id": "osm-node-1230808910-ch-teau-d-ouchy",
    "name": "Château d'Ouchy",
    "lat": 46.506718,
    "lng": 6.6276147,
    "candidateSource": "osm",
    "candidateFoundAt": "2026-02-11",
    "candidateOsmType": "node",
    "candidateOsmId": 1230808910,
    "candidateUrl": "https://www.chateaudouchy.ch/en/restaurants-bars/",
    "candidatePhone": "+41 21 331 32 32"
  },
  {
    "id": "osm-node-1244874494-la-terasse",
    "name": "La Terasse",
    "lat": 46.5078002,
    "lng": 6.623071,
    "candidateSource": "osm",
    "candidateFoundAt": "2026-02-11",
    "candidateOsmType": "node",
    "candidateOsmId": 1244874494
  },
  {
    "id": "osm-node-1244887747-mgm",
    "name": "MGM",
    "lat": 46.507429,
    "lng": 6.62574,
    "candidateSource": "osm",
    "candidateFoundAt": "2026-02-11",
    "candidateOsmType": "node",
    "candidateOsmId": 1244887747,
    "candidateUrl": "https://www.lausanne-tourisme.ch/en/explore/mgm-cafe/",
    "candidatePhone": "+41 21 616 38 81",
    "candidateHours": "Mo-Th 07:30-01:00; Fr 07:30-02:00; Sa 08:45-02:00; Su 09:00-01:00"
  },
  {
    "id": "osm-node-1265612841-ch-teau-de-coudr-e",
    "name": "Château de Coudrée",
    "lat": 46.3401539,
    "lng": 6.3831664,
    "candidateSource": "osm",
    "candidateFoundAt": "2026-02-11",
    "candidateOsmType": "node",
    "candidateOsmId": 1265612841,
    "candidateUrl": "https://www.chateau-hotel-coudree.com/",
    "candidatePhone": "+33 4 50 72 62 33"
  },
  {
    "id": "osm-node-1374163195-la-cambuse",
    "name": "La Cambuse",
    "lat": 46.4892628,
    "lng": 6.7396115,
    "candidateSource": "osm",
    "candidateFoundAt": "2026-02-11",
    "candidateOsmType": "node",
    "candidateOsmId": 1374163195,
    "candidatePhone": "+41217992279"
  },
  {
    "id": "osm-node-1420750117-h-tel-du-raisin",
    "name": "Hôtel du Raisin",
    "lat": 46.4883398,
    "lng": 6.7308914,
    "candidateSource": "osm",
    "candidateFoundAt": "2026-02-11",
    "candidateOsmType": "node",
    "candidateOsmId": 1420750117,
    "candidateHours": "Mo-Su 12:00-15:00, Mo-Sa 19:00-24:00",
    "candidateUrl": ""
  },
  {
    "id": "osm-node-1420753794-sonja",
    "name": "Sonja",
    "lat": 46.4884672,
    "lng": 6.7285109,
    "candidateSource": "osm",
    "candidateFoundAt": "2026-02-11",
    "candidateOsmType": "node",
    "candidateOsmId": 1420753794,
    "candidateHours": "Tu-Fr 08:00-18:30; Sa,Su 09:00-18:30"
  },
  {
    "id": "osm-node-1420753801-la-grappe-d-or",
    "name": "La Grappe d'Or",
    "lat": 46.488566,
    "lng": 6.7283446,
    "candidateSource": "osm",
    "candidateFoundAt": "2026-02-11",
    "candidateOsmType": "node",
    "candidateOsmId": 1420753801
  },
  {
    "id": "osm-node-1420759585-taverne-grecque-podilato",
    "name": "Taverne Grecque Podilato",
    "lat": 46.4883158,
    "lng": 6.7304207,
    "candidateSource": "osm",
    "candidateFoundAt": "2026-02-11",
    "candidateOsmType": "node",
    "candidateOsmId": 1420759585,
    "candidateUrl": "https://www.taverne-grecque.ch/",
    "candidateHours": "Tu-Sa 12:00-15:00,19:00-22:00"
  },
  {
    "id": "osm-node-1420920378-le-major-davel",
    "name": "Le Major Davel",
    "lat": 46.4879104,
    "lng": 6.7314557,
    "candidateSource": "osm",
    "candidateFoundAt": "2026-02-11",
    "candidateOsmType": "node",
    "candidateOsmId": 1420920378,
    "candidateUrl": "https://www.major-davel.ch/"
  },
  {
    "id": "osm-node-1433812389-cafe-du-vieil-ouchy",
    "name": "Cafe du Vieil Ouchy",
    "lat": 46.5071861,
    "lng": 6.6278714,
    "candidateSource": "osm",
    "candidateFoundAt": "2026-02-11",
    "candidateOsmType": "node",
    "candidateOsmId": 1433812389,
    "candidateUrl": "https://www.vieilouchy.ch/",
    "candidatePhone": "+41 21 616 21 94",
    "candidateHours": "Mo-Fr 10:00-00:00; Sa, Su 09:00-00:00"
  },
  {
    "id": "osm-node-1433812390-l-accademia",
    "name": "L’Accademia",
    "lat": 46.5072597,
    "lng": 6.6283971,
    "candidateSource": "osm",
    "candidateFoundAt": "2026-02-11",
    "candidateOsmType": "node",
    "candidateOsmId": 1433812390,
    "candidateUrl": "https://www.angleterre-residence.ch/restaurants/laccademia/",
    "candidatePhone": "+41 21 613 39 74",
    "candidateHours": "Mo-Su 12:00-14:00,19:00-22:00"
  },
  {
    "id": "osm-node-1433812391-cr-perie-d-ouchy",
    "name": "Crêperie d'Ouchy",
    "lat": 46.5071933,
    "lng": 6.6281182,
    "candidateSource": "osm",
    "candidateFoundAt": "2026-02-11",
    "candidateOsmType": "node",
    "candidateOsmId": 1433812391,
    "candidateUrl": "https://www.ouchycrep.ch",
    "candidatePhone": "+41 21 616 26 07",
    "candidateHours": "Mo-Fr 12:00-21:00; Sa,Su 11:30-21:00"
  },
  {
    "id": "osm-node-1454713729-le-splendide",
    "name": "Le Splendide",
    "lat": 46.5101281,
    "lng": 6.4987176,
    "candidateSource": "osm",
    "candidateFoundAt": "2026-02-11",
    "candidateOsmType": "node",
    "candidateOsmId": 1454713729
  },
  {
    "id": "osm-node-1469329812-a-la-valsainte",
    "name": "A la Valsainte",
    "lat": 46.4588566,
    "lng": 6.8488389,
    "candidateSource": "osm",
    "candidateFoundAt": "2026-02-11",
    "candidateOsmType": "node",
    "candidateOsmId": 1469329812,
    "candidateUrl": "https://www.alavalsainte.ch/",
    "candidatePhone": "+41 21 921 32 60",
    "candidateHours": "Mo 10:30-14:30; Tu-Sa 10:30-14:30,18:00-00:00"
  },
  {
    "id": "osm-node-1545757467-caf-bar-le-central",
    "name": "Café Bar le Central",
    "lat": 46.3853627,
    "lng": 6.8525549,
    "candidateSource": "osm",
    "candidateFoundAt": "2026-02-11",
    "candidateOsmType": "node",
    "candidateOsmId": 1545757467,
    "candidateUrl": ""
  },
  {
    "id": "osm-node-1545757471-caf-de-la-place",
    "name": "Café de la Place",
    "lat": 46.3853353,
    "lng": 6.8528613,
    "candidateSource": "osm",
    "candidateFoundAt": "2026-02-11",
    "candidateOsmType": "node",
    "candidateOsmId": 1545757471,
    "candidateUrl": ""
  },
  {
    "id": "osm-node-1545757509-cave-du-leman",
    "name": "Cave du Leman",
    "lat": 46.3852869,
    "lng": 6.8529631,
    "candidateSource": "osm",
    "candidateFoundAt": "2026-02-11",
    "candidateOsmType": "node",
    "candidateOsmId": 1545757509,
    "candidateUrl": ""
  },
  {
    "id": "osm-node-1545757652-l-arlequin",
    "name": "L'Arlequin",
    "lat": 46.3851127,
    "lng": 6.8532757,
    "candidateSource": "osm",
    "candidateFoundAt": "2026-02-11",
    "candidateOsmType": "node",
    "candidateOsmId": 1545757652
  },
  {
    "id": "osm-node-1545758177-terminus",
    "name": "Terminus",
    "lat": 46.3851998,
    "lng": 6.8531352,
    "candidateSource": "osm",
    "candidateFoundAt": "2026-02-11",
    "candidateOsmType": "node",
    "candidateOsmId": 1545758177
  },
  {
    "id": "osm-node-1555717295-restaurant-de-l-union",
    "name": "Restaurant de l'Union",
    "lat": 46.5102675,
    "lng": 6.4996864,
    "candidateSource": "osm",
    "candidateFoundAt": "2026-02-11",
    "candidateOsmType": "node",
    "candidateOsmId": 1555717295,
    "candidateUrl": "https://www.hotelsavoie.ch/restaurant/",
    "candidatePhone": "+41 21 801 21 55"
  },
  {
    "id": "osm-node-1555726142-club-nautique",
    "name": "Club Nautique",
    "lat": 46.5059071,
    "lng": 6.4974183,
    "candidateSource": "osm",
    "candidateFoundAt": "2026-02-11",
    "candidateOsmType": "node",
    "candidateOsmId": 1555726142,
    "candidateUrl": "https://www.restaurant-cnm.ch/",
    "candidatePhone": "+41 21 801 51 51",
    "candidateHours": "Su-Th 09:00-23:00; Fr-Sa 09:00-00:00"
  },
  {
    "id": "osm-node-1625189968-sushi-zen",
    "name": "Sushi Zen",
    "lat": 46.5080691,
    "lng": 6.4983466,
    "candidateSource": "osm",
    "candidateFoundAt": "2026-02-11",
    "candidateOsmType": "node",
    "candidateOsmId": 1625189968,
    "candidateUrl": "https://www.sushizen.shop/francais/shop-page/sushizen-morges",
    "candidatePhone": "+41 21 801 72 89"
  },
  {
    "id": "osm-node-1643223212-caf-le-kiwi",
    "name": "Café Le Kiwi",
    "lat": 46.5098459,
    "lng": 6.4992714,
    "candidateSource": "osm",
    "candidateFoundAt": "2026-02-11",
    "candidateOsmType": "node",
    "candidateOsmId": 1643223212,
    "candidatePhone": "+4121 801 53 63",
    "candidateUrl": ""
  },
  {
    "id": "osm-node-1643223218-anatolien",
    "name": "Anatolien",
    "lat": 46.5100337,
    "lng": 6.499169,
    "candidateSource": "osm",
    "candidateFoundAt": "2026-02-11",
    "candidateOsmType": "node",
    "candidateOsmId": 1643223218
  },
  {
    "id": "osm-node-1755198434-la-puerta-del-sol",
    "name": "La puerta del sol",
    "lat": 46.4008256,
    "lng": 6.5880494,
    "candidateSource": "osm",
    "candidateFoundAt": "2026-02-11",
    "candidateOsmType": "node",
    "candidateOsmId": 1755198434,
    "candidateUrl": ""
  },
  {
    "id": "osm-node-1755244965-le-brummel",
    "name": "Le Brummel",
    "lat": 46.400383,
    "lng": 6.591854,
    "candidateSource": "osm",
    "candidateFoundAt": "2026-02-11",
    "candidateOsmType": "node",
    "candidateOsmId": 1755244965
  },
  {
    "id": "osm-node-1759741223-buddah-bar",
    "name": "Buddah Bar",
    "lat": 46.4012986,
    "lng": 6.5977205,
    "candidateSource": "osm",
    "candidateFoundAt": "2026-02-11",
    "candidateOsmType": "node",
    "candidateOsmId": 1759741223,
    "candidateUrl": ""
  },
  {
    "id": "osm-node-1759741224-riva",
    "name": "Riva",
    "lat": 46.4012883,
    "lng": 6.5979657,
    "candidateSource": "osm",
    "candidateFoundAt": "2026-02-11",
    "candidateOsmType": "node",
    "candidateOsmId": 1759741224
  },
  {
    "id": "osm-node-1763608848-ar-gedez",
    "name": "Ar Gedez",
    "lat": 46.4007805,
    "lng": 6.5909839,
    "candidateSource": "osm",
    "candidateFoundAt": "2026-02-11",
    "candidateOsmType": "node",
    "candidateOsmId": 1763608848
  },
  {
    "id": "osm-node-1775097880-les-reflets-du-lac",
    "name": "Les Reflets du Lac",
    "lat": 46.4048311,
    "lng": 6.6563907,
    "candidateSource": "osm",
    "candidateFoundAt": "2026-02-11",
    "candidateOsmType": "node",
    "candidateOsmId": 1775097880,
    "candidateUrl": "https://www.refletsdulac.com/"
  },
  {
    "id": "osm-node-1833184541-o2-fr-res",
    "name": "O2 Frères",
    "lat": 46.4003354,
    "lng": 6.5930017,
    "candidateSource": "osm",
    "candidateFoundAt": "2026-02-11",
    "candidateOsmType": "node",
    "candidateOsmId": 1833184541
  },
  {
    "id": "osm-node-1859989325-la-ferme-des-alpes",
    "name": "La ferme des Alpes",
    "lat": 46.4014126,
    "lng": 6.5904806,
    "candidateSource": "osm",
    "candidateFoundAt": "2026-02-11",
    "candidateOsmType": "node",
    "candidateOsmId": 1859989325,
    "candidateUrl": ""
  },
  {
    "id": "osm-node-1866367343-il-pulcinella",
    "name": "Il Pulcinella",
    "lat": 46.4629471,
    "lng": 6.3464927,
    "candidateSource": "osm",
    "candidateFoundAt": "2026-02-11",
    "candidateOsmType": "node",
    "candidateOsmId": 1866367343
  },
  {
    "id": "osm-node-2036758061-caf-du-port",
    "name": "Café du Port",
    "lat": 46.4554141,
    "lng": 6.3369012,
    "candidateSource": "osm",
    "candidateFoundAt": "2026-02-11",
    "candidateOsmType": "node",
    "candidateOsmId": 2036758061,
    "candidateUrl": ""
  },
  {
    "id": "osm-node-2073532980-l-inpasse",
    "name": "L'Inpasse",
    "lat": 46.508732,
    "lng": 6.4970112,
    "candidateSource": "osm",
    "candidateFoundAt": "2026-02-11",
    "candidateOsmType": "node",
    "candidateOsmId": 2073532980,
    "candidateUrl": "https://www.linpasse.ch/",
    "candidatePhone": "+41 79 235 06 58"
  },
  {
    "id": "osm-node-2073577521-haas",
    "name": "Haas",
    "lat": 46.5104424,
    "lng": 6.4995958,
    "candidateSource": "osm",
    "candidateFoundAt": "2026-02-11",
    "candidateOsmType": "node",
    "candidateOsmId": 2073577521
  },
  {
    "id": "osm-node-2073717870-briolay",
    "name": "Briolay",
    "lat": 46.5087236,
    "lng": 6.4978173,
    "candidateSource": "osm",
    "candidateFoundAt": "2026-02-11",
    "candidateOsmType": "node",
    "candidateOsmId": 2073717870
  },
  {
    "id": "osm-node-2135038074-la-cascade",
    "name": "La Cascade",
    "lat": 46.4241344,
    "lng": 6.9255423,
    "candidateSource": "osm",
    "candidateFoundAt": "2026-02-11",
    "candidateOsmType": "node",
    "candidateOsmId": 2135038074
  },
  {
    "id": "osm-node-2135038076-tango-restaurante-grill-argentin",
    "name": "Tango Restaurante Grill Argentin",
    "lat": 46.4243919,
    "lng": 6.9251502,
    "candidateSource": "osm",
    "candidateFoundAt": "2026-02-11",
    "candidateOsmType": "node",
    "candidateOsmId": 2135038076,
    "candidateUrl": ""
  },
  {
    "id": "osm-node-2397710129-helv-tia",
    "name": "Helvétia",
    "lat": 46.3922104,
    "lng": 6.8065235,
    "candidateSource": "osm",
    "candidateFoundAt": "2026-02-11",
    "candidateOsmType": "node",
    "candidateOsmId": 2397710129,
    "candidateUrl": ""
  },
  {
    "id": "osm-node-2398768793-bellevue",
    "name": "Bellevue",
    "lat": 46.3939552,
    "lng": 6.8053968,
    "candidateSource": "osm",
    "candidateFoundAt": "2026-02-11",
    "candidateOsmType": "node",
    "candidateOsmId": 2398768793,
    "candidateUrl": "https://info@bellevue-restaurant.ch",
    "candidatePhone": "+41 24 481 62 72",
    "candidateHours": "Mo-Su 09:00-23:00"
  },
  {
    "id": "osm-node-2399699270-club-nautique",
    "name": "Club Nautique",
    "lat": 46.4524218,
    "lng": 6.3352103,
    "candidateSource": "osm",
    "candidateFoundAt": "2026-02-11",
    "candidateOsmType": "node",
    "candidateOsmId": 2399699270,
    "candidateUrl": "https://www.restaurant-cnm.ch/"
  },
  {
    "id": "osm-node-2406789699-le-radeau",
    "name": "Le radeau",
    "lat": 46.3971491,
    "lng": 6.5364235,
    "candidateSource": "osm",
    "candidateFoundAt": "2026-02-11",
    "candidateOsmType": "node",
    "candidateOsmId": 2406789699,
    "candidateUrl": "https://www.hotelplage74.com/",
    "candidatePhone": "+33 4 50 70 46 57"
  },
  {
    "id": "osm-node-2417733028-cafe-du-lac",
    "name": "Cafe du Lac",
    "lat": 46.4606247,
    "lng": 6.3414931,
    "candidateSource": "osm",
    "candidateFoundAt": "2026-02-11",
    "candidateOsmType": "node",
    "candidateOsmId": 2417733028,
    "candidateUrl": ""
  },
  {
    "id": "osm-node-2470176477-hong-kong-city",
    "name": "Hong Kong City",
    "lat": 46.4519501,
    "lng": 6.8580011,
    "candidateSource": "osm",
    "candidateFoundAt": "2026-02-11",
    "candidateOsmType": "node",
    "candidateOsmId": 2470176477,
    "candidateUrl": "https://www.hongkongcity.ch/",
    "candidatePhone": "+41 21 944 21 71"
  },
  {
    "id": "osm-node-2859804421-la-pichette-des-4-humeurs",
    "name": "La Pichette des 4 humeurs",
    "lat": 46.470497,
    "lng": 6.8099587,
    "candidateSource": "osm",
    "candidateFoundAt": "2026-02-11",
    "candidateOsmType": "node",
    "candidateOsmId": 2859804421,
    "candidatePhone": "+41 21 921 07 20",
    "candidateHours": "Apr-Oct",
    "candidateUrl": ""
  },
  {
    "id": "osm-node-2968187833-ristorante-invivo",
    "name": "Ristorante InVivo",
    "lat": 46.5138962,
    "lng": 6.50099,
    "candidateSource": "osm",
    "candidateFoundAt": "2026-02-11",
    "candidateOsmType": "node",
    "candidateOsmId": 2968187833,
    "candidateUrl": "http://www.ristorante-invivo.ch",
    "candidatePhone": "+41 21 803 06 17",
    "candidateHours": "Mo-Fr 11:30-14:30,18:00-00:00; Sa 18:00-00:00"
  },
  {
    "id": "osm-node-2974366301-la-rive",
    "name": "La Rive",
    "lat": 46.5077161,
    "lng": 6.4953166,
    "candidateSource": "osm",
    "candidateFoundAt": "2026-02-11",
    "candidateOsmType": "node",
    "candidateOsmId": 2974366301,
    "candidateUrl": "https://www.restaurantlarive.ch/",
    "candidatePhone": "+41 21 803 53 53",
    "candidateHours": "Mo-Th 07:00-23:00; Fr-Sa 07:00-00:00; Su 09:00-23:00"
  },
  {
    "id": "osm-node-3002902688-le-phare",
    "name": "Le Phare",
    "lat": 46.3851946,
    "lng": 6.8534942,
    "candidateSource": "osm",
    "candidateFoundAt": "2026-02-11",
    "candidateOsmType": "node",
    "candidateOsmId": 3002902688
  },
  {
    "id": "osm-node-3004096609-chez-jaja",
    "name": "Chez Jaja",
    "lat": 46.3705532,
    "lng": 6.3268376,
    "candidateSource": "osm",
    "candidateFoundAt": "2026-02-11",
    "candidateOsmType": "node",
    "candidateOsmId": 3004096609,
    "candidateUrl": ""
  },
  {
    "id": "osm-node-3016773026-la-route-de-la-soie",
    "name": "La Route de la Soie",
    "lat": 46.5104007,
    "lng": 6.498062,
    "candidateSource": "osm",
    "candidateFoundAt": "2026-02-11",
    "candidateOsmType": "node",
    "candidateOsmId": 3016773026,
    "candidateUrl": "https://www.routedelasoie.ch/"
  },
  {
    "id": "osm-node-3017005973-la-bo-te-th",
    "name": "La Boîte à Thé",
    "lat": 46.5077971,
    "lng": 6.4969356,
    "candidateSource": "osm",
    "candidateFoundAt": "2026-02-11",
    "candidateOsmType": "node",
    "candidateOsmId": 3017005973,
    "candidateUrl": "https://www.laboiteathe.ch/morges",
    "candidatePhone": "+41 21 801 12 86",
    "candidateHours": "Mo-Fr 09:00-18:30; Sa 09:00-17:00"
  },
  {
    "id": "osm-node-3025626090-le-couvaloup",
    "name": "Le Couvaloup",
    "lat": 46.5107897,
    "lng": 6.4992795,
    "candidateSource": "osm",
    "candidateFoundAt": "2026-02-11",
    "candidateOsmType": "node",
    "candidateOsmId": 3025626090
  },
  {
    "id": "osm-node-3039171059-oxxy-beach",
    "name": "Oxxy Beach",
    "lat": 46.4010635,
    "lng": 6.502673,
    "candidateSource": "osm",
    "candidateFoundAt": "2026-02-11",
    "candidateOsmType": "node",
    "candidateOsmId": 3039171059,
    "candidateUrl": ""
  },
  {
    "id": "osm-node-3042360619-fleur-de-pain",
    "name": "Fleur de Pain",
    "lat": 46.5082191,
    "lng": 6.4985925,
    "candidateSource": "osm",
    "candidateFoundAt": "2026-02-11",
    "candidateOsmType": "node",
    "candidateOsmId": 3042360619,
    "candidateUrl": ""
  },
  {
    "id": "osm-node-3152678361-tha-au-lac",
    "name": "Thaï au Lac",
    "lat": 46.5119255,
    "lng": 6.6090754,
    "candidateSource": "osm",
    "candidateFoundAt": "2026-02-11",
    "candidateOsmType": "node",
    "candidateOsmId": 3152678361,
    "candidateUrl": "http://thaiaulac.ch/",
    "candidatePhone": "+41 21 601 10 00",
    "candidateHours": "Mo-Fr, Su 11:30-14:30, 18:30-23:30; Sa 18:30-23:30"
  },
  {
    "id": "osm-node-3387859496-sushizen",
    "name": "Sushizen",
    "lat": 46.5080685,
    "lng": 6.4983713,
    "candidateSource": "osm",
    "candidateFoundAt": "2026-02-11",
    "candidateOsmType": "node",
    "candidateOsmId": 3387859496
  },
  {
    "id": "osm-node-3390849438-le-contretemps",
    "name": "Le Contretemps",
    "lat": 46.4262037,
    "lng": 6.9226427,
    "candidateSource": "osm",
    "candidateFoundAt": "2026-02-11",
    "candidateOsmType": "node",
    "candidateOsmId": 3390849438,
    "candidateUrl": "https://le-contretemps.ch/",
    "candidateHours": "We-Fr 11:30-14:30, 18:00-23:00; Sa 11:00-14:30, 18:00-23:00; Su 11:00-16:00"
  },
  {
    "id": "osm-node-3478655521-club-house",
    "name": "Club House",
    "lat": 46.4011943,
    "lng": 6.5077874,
    "candidateSource": "osm",
    "candidateFoundAt": "2026-02-11",
    "candidateOsmType": "node",
    "candidateOsmId": 3478655521,
    "candidatePhone": "+33 4 50 26 09 91",
    "candidateUrl": ""
  },
  {
    "id": "osm-node-3525927400-ph-vi",
    "name": "Phò' Vi",
    "lat": 46.5101801,
    "lng": 6.498209,
    "candidateSource": "osm",
    "candidateFoundAt": "2026-02-11",
    "candidateOsmType": "node",
    "candidateOsmId": 3525927400,
    "candidateUrl": "https://phovi.ch"
  },
  {
    "id": "osm-node-3590630758-pizzeria-lucania",
    "name": "Pizzeria Lucania",
    "lat": 46.3026133,
    "lng": 6.2451355,
    "candidateSource": "osm",
    "candidateFoundAt": "2026-02-11",
    "candidateOsmType": "node",
    "candidateOsmId": 3590630758,
    "candidateUrl": ""
  },
  {
    "id": "osm-node-3607802258-la-croix-f-d-rale",
    "name": "La Croix Fédérale",
    "lat": 46.3025612,
    "lng": 6.2437724,
    "candidateSource": "osm",
    "candidateFoundAt": "2026-02-11",
    "candidateOsmType": "node",
    "candidateOsmId": 3607802258,
    "candidateUrl": ""
  },
  {
    "id": "osm-node-3607844317-buvette-du-camping",
    "name": "Buvette du camping",
    "lat": 46.3034817,
    "lng": 6.241697,
    "candidateSource": "osm",
    "candidateFoundAt": "2026-02-11",
    "candidateOsmType": "node",
    "candidateOsmId": 3607844317,
    "candidateUrl": ""
  },
  {
    "id": "osm-node-3607848198-le-quai",
    "name": "Le Quai",
    "lat": 46.3023773,
    "lng": 6.241866,
    "candidateSource": "osm",
    "candidateFoundAt": "2026-02-11",
    "candidateOsmType": "node",
    "candidateOsmId": 3607848198
  },
  {
    "id": "osm-node-3662931825-barawine",
    "name": "Barawine",
    "lat": 46.3821901,
    "lng": 6.2393681,
    "candidateSource": "osm",
    "candidateFoundAt": "2026-02-11",
    "candidateOsmType": "node",
    "candidateOsmId": 3662931825,
    "candidateUrl": "https://www.facebook.com/barawine"
  },
  {
    "id": "osm-node-3662931828-sushi-haiku",
    "name": "Sushi Haiku",
    "lat": 46.3818435,
    "lng": 6.238849,
    "candidateSource": "osm",
    "candidateFoundAt": "2026-02-11",
    "candidateOsmType": "node",
    "candidateOsmId": 3662931828,
    "candidateUrl": "http://www.haiku-lausanne.ch/",
    "candidateHours": "Mo-Su 10:30-14:00, 17:30-21:30"
  },
  {
    "id": "osm-node-3664389925-khana-mandir",
    "name": "Khana Mandir",
    "lat": 46.3817929,
    "lng": 6.2386259,
    "candidateSource": "osm",
    "candidateFoundAt": "2026-02-11",
    "candidateOsmType": "node",
    "candidateOsmId": 3664389925,
    "candidateUrl": "https://www.mumbaibar.ch/"
  },
  {
    "id": "osm-node-3687479917-jet-e-de-la-compagnie",
    "name": "Jetée de la compagnie",
    "lat": 46.5087671,
    "lng": 6.6163743,
    "candidateSource": "osm",
    "candidateFoundAt": "2026-02-11",
    "candidateOsmType": "node",
    "candidateOsmId": 3687479917,
    "candidateUrl": "http://www.jeteedelacompagnie.ch/",
    "candidateHours": "Mo-Sa 10:00-24:00, Su 09:00-24:00"
  },
  {
    "id": "osm-node-3700162285-mediteraneo",
    "name": "Mediteraneo",
    "lat": 46.5100869,
    "lng": 6.4992276,
    "candidateSource": "osm",
    "candidateFoundAt": "2026-02-11",
    "candidateOsmType": "node",
    "candidateOsmId": 3700162285
  },
  {
    "id": "osm-node-3700184467-volver",
    "name": "Volver",
    "lat": 46.509865,
    "lng": 6.4989467,
    "candidateSource": "osm",
    "candidateFoundAt": "2026-02-11",
    "candidateOsmType": "node",
    "candidateOsmId": 3700184467,
    "candidateUrl": "https://volver-tapas.ch/",
    "candidatePhone": "+41 21 801 80 60",
    "candidateHours": "Mo,Tu 07:30-23:00; We 07:00-23:00; Th 07:30-00:00; Fr 07:30-01:00; Sa 07:00-00:00"
  },
  {
    "id": "osm-node-3700667492-la-brasserie-du-g-n-ral",
    "name": "La Brasserie du Général",
    "lat": 46.3734522,
    "lng": 6.4794749,
    "candidateSource": "osm",
    "candidateFoundAt": "2026-02-11",
    "candidateOsmType": "node",
    "candidateOsmId": 3700667492,
    "candidateUrl": "http://www.labrasseriedugeneral.com"
  },
  {
    "id": "osm-node-3784187099-la-nautique",
    "name": "La Nautique",
    "lat": 46.3792388,
    "lng": 6.2398521,
    "candidateSource": "osm",
    "candidateFoundAt": "2026-02-11",
    "candidateOsmType": "node",
    "candidateOsmId": 3784187099,
    "candidateUrl": "https://snny.ch/societe/restaurant/"
  },
  {
    "id": "osm-node-3964645703-chez-rose-marie",
    "name": "Chez Rose Marie",
    "lat": 46.3936533,
    "lng": 6.8021185,
    "candidateSource": "osm",
    "candidateFoundAt": "2026-02-11",
    "candidateOsmType": "node",
    "candidateOsmId": 3964645703,
    "candidatePhone": "+33 4 50 76 71 39 ",
    "candidateUrl": ""
  },
  {
    "id": "osm-node-3971026269-auberge-du-ch-teau",
    "name": "Auberge du Château",
    "lat": 46.3819687,
    "lng": 6.2398921,
    "candidateSource": "osm",
    "candidateFoundAt": "2026-02-11",
    "candidateOsmType": "node",
    "candidateOsmId": 3971026269,
    "candidateUrl": "http://aubergeduchateau.ch/",
    "candidateHours": "Tu-Su 08:00-24:00"
  },
  {
    "id": "osm-node-4079640992-l-abri",
    "name": "L'abri",
    "lat": 46.3811057,
    "lng": 6.2414652,
    "candidateSource": "osm",
    "candidateFoundAt": "2026-02-11",
    "candidateOsmType": "node",
    "candidateOsmId": 4079640992,
    "candidateUrl": "https://www.labri-nyon.com"
  },
  {
    "id": "osm-node-4154998108-takumi-ramen",
    "name": "Takumi Ramen",
    "lat": 46.5083584,
    "lng": 6.4963026,
    "candidateSource": "osm",
    "candidateFoundAt": "2026-02-11",
    "candidateOsmType": "node",
    "candidateOsmId": 4154998108,
    "candidateUrl": "https://www.takumi-ramen.ch",
    "candidatePhone": "+41 21 802 05 93",
    "candidateHours": "Mo-Su 11:00-14:30, 18:00-22:30"
  },
  {
    "id": "osm-node-4155006891-bloody-cat",
    "name": "Bloody Cat",
    "lat": 46.508775,
    "lng": 6.4988954,
    "candidateSource": "osm",
    "candidateFoundAt": "2026-02-11",
    "candidateOsmType": "node",
    "candidateOsmId": 4155006891,
    "candidateUrl": "https://www.bloodycat.ch/",
    "candidatePhone": "+41 21 534 43 40",
    "candidateHours": "Tu-Th 17:00-00:00; Fr-Sa 17:00-02:00"
  },
  {
    "id": "osm-node-4190576955-le-lustriacum",
    "name": "Le Lustriacum",
    "lat": 46.5027208,
    "lng": 6.6857675,
    "candidateSource": "osm",
    "candidateFoundAt": "2026-02-11",
    "candidateOsmType": "node",
    "candidateOsmId": 4190576955,
    "candidatePhone": "+41217910571"
  },
  {
    "id": "osm-node-4250807995-veneto",
    "name": "Veneto",
    "lat": 46.4554836,
    "lng": 6.8548856,
    "candidateSource": "osm",
    "candidateFoundAt": "2026-02-11",
    "candidateOsmType": "node",
    "candidateOsmId": 4250807995,
    "candidateUrl": "https://www.restaurant-veneto.ch/"
  },
  {
    "id": "osm-node-4252801894-byblos",
    "name": "Byblos",
    "lat": 46.4523656,
    "lng": 6.8583154,
    "candidateSource": "osm",
    "candidateFoundAt": "2026-02-11",
    "candidateOsmType": "node",
    "candidateOsmId": 4252801894
  },
  {
    "id": "osm-node-4261011250-chez-pitch",
    "name": "Chez Pitch",
    "lat": 46.5060304,
    "lng": 6.6654402,
    "candidateSource": "osm",
    "candidateFoundAt": "2026-02-11",
    "candidateOsmType": "node",
    "candidateOsmId": 4261011250,
    "candidateHours": "We-Su 10:00-15:00, 18:00-00:00",
    "candidateUrl": ""
  },
  {
    "id": "osm-node-4293099689-bistrot-du-petit-port",
    "name": "Bistrot Du Petit Port",
    "lat": 46.5169411,
    "lng": 6.5768211,
    "candidateSource": "osm",
    "candidateFoundAt": "2026-02-11",
    "candidateOsmType": "node",
    "candidateOsmId": 4293099689,
    "candidateHours": "PH,Mo-Su 09:00-23:00",
    "candidateUrl": ""
  },
  {
    "id": "osm-node-4299082593-pizzeria-la-d-me",
    "name": "Pizzeria La Dîme",
    "lat": 46.3702514,
    "lng": 6.3274849,
    "candidateSource": "osm",
    "candidateFoundAt": "2026-02-11",
    "candidateOsmType": "node",
    "candidateOsmId": 4299082593,
    "candidatePhone": "+33 4 50 72 89 87"
  },
  {
    "id": "osm-node-4299094800-la-perche",
    "name": "La Perche",
    "lat": 46.3702772,
    "lng": 6.327316,
    "candidateSource": "osm",
    "candidateFoundAt": "2026-02-11",
    "candidateOsmType": "node",
    "candidateOsmId": 4299094800,
    "candidatePhone": "+33 4 50 72 89 30"
  },
  {
    "id": "osm-node-4299096806-restaurant-des-p-cheurs",
    "name": "Restaurant des Pêcheurs",
    "lat": 46.3700185,
    "lng": 6.3266857,
    "candidateSource": "osm",
    "candidateFoundAt": "2026-02-11",
    "candidateOsmType": "node",
    "candidateOsmId": 4299096806,
    "candidateUrl": "https://restaurantdespecheurs.fr",
    "candidatePhone": "+33 4 50 72 80 26"
  },
  {
    "id": "osm-node-4299109611-restaurant-du-port",
    "name": "Restaurant du Port",
    "lat": 46.370597,
    "lng": 6.3246244,
    "candidateSource": "osm",
    "candidateFoundAt": "2026-02-11",
    "candidateOsmType": "node",
    "candidateOsmId": 4299109611,
    "candidateUrl": "http://www.hotelrestaurantduport-yvoire.com/fr/index.php",
    "candidatePhone": "+33 4 50 72 80 17"
  },
  {
    "id": "osm-node-4319618353-caveau-du-singe-vert",
    "name": "Caveau du Singe Vert",
    "lat": 46.5021963,
    "lng": 6.6863011,
    "candidateSource": "osm",
    "candidateFoundAt": "2026-02-11",
    "candidateOsmType": "node",
    "candidateOsmId": 4319618353,
    "candidateUrl": ""
  },
  {
    "id": "osm-node-4348465293-la-paillote",
    "name": "La Paillote",
    "lat": 46.5057401,
    "lng": 6.4973213,
    "candidateSource": "osm",
    "candidateFoundAt": "2026-02-11",
    "candidateOsmType": "node",
    "candidateOsmId": 4348465293,
    "candidateUrl": "https://www.restaurant-cnm.ch/la-paillote/"
  },
  {
    "id": "osm-node-4395835227-le-quai-gourmand",
    "name": "Le Quai Gourmand",
    "lat": 46.507661,
    "lng": 6.6252438,
    "candidateSource": "osm",
    "candidateFoundAt": "2026-02-11",
    "candidateOsmType": "node",
    "candidateOsmId": 4395835227,
    "candidateHours": "Mo-Fr 07:30-18:30; Sa,Su 07:30-18:00",
    "candidateUrl": ""
  },
  {
    "id": "osm-node-4405523492-coop",
    "name": "Coop",
    "lat": 46.5104758,
    "lng": 6.4979321,
    "candidateSource": "osm",
    "candidateFoundAt": "2026-02-11",
    "candidateOsmType": "node",
    "candidateOsmId": 4405523492,
    "candidateHours": "Mo-Sa 07:30-17:00"
  },
  {
    "id": "osm-node-4427285672-le-comptoir-de-val-rie",
    "name": "Le Comptoir de Valérie",
    "lat": 46.5100887,
    "lng": 6.4986843,
    "candidateSource": "osm",
    "candidateFoundAt": "2026-02-11",
    "candidateOsmType": "node",
    "candidateOsmId": 4427285672,
    "candidateUrl": "https://www.lecomptoirdevalerie.ch/",
    "candidatePhone": "+41 21 802 18 29"
  },
  {
    "id": "osm-node-4564582380-confiserie-christian-boillat",
    "name": "Confiserie Christian Boillat",
    "lat": 46.5084968,
    "lng": 6.4985855,
    "candidateSource": "osm",
    "candidateFoundAt": "2026-02-11",
    "candidateOsmType": "node",
    "candidateOsmId": 4564582380,
    "candidateUrl": "https://www.confiserieboillat.ch/",
    "candidatePhone": "+41 21 801 21 07",
    "candidateHours": "Mo-Fr 07:00-18:30; Sa-Su 07:00-18:00"
  },
  {
    "id": "osm-node-4601509021-le-ma-tre-jaques",
    "name": "Le Maître Jaques",
    "lat": 46.3820177,
    "lng": 6.2420033,
    "candidateSource": "osm",
    "candidateFoundAt": "2026-02-11",
    "candidateOsmType": "node",
    "candidateOsmId": 4601509021,
    "candidateUrl": ""
  },
  {
    "id": "osm-node-4601518839-le-tac-oh",
    "name": "Le Tac-Oh",
    "lat": 46.3817942,
    "lng": 6.2418862,
    "candidateSource": "osm",
    "candidateFoundAt": "2026-02-11",
    "candidateOsmType": "node",
    "candidateOsmId": 4601518839
  },
  {
    "id": "osm-node-4601523354-caf-demoiselles",
    "name": "Café Demoiselles",
    "lat": 46.3820937,
    "lng": 6.2421177,
    "candidateSource": "osm",
    "candidateFoundAt": "2026-02-11",
    "candidateOsmType": "node",
    "candidateOsmId": 4601523354,
    "candidateUrl": ""
  },
  {
    "id": "osm-node-4652529421-chez-mon-oncle",
    "name": "Chez mon oncle",
    "lat": 46.3823261,
    "lng": 6.2427716,
    "candidateSource": "osm",
    "candidateFoundAt": "2026-02-11",
    "candidateOsmType": "node",
    "candidateOsmId": 4652529421,
    "candidateUrl": ""
  },
  {
    "id": "osm-node-4659447306-ex-machina",
    "name": "Ex Machina",
    "lat": 46.3814669,
    "lng": 6.2394627,
    "candidateSource": "osm",
    "candidateFoundAt": "2026-02-11",
    "candidateOsmType": "node",
    "candidateOsmId": 4659447306,
    "candidateHours": "Mo-Fr 08:00-18:00; Sa,Su 09:00-18:00"
  },
  {
    "id": "osm-node-4684280354-le-toscane",
    "name": "Le Toscane",
    "lat": 46.3948198,
    "lng": 6.543143,
    "candidateSource": "osm",
    "candidateFoundAt": "2026-02-11",
    "candidateOsmType": "node",
    "candidateOsmId": 4684280354,
    "candidatePhone": "+33 4 50 81 43 62"
  },
  {
    "id": "osm-node-4684322969-le-brizolon",
    "name": "Le Brizolon",
    "lat": 46.3949335,
    "lng": 6.5424603,
    "candidateSource": "osm",
    "candidateFoundAt": "2026-02-11",
    "candidateOsmType": "node",
    "candidateOsmId": 4684322969,
    "candidatePhone": "+33 4 50 81 49 31"
  },
  {
    "id": "osm-node-4699380190-chez-chorn",
    "name": "Chez Chorn",
    "lat": 46.4247626,
    "lng": 6.9242254,
    "candidateSource": "osm",
    "candidateFoundAt": "2026-02-11",
    "candidateOsmType": "node",
    "candidateOsmId": 4699380190,
    "candidateUrl": ""
  },
  {
    "id": "osm-node-4827468821-restaurant-le-l-man",
    "name": "Restaurant Le Léman",
    "lat": 46.5079839,
    "lng": 6.4982039,
    "candidateSource": "osm",
    "candidateFoundAt": "2026-02-11",
    "candidateOsmType": "node",
    "candidateOsmId": 4827468821,
    "candidatePhone": "+41 79 668 53 33",
    "candidateUrl": ""
  },
  {
    "id": "osm-node-4844601223-au-bon-coin",
    "name": "Au bon coin",
    "lat": 46.3653275,
    "lng": 6.3033908,
    "candidateSource": "osm",
    "candidateFoundAt": "2026-02-11",
    "candidateOsmType": "node",
    "candidateOsmId": 4844601223,
    "candidateUrl": ""
  },
  {
    "id": "osm-node-4861659193-keyann",
    "name": "Keyann",
    "lat": 46.5088525,
    "lng": 6.6261881,
    "candidateSource": "osm",
    "candidateFoundAt": "2026-02-11",
    "candidateOsmType": "node",
    "candidateOsmId": 4861659193,
    "candidateHours": "Mo-Su 11:00-14:00,17:30-22:00"
  },
  {
    "id": "osm-node-4871242795-lido-du-l-man",
    "name": "Lido du Léman",
    "lat": 46.5042309,
    "lng": 6.4923689,
    "candidateSource": "osm",
    "candidateFoundAt": "2026-02-11",
    "candidateOsmType": "node",
    "candidateOsmId": 4871242795,
    "candidateUrl": "https://www.lidoduleman.ch",
    "candidatePhone": "+41218024704",
    "candidateHours": "Mo-Su 09:30-22:00"
  },
  {
    "id": "osm-node-4887282614-restaurant-de-la-plage",
    "name": "Restaurant de la Plage",
    "lat": 46.3768543,
    "lng": 6.235912,
    "candidateSource": "osm",
    "candidateFoundAt": "2026-02-11",
    "candidateOsmType": "node",
    "candidateOsmId": 4887282614,
    "candidatePhone": "+41 22 362 61 01",
    "candidateUrl": ""
  },
  {
    "id": "osm-node-4971274821-zeus-lounge-bar",
    "name": "Zeus Lounge Bar",
    "lat": 46.4008828,
    "lng": 6.5881033,
    "candidateSource": "osm",
    "candidateFoundAt": "2026-02-11",
    "candidateOsmType": "node",
    "candidateOsmId": 4971274821,
    "candidateUrl": ""
  },
  {
    "id": "osm-node-5017958111-le-kiosque-de-la-plage",
    "name": "Le Kiosque de la Plage",
    "lat": 46.340548,
    "lng": 6.3915113,
    "candidateSource": "osm",
    "candidateFoundAt": "2026-02-11",
    "candidateOsmType": "node",
    "candidateOsmId": 5017958111,
    "candidatePhone": "+33 7 70 58 42 60",
    "candidateUrl": ""
  },
  {
    "id": "osm-node-5051900830-brasserie-du-belv-d-re",
    "name": "Brasserie du Belvédère",
    "lat": 46.3745269,
    "lng": 6.4813505,
    "candidateSource": "osm",
    "candidateFoundAt": "2026-02-11",
    "candidateOsmType": "node",
    "candidateOsmId": 5051900830,
    "candidateUrl": ""
  },
  {
    "id": "osm-node-5115868857-buvette-du-canal",
    "name": "Buvette du Canal",
    "lat": 46.3857347,
    "lng": 6.8579611,
    "candidateSource": "osm",
    "candidateFoundAt": "2026-02-11",
    "candidateOsmType": "node",
    "candidateOsmId": 5115868857,
    "candidateUrl": ""
  },
  {
    "id": "osm-node-5141200542-caf-restaurant-tennis-club",
    "name": "Café Restaurant Tennis Club",
    "lat": 46.4251763,
    "lng": 6.9233385,
    "candidateSource": "osm",
    "candidateFoundAt": "2026-02-11",
    "candidateOsmType": "node",
    "candidateOsmId": 5141200542,
    "candidateUrl": ""
  },
  {
    "id": "osm-node-5345601307-le-table-du-lac",
    "name": "Le Table du Lac",
    "lat": 46.3515925,
    "lng": 6.1471568,
    "candidateSource": "osm",
    "candidateFoundAt": "2026-02-11",
    "candidateOsmType": "node",
    "candidateOsmId": 5345601307,
    "candidateUrl": "https://www.la-table-du-lac.com/"
  },
  {
    "id": "osm-node-5456903880-chez-john-the-roadhouse",
    "name": "Chez John The Roadhouse",
    "lat": 46.4240649,
    "lng": 6.9256042,
    "candidateSource": "osm",
    "candidateFoundAt": "2026-02-11",
    "candidateOsmType": "node",
    "candidateOsmId": 5456903880,
    "candidateUrl": "https://chezjohntheroadhouse.jimdo.com/",
    "candidatePhone": "+41 21 921 29 96"
  },
  {
    "id": "osm-node-5456903899-m-j-sp-cialit-s-syriennes-et-libanaises",
    "name": "M&J Spécialités Syriennes et Libanaises",
    "lat": 46.4242613,
    "lng": 6.925368,
    "candidateSource": "osm",
    "candidateFoundAt": "2026-02-11",
    "candidateOsmType": "node",
    "candidateOsmId": 5456903899,
    "candidatePhone": "+41 78 301 39 82",
    "candidateUrl": ""
  },
  {
    "id": "osm-node-5543993621-ze-fork",
    "name": "Ze Fork",
    "lat": 46.4581185,
    "lng": 6.8469994,
    "candidateSource": "osm",
    "candidateFoundAt": "2026-02-11",
    "candidateOsmType": "node",
    "candidateOsmId": 5543993621,
    "candidateUrl": "https://www.zefork.ch",
    "candidatePhone": "+41 21 922 18 13",
    "candidateHours": "Tu-Su 08:30-24:00; Jun-Sep Mo 08:30-24:00"
  },
  {
    "id": "osm-node-5543996421-kju",
    "name": "KJU",
    "lat": 46.4580668,
    "lng": 6.8472041,
    "candidateSource": "osm",
    "candidateFoundAt": "2026-02-11",
    "candidateOsmType": "node",
    "candidateOsmId": 5543996421,
    "candidateUrl": "https://www.q-vevey.ch/",
    "candidatePhone": "+41 21 922 10 67",
    "candidateHours": "Tu-Th 11:30-00:00; Fr-Sa 11:30-02:00; Su 11:30-18:00"
  },
  {
    "id": "osm-node-5545720921-la-fabrik",
    "name": "La Fabrik",
    "lat": 46.4014244,
    "lng": 6.5903674,
    "candidateSource": "osm",
    "candidateFoundAt": "2026-02-11",
    "candidateOsmType": "node",
    "candidateOsmId": 5545720921,
    "candidatePhone": "+33 4 50 74 44 28",
    "candidateHours": "Su, We-Th 10:30-24:00; Fr-Sa 10:30-01:00"
  },
  {
    "id": "osm-node-5574606169-saveurs-d-ailleurs",
    "name": "Saveurs d'ailleurs",
    "lat": 46.5076191,
    "lng": 6.6275019,
    "candidateSource": "osm",
    "candidateFoundAt": "2026-02-11",
    "candidateOsmType": "node",
    "candidateOsmId": 5574606169,
    "candidateUrl": "https://www.saveursdailleurs.ch/",
    "candidatePhone": "+41 21 601 67 67",
    "candidateHours": "Tu-Sa 11:00-20:00"
  },
  {
    "id": "osm-node-5678906240-anne-sophie-pic-au-beau-rivage-palace",
    "name": "Anne-Sophie Pic au Beau-Rivage Palace",
    "lat": 46.5079249,
    "lng": 6.6307278,
    "candidateSource": "osm",
    "candidateFoundAt": "2026-02-11",
    "candidateOsmType": "node",
    "candidateOsmId": 5678906240,
    "candidateUrl": "https://www.brp.ch/restaurants-bars/anne-sophie-pic/le-restaurant/"
  },
  {
    "id": "osm-node-5680464971-le-minimum",
    "name": "Le Minimum",
    "lat": 46.5083383,
    "lng": 6.6170754,
    "candidateSource": "osm",
    "candidateFoundAt": "2026-02-11",
    "candidateOsmType": "node",
    "candidateOsmId": 5680464971,
    "candidateHours": "Mo-Su 12:00-00:00"
  },
  {
    "id": "osm-node-5773702803-la-parenth-se",
    "name": "La Parenthèse",
    "lat": 46.3817799,
    "lng": 6.2388087,
    "candidateSource": "osm",
    "candidateFoundAt": "2026-02-11",
    "candidateOsmType": "node",
    "candidateOsmId": 5773702803,
    "candidateUrl": "http://www.bar-laparenthese.ch",
    "candidateHours": "Th 20:00-01:00; Fr-Sa 20:00-02:00"
  },
  {
    "id": "osm-node-5853912291-en-vogue",
    "name": "En Vogue",
    "lat": 46.4588345,
    "lng": 6.8489778,
    "candidateSource": "osm",
    "candidateFoundAt": "2026-02-11",
    "candidateOsmType": "node",
    "candidateOsmId": 5853912291
  },
  {
    "id": "osm-node-5867880886-auberge-d-hermance",
    "name": "Auberge d'Hermance",
    "lat": 46.3020535,
    "lng": 6.2437645,
    "candidateSource": "osm",
    "candidateFoundAt": "2026-02-11",
    "candidateOsmType": "node",
    "candidateOsmId": 5867880886,
    "candidateHours": "Th-Mo 12:00-14:00, 19:00-22:00; We 19:00-22:00",
    "candidateUrl": ""
  },
  {
    "id": "osm-node-6277269321-carasso",
    "name": "Carasso",
    "lat": 46.5096003,
    "lng": 6.4978242,
    "candidateSource": "osm",
    "candidateFoundAt": "2026-02-11",
    "candidateOsmType": "node",
    "candidateOsmId": 6277269321,
    "candidateUrl": "https://www.carasso.ch/",
    "candidateHours": "Mo-Fr 07:30-18:30; Sa 07:30-17:00"
  },
  {
    "id": "osm-node-6380531802-caf-restaurant-du-port",
    "name": "Café Restaurant du Port",
    "lat": 46.4579019,
    "lng": 6.8508077,
    "candidateSource": "osm",
    "candidateFoundAt": "2026-02-11",
    "candidateOsmType": "node",
    "candidateOsmId": 6380531802,
    "candidateUrl": "https://www.cafeduport.ch/",
    "candidatePhone": "+41 21 921 20 50"
  },
  {
    "id": "osm-node-6470820546-l-olivier",
    "name": "L'Olivier",
    "lat": 46.3734749,
    "lng": 6.4787599,
    "candidateSource": "osm",
    "candidateFoundAt": "2026-02-11",
    "candidateOsmType": "node",
    "candidateOsmId": 6470820546,
    "candidateUrl": "http://restaurantlolivier-thonon.fr/",
    "candidatePhone": "+33 4 50 26 33 13"
  },
  {
    "id": "osm-node-6470909506-rapha-l-vionnet",
    "name": "Raphaël Vionnet",
    "lat": 46.3747967,
    "lng": 6.4780457,
    "candidateSource": "osm",
    "candidateFoundAt": "2026-02-11",
    "candidateOsmType": "node",
    "candidateOsmId": 6470909506,
    "candidateUrl": "http://raphaelvionnet.fr/",
    "candidatePhone": "+33 4 50 72 24 61"
  },
  {
    "id": "osm-node-6501212358-terrasse-d-ouchy",
    "name": "Terrasse d'Ouchy",
    "lat": 46.5065757,
    "lng": 6.6257375,
    "candidateSource": "osm",
    "candidateFoundAt": "2026-02-11",
    "candidateOsmType": "node",
    "candidateOsmId": 6501212358,
    "candidateUrl": "https://www.terrasse-ouchy.ch/",
    "candidatePhone": "+41 21 617 42 24",
    "candidateHours": "Mo-Su 10:00-23:00"
  },
  {
    "id": "osm-node-6538012185-l-instant-t",
    "name": "L'Instant T",
    "lat": 46.3742078,
    "lng": 6.4814886,
    "candidateSource": "osm",
    "candidateFoundAt": "2026-02-11",
    "candidateOsmType": "node",
    "candidateOsmId": 6538012185
  },
  {
    "id": "osm-node-6547616005-la-terrasse-du-port",
    "name": "La Terrasse du Port",
    "lat": 46.3858795,
    "lng": 6.8542634,
    "candidateSource": "osm",
    "candidateFoundAt": "2026-02-11",
    "candidateOsmType": "node",
    "candidateOsmId": 6547616005,
    "candidateUrl": "https://laterrasseduport.ch/",
    "candidatePhone": "+41 24 481 27 42",
    "candidateHours": "Sep 18-May 14 Mo-Su 08:00-23:00; May 15-Sep 15 Mo-Su 09:00-24:00"
  },
  {
    "id": "osm-node-6744588056-la-rive-lounge-bar",
    "name": "La Rive Lounge Bar",
    "lat": 46.5088369,
    "lng": 6.4964599,
    "candidateSource": "osm",
    "candidateFoundAt": "2026-02-11",
    "candidateOsmType": "node",
    "candidateOsmId": 6744588056,
    "candidateHours": "Mo-Fr 08:00-24:00, Sa 08:00-02:00, Su 09:00-24:00",
    "candidateUrl": ""
  },
  {
    "id": "osm-node-6758315602-relais-des-voyageurs",
    "name": "Relais des Voyageurs",
    "lat": 46.3981717,
    "lng": 6.5767819,
    "candidateSource": "osm",
    "candidateFoundAt": "2026-02-11",
    "candidateOsmType": "node",
    "candidateOsmId": 6758315602,
    "candidateUrl": ""
  },
  {
    "id": "osm-node-6758315603-evian-express",
    "name": "Evian Express",
    "lat": 46.3983141,
    "lng": 6.5776429,
    "candidateSource": "osm",
    "candidateFoundAt": "2026-02-11",
    "candidateOsmType": "node",
    "candidateOsmId": 6758315603,
    "candidateHours": "Mo-Su 08:00-12:00, 14:00-21:00",
    "candidateUrl": ""
  },
  {
    "id": "osm-node-7090586483-ma-cocotte",
    "name": "Ma Cocotte",
    "lat": 46.4580245,
    "lng": 6.8473549,
    "candidateSource": "osm",
    "candidateFoundAt": "2026-02-11",
    "candidateOsmType": "node",
    "candidateOsmId": 7090586483,
    "candidateUrl": "https://www.macocotte.ch/",
    "candidatePhone": "+41 21 921 73 77"
  },
  {
    "id": "osm-node-7090679621-pummaro-pizzas",
    "name": "Pummaro pizzas",
    "lat": 46.4586372,
    "lng": 6.847696,
    "candidateSource": "osm",
    "candidateFoundAt": "2026-02-11",
    "candidateOsmType": "node",
    "candidateOsmId": 7090679621,
    "candidateUrl": "https://pummaro.ch/",
    "candidatePhone": "+41 21 922 34 65",
    "candidateHours": "Mo-Su 12:00-14:00, 18:00-23:00"
  },
  {
    "id": "osm-node-7108827885-l-embuscade",
    "name": "L’Embuscade",
    "lat": 46.4003291,
    "lng": 6.5876985,
    "candidateSource": "osm",
    "candidateFoundAt": "2026-02-11",
    "candidateOsmType": "node",
    "candidateOsmId": 7108827885
  },
  {
    "id": "osm-node-7160273930-le-salon",
    "name": "Le Salon",
    "lat": 46.400328,
    "lng": 6.5932151,
    "candidateSource": "osm",
    "candidateFoundAt": "2026-02-11",
    "candidateOsmType": "node",
    "candidateOsmId": 7160273930
  },
  {
    "id": "osm-node-7160273939-l-optimist",
    "name": "L'Optimist",
    "lat": 46.4003321,
    "lng": 6.5934505,
    "candidateSource": "osm",
    "candidateFoundAt": "2026-02-11",
    "candidateOsmType": "node",
    "candidateOsmId": 7160273939
  },
  {
    "id": "osm-node-7232203906-guillaume-bichet",
    "name": "Guillaume Bichet",
    "lat": 46.3159848,
    "lng": 6.192918,
    "candidateSource": "osm",
    "candidateFoundAt": "2026-02-11",
    "candidateOsmType": "node",
    "candidateOsmId": 7232203906,
    "candidateUrl": ""
  },
  {
    "id": "osm-node-7232646029-la-cop-tane",
    "name": "La Copétane",
    "lat": 46.3162983,
    "lng": 6.1932264,
    "candidateSource": "osm",
    "candidateFoundAt": "2026-02-11",
    "candidateOsmType": "node",
    "candidateOsmId": 7232646029,
    "candidateUrl": ""
  },
  {
    "id": "osm-node-7379576049-l-amiral",
    "name": "L'Amiral",
    "lat": 46.3952591,
    "lng": 6.540892,
    "candidateSource": "osm",
    "candidateFoundAt": "2026-02-11",
    "candidateOsmType": "node",
    "candidateOsmId": 7379576049
  },
  {
    "id": "osm-node-7501688641-filum",
    "name": "Filumé",
    "lat": 46.4579609,
    "lng": 6.8491761,
    "candidateSource": "osm",
    "candidateFoundAt": "2026-02-11",
    "candidateOsmType": "node",
    "candidateOsmId": 7501688641,
    "candidateUrl": "https://filume.ch",
    "candidatePhone": "+41 21 921 66 10",
    "candidateHours": "Mo 11:30-15:00; We-Su 11:30-15:00, 18:00-22:00"
  },
  {
    "id": "osm-node-7784009521-buvette-du-port-de-crans",
    "name": "Buvette du Port de Crans",
    "lat": 46.3594574,
    "lng": 6.217168,
    "candidateSource": "osm",
    "candidateFoundAt": "2026-02-11",
    "candidateOsmType": "node",
    "candidateOsmId": 7784009521,
    "candidateUrl": ""
  },
  {
    "id": "osm-node-7790862886-le-passe-franc",
    "name": "Le Passe Franc",
    "lat": 46.3707232,
    "lng": 6.3248428,
    "candidateSource": "osm",
    "candidateFoundAt": "2026-02-11",
    "candidateOsmType": "node",
    "candidateOsmId": 7790862886,
    "candidateUrl": ""
  },
  {
    "id": "osm-node-7837055886-le-chamarel-restaurant",
    "name": "Le chamarel restaurant",
    "lat": 46.5067644,
    "lng": 6.6659776,
    "candidateSource": "osm",
    "candidateFoundAt": "2026-02-11",
    "candidateOsmType": "node",
    "candidateOsmId": 7837055886,
    "candidateUrl": "https://www.lechamarelresto.ch/",
    "candidatePhone": "+41 21 711 14 87",
    "candidateHours": "Tu-Su 10:00-18:00; Jun 20-Sep 21: Mo-Su 09:00-20:00"
  },
  {
    "id": "osm-node-7883588285-grand-rue-13",
    "name": "Grand Rue 13",
    "lat": 46.5026933,
    "lng": 6.6845419,
    "candidateSource": "osm",
    "candidateFoundAt": "2026-02-11",
    "candidateOsmType": "node",
    "candidateOsmId": 7883588285,
    "candidateUrl": ""
  },
  {
    "id": "osm-node-7898138524-bistrot-du-port",
    "name": "Bistrot du port",
    "lat": 46.3595519,
    "lng": 6.2172269,
    "candidateSource": "osm",
    "candidateFoundAt": "2026-02-11",
    "candidateOsmType": "node",
    "candidateOsmId": 7898138524,
    "candidateUrl": ""
  },
  {
    "id": "osm-node-7914061130-tomsab-thai-restaurant",
    "name": "TomSab Thai Restaurant",
    "lat": 46.4579262,
    "lng": 6.8514747,
    "candidateSource": "osm",
    "candidateFoundAt": "2026-02-11",
    "candidateOsmType": "node",
    "candidateOsmId": 7914061130,
    "candidateUrl": "https://www.tomsab.ch",
    "candidatePhone": "+41 21 922 42 42",
    "candidateHours": "Su-Fr 10:30-14:00,17:30-21:00; Sa 17:30-21:00"
  },
  {
    "id": "osm-node-7914061131-caf-des-argiles",
    "name": "Café des Argiles",
    "lat": 46.457813,
    "lng": 6.8504201,
    "candidateSource": "osm",
    "candidateFoundAt": "2026-02-11",
    "candidateOsmType": "node",
    "candidateOsmId": 7914061131,
    "candidateUrl": "https://lecafedesargiles.ch/",
    "candidatePhone": "+41 21 921 17 58",
    "candidateHours": "Mo-Fr 09:00-17:00"
  },
  {
    "id": "osm-node-7968064134-h-tel-les-cygnes",
    "name": "Hôtel les Cygnes",
    "lat": 46.4029688,
    "lng": 6.6110136,
    "candidateSource": "osm",
    "candidateFoundAt": "2026-02-11",
    "candidateOsmType": "node",
    "candidateOsmId": 7968064134,
    "candidateUrl": "https://www.hotellescygnes.com/restaurant-evian-lac-leman",
    "candidatePhone": "+33 4 50 75 01 01"
  },
  {
    "id": "osm-node-7968064194-villa-c-cile",
    "name": "Villa Cécile",
    "lat": 46.3683909,
    "lng": 6.322811,
    "candidateSource": "osm",
    "candidateFoundAt": "2026-02-11",
    "candidateOsmType": "node",
    "candidateOsmId": 7968064194,
    "candidateUrl": "http://www.villacecile.com/fr/index.php",
    "candidatePhone": "+33 4 50 72 27 40"
  },
  {
    "id": "osm-node-7977425185-la-gondola",
    "name": "La Gondola",
    "lat": 46.3952768,
    "lng": 6.9230729,
    "candidateSource": "osm",
    "candidateFoundAt": "2026-02-11",
    "candidateOsmType": "node",
    "candidateOsmId": 7977425185,
    "candidateUrl": "https://www.la-gondola-veneziana.ch/",
    "candidatePhone": "+41 21 960 31 36",
    "candidateHours": "Mo,Th,Fr,Sa 08:30-15:00,18:00-24:00; Tu 08:30-15:00; Su 08:30-15:00"
  },
  {
    "id": "osm-node-7985876082-w-ff",
    "name": "WØFF",
    "lat": 46.4583326,
    "lng": 6.8466475,
    "candidateSource": "osm",
    "candidateFoundAt": "2026-02-11",
    "candidateOsmType": "node",
    "candidateOsmId": 7985876082,
    "candidateUrl": "https://www.alimentarium.org/fr/les-espaces/cafe-restaurant",
    "candidateHours": "Tu-Su 10:00-18:00"
  },
  {
    "id": "osm-node-8131580931-hoian",
    "name": "Hoian",
    "lat": 46.5076188,
    "lng": 6.6223241,
    "candidateSource": "osm",
    "candidateFoundAt": "2026-02-11",
    "candidateOsmType": "node",
    "candidateOsmId": 8131580931,
    "candidateUrl": "https://hoianbbq.com",
    "candidateHours": "Mo-Su 11:00-15:00,18:00-24:00"
  },
  {
    "id": "osm-node-8252847729-indian-paradise",
    "name": "Indian Paradise",
    "lat": 46.3954639,
    "lng": 6.923515,
    "candidateSource": "osm",
    "candidateFoundAt": "2026-02-11",
    "candidateOsmType": "node",
    "candidateOsmId": 8252847729,
    "candidateUrl": "http://www.indianparadise.ch/",
    "candidatePhone": "+41 21 968 11 53",
    "candidateHours": "Tu-Fr 10:00-14:00,17:00-21:30; Sa 10:00-15:00,18:00-22:00"
  },
  {
    "id": "osm-node-8408103851-r-tisserie-du-lac",
    "name": "Rôtisserie du Lac",
    "lat": 46.3170281,
    "lng": 6.1940229,
    "candidateSource": "osm",
    "candidateFoundAt": "2026-02-11",
    "candidateOsmType": "node",
    "candidateOsmId": 8408103851,
    "candidateUrl": ""
  },
  {
    "id": "osm-node-8563946253-le-pastagala",
    "name": "Le Pastagala",
    "lat": 46.5129867,
    "lng": 6.4978743,
    "candidateSource": "osm",
    "candidateFoundAt": "2026-02-11",
    "candidateOsmType": "node",
    "candidateOsmId": 8563946253
  },
  {
    "id": "osm-node-8717999889-happy-bowl",
    "name": "Happy Bowl",
    "lat": 46.5117289,
    "lng": 6.4998089,
    "candidateSource": "osm",
    "candidateFoundAt": "2026-02-11",
    "candidateOsmType": "node",
    "candidateOsmId": 8717999889,
    "candidateUrl": "https://morges.happybowl.ch/",
    "candidatePhone": "+41 21 552 25 55",
    "candidateHours": "Mo-Su 10:00-14:00, Mo-Su 18:00-21:00"
  },
  {
    "id": "osm-node-8814013413-millesens",
    "name": "Millesens",
    "lat": 46.5102336,
    "lng": 6.4993914,
    "candidateSource": "osm",
    "candidateFoundAt": "2026-02-11",
    "candidateOsmType": "node",
    "candidateOsmId": 8814013413
  },
  {
    "id": "osm-node-8828983640-la-presque",
    "name": "La Presque",
    "lat": 46.5055018,
    "lng": 6.4970015,
    "candidateSource": "osm",
    "candidateFoundAt": "2026-02-11",
    "candidateOsmType": "node",
    "candidateOsmId": 8828983640,
    "candidateHours": "Jun-Aug Mo-Su 11:00-24:00"
  },
  {
    "id": "osm-node-8859861239-la-g-n-rale",
    "name": "La Générale",
    "lat": 46.5054991,
    "lng": 6.6614178,
    "candidateSource": "osm",
    "candidateFoundAt": "2026-02-11",
    "candidateOsmType": "node",
    "candidateOsmId": 8859861239,
    "candidateUrl": "https://lagenerale.ch/",
    "candidateHours": "Mo-Su 11:00-23:00"
  },
  {
    "id": "osm-node-8933246617-taverne-de-la-tour",
    "name": "Taverne de la Tour",
    "lat": 46.3865422,
    "lng": 6.8516614,
    "candidateSource": "osm",
    "candidateFoundAt": "2026-02-11",
    "candidateOsmType": "node",
    "candidateOsmId": 8933246617,
    "candidateUrl": "https://tavernedelatourbouveret.ch/",
    "candidatePhone": "+41 24 481 37 28",
    "candidateHours": "Mo-Su 10:00-24:00"
  },
  {
    "id": "osm-node-8933246717-la-bateli-re",
    "name": "La Batelière",
    "lat": 46.3864327,
    "lng": 6.8517261,
    "candidateSource": "osm",
    "candidateFoundAt": "2026-02-11",
    "candidateOsmType": "node",
    "candidateOsmId": 8933246717,
    "candidateUrl": "https://la-bateliere.ch/",
    "candidatePhone": "+41 24 481 23 71",
    "candidateHours": "Mo-Sa 07:30-23:00; Su 07:30-22:00"
  },
  {
    "id": "osm-node-8952093861-bikini-beach",
    "name": "Bikini Beach",
    "lat": 46.5116346,
    "lng": 6.6090542,
    "candidateSource": "osm",
    "candidateFoundAt": "2026-02-11",
    "candidateOsmType": "node",
    "candidateOsmId": 8952093861,
    "candidateUrl": ""
  },
  {
    "id": "osm-node-8968972018-la-v-randa",
    "name": "La Véranda",
    "lat": 46.503508,
    "lng": 6.4881762,
    "candidateSource": "osm",
    "candidateFoundAt": "2026-02-11",
    "candidateOsmType": "node",
    "candidateOsmId": 8968972018,
    "candidatePhone": "+41 21 801 82 82"
  },
  {
    "id": "osm-node-9026784689-auberge-du-bacouni",
    "name": "Auberge du Bacouni",
    "lat": 46.3698884,
    "lng": 6.324323,
    "candidateSource": "osm",
    "candidateFoundAt": "2026-02-11",
    "candidateOsmType": "node",
    "candidateOsmId": 9026784689,
    "candidateUrl": "http://www.bacouni.com/html/",
    "candidatePhone": "+33 4 50 72 85 67"
  },
  {
    "id": "osm-node-9060576889-la-vieille-tour",
    "name": "La Vieille Tour",
    "lat": 46.453525,
    "lng": 6.8561763,
    "candidateSource": "osm",
    "candidateFoundAt": "2026-02-11",
    "candidateOsmType": "node",
    "candidateOsmId": 9060576889,
    "candidateUrl": "https://lavieilletour.ch/",
    "candidatePhone": "+41 21 944 05 00",
    "candidateHours": "Mo-Sa 08:00-23:00"
  },
  {
    "id": "osm-node-9060607109-pin-s-bar",
    "name": "Pin's Bar",
    "lat": 46.4523503,
    "lng": 6.8574812,
    "candidateSource": "osm",
    "candidateFoundAt": "2026-02-11",
    "candidateOsmType": "node",
    "candidateOsmId": 9060607109,
    "candidateUrl": ""
  },
  {
    "id": "osm-node-9140649754-restaurant-du-lac",
    "name": "Restaurant du Lac",
    "lat": 46.3653016,
    "lng": 6.3031456,
    "candidateSource": "osm",
    "candidateFoundAt": "2026-02-11",
    "candidateOsmType": "node",
    "candidateOsmId": 9140649754,
    "candidateUrl": "https://www.restaurantdulac.net/",
    "candidatePhone": "+33 4 50 72 80 52",
    "candidateHours": "Mo-Tu 12:00-14:00; We off; Th-Fr 12:00-14:30, 19:00-21:00; Sa-Su 12:00-14:30, 19:00-21:30"
  },
  {
    "id": "osm-node-9197215817-les-jardins-du-l-man",
    "name": "Les Jardins du Léman",
    "lat": 46.3702689,
    "lng": 6.3256896,
    "candidateSource": "osm",
    "candidateFoundAt": "2026-02-11",
    "candidateOsmType": "node",
    "candidateOsmId": 9197215817,
    "candidateUrl": ""
  },
  {
    "id": "osm-node-9533058317-white-horse",
    "name": "White Horse",
    "lat": 46.5078598,
    "lng": 6.6272187,
    "candidateSource": "osm",
    "candidateFoundAt": "2026-02-11",
    "candidateOsmType": "node",
    "candidateOsmId": 9533058317,
    "candidateUrl": "https://whitehorse.ch/",
    "candidatePhone": "+41 21 616 75 75",
    "candidateHours": "Mo-Th 06:45-01:00; Fr 06:45-02:00; Sa 08:00-02:00; Su 08:00-01:00"
  },
  {
    "id": "osm-node-9687476717-villa-malfi",
    "name": "Villa Malfi",
    "lat": 46.5037184,
    "lng": 6.6799756,
    "candidateSource": "osm",
    "candidateFoundAt": "2026-02-11",
    "candidateOsmType": "node",
    "candidateOsmId": 9687476717,
    "candidateUrl": "https://villamalfi.ch/",
    "candidatePhone": "+41 21 791 07 25",
    "candidateHours": "Mo-Su 11:45-23:00"
  },
  {
    "id": "osm-node-9838532083-la-nautica",
    "name": "La Nautica",
    "lat": 46.5077021,
    "lng": 6.6226467,
    "candidateSource": "osm",
    "candidateFoundAt": "2026-02-11",
    "candidateOsmType": "node",
    "candidateOsmId": 9838532083,
    "candidateUrl": "https://lanautica.ch/"
  },
  {
    "id": "osm-node-9877493317-centre-sport-et-sant",
    "name": "Centre Sport et Santé",
    "lat": 46.5189326,
    "lng": 6.57981,
    "candidateSource": "osm",
    "candidateFoundAt": "2026-02-11",
    "candidateOsmType": "node",
    "candidateOsmId": 9877493317,
    "candidateUrl": "https://www.unil.ch/restos/fr/home/menuinst/ou-se-restaurer/self-service-du-css.html",
    "candidatePhone": "+41 21 692 48 75"
  },
  {
    "id": "osm-node-9932413333-chez-xu",
    "name": "Chez Xu",
    "lat": 46.3858272,
    "lng": 6.8525889,
    "candidateSource": "osm",
    "candidateFoundAt": "2026-02-11",
    "candidateOsmType": "node",
    "candidateOsmId": 9932413333
  },
  {
    "id": "osm-node-10076522399-uluwatu",
    "name": "Uluwatu",
    "lat": 46.5095427,
    "lng": 6.4989515,
    "candidateSource": "osm",
    "candidateFoundAt": "2026-02-11",
    "candidateOsmType": "node",
    "candidateOsmId": 10076522399
  },
  {
    "id": "osm-node-10076522401-criollita",
    "name": "Criollita",
    "lat": 46.5109649,
    "lng": 6.4990857,
    "candidateSource": "osm",
    "candidateFoundAt": "2026-02-11",
    "candidateOsmType": "node",
    "candidateOsmId": 10076522401
  },
  {
    "id": "osm-node-10076522403-salades-coquettes",
    "name": "Salades Coquettes",
    "lat": 46.5103476,
    "lng": 6.4997413,
    "candidateSource": "osm",
    "candidateFoundAt": "2026-02-11",
    "candidateOsmType": "node",
    "candidateOsmId": 10076522403,
    "candidateUrl": ""
  },
  {
    "id": "osm-node-10082403116-takayama",
    "name": "Takayama",
    "lat": 46.5087759,
    "lng": 6.6274864,
    "candidateSource": "osm",
    "candidateFoundAt": "2026-02-11",
    "candidateOsmType": "node",
    "candidateOsmId": 10082403116,
    "candidateUrl": "https://www.takayama-sushibar-lausanne.ch/",
    "candidatePhone": "+41 21 601 98 88",
    "candidateHours": "Mo-Su 18:00-21:30"
  },
  {
    "id": "osm-node-10801379037-l-eden",
    "name": "L'Eden",
    "lat": 46.4011252,
    "lng": 6.5880357,
    "candidateSource": "osm",
    "candidateFoundAt": "2026-02-11",
    "candidateOsmType": "node",
    "candidateOsmId": 10801379037
  },
  {
    "id": "osm-node-10801379038-l-instant-gourmand",
    "name": "L'instant gourmand",
    "lat": 46.4008861,
    "lng": 6.5880304,
    "candidateSource": "osm",
    "candidateFoundAt": "2026-02-11",
    "candidateOsmType": "node",
    "candidateOsmId": 10801379038,
    "candidateUrl": ""
  },
  {
    "id": "osm-node-11081365603-annexe-du-restaurant-du-lac",
    "name": "Annexe du restaurant du LAc",
    "lat": 46.3651563,
    "lng": 6.3031585,
    "candidateSource": "osm",
    "candidateFoundAt": "2026-02-11",
    "candidateOsmType": "node",
    "candidateOsmId": 11081365603,
    "candidateUrl": ""
  },
  {
    "id": "osm-node-11622776134-l-picurienne",
    "name": "L'épicurienne",
    "lat": 46.3922924,
    "lng": 6.8047021,
    "candidateSource": "osm",
    "candidateFoundAt": "2026-02-11",
    "candidateOsmType": "node",
    "candidateOsmId": 11622776134,
    "candidateUrl": "https://www.epicurienne.ch/",
    "candidatePhone": "+41 24 481 81 04",
    "candidateHours": "Mo 07:00-14:00; Tu-Th 07:00-14:00,17:00-19:00; Fr 07:00-14:00,17:00-21:00; Sa 08:00-11:45"
  },
  {
    "id": "osm-node-11658187969-simounye-tapas-restaurant",
    "name": "Simounye Tapas Restaurant",
    "lat": 46.3171132,
    "lng": 6.1938777,
    "candidateSource": "osm",
    "candidateFoundAt": "2026-02-11",
    "candidateOsmType": "node",
    "candidateOsmId": 11658187969,
    "candidateUrl": "https://simunye.com/",
    "candidatePhone": "+41 22 776 02 55",
    "candidateHours": "Tu-Sa 17:30-22:30"
  },
  {
    "id": "osm-node-11806621694-perle-d-asie-spring",
    "name": "Perle d'Asie, Spring",
    "lat": 46.3930539,
    "lng": 6.8050897,
    "candidateSource": "osm",
    "candidateFoundAt": "2026-02-11",
    "candidateOsmType": "node",
    "candidateOsmId": 11806621694,
    "candidateUrl": ""
  },
  {
    "id": "osm-node-11810703965-le-commerce",
    "name": "Le Commerce",
    "lat": 46.3932435,
    "lng": 6.8044645,
    "candidateSource": "osm",
    "candidateFoundAt": "2026-02-11",
    "candidateOsmType": "node",
    "candidateOsmId": 11810703965
  },
  {
    "id": "osm-node-11931168369-la-rincette",
    "name": "La Rincette",
    "lat": 46.5120666,
    "lng": 6.6020681,
    "candidateSource": "osm",
    "candidateFoundAt": "2026-02-11",
    "candidateOsmType": "node",
    "candidateOsmId": 11931168369,
    "candidateHours": "11:00-24:00"
  },
  {
    "id": "osm-node-12052874021-la-table-de-nernier",
    "name": "La Table de Nernier",
    "lat": 46.365563,
    "lng": 6.3036585,
    "candidateSource": "osm",
    "candidateFoundAt": "2026-02-11",
    "candidateOsmType": "node",
    "candidateOsmId": 12052874021,
    "candidateUrl": ""
  },
  {
    "id": "osm-node-12052874023-la-paillotte-du-port",
    "name": "La Paillotte du Port",
    "lat": 46.3643253,
    "lng": 6.302384,
    "candidateSource": "osm",
    "candidateFoundAt": "2026-02-11",
    "candidateOsmType": "node",
    "candidateOsmId": 12052874023,
    "candidateUrl": ""
  },
  {
    "id": "osm-node-12052874024-caf-de-la-com-te",
    "name": "Café de la Comète",
    "lat": 46.3650272,
    "lng": 6.3040995,
    "candidateSource": "osm",
    "candidateFoundAt": "2026-02-11",
    "candidateOsmType": "node",
    "candidateOsmId": 12052874024,
    "candidateUrl": ""
  },
  {
    "id": "osm-node-12052874025-le-pti-bar",
    "name": "Le Pti Bar",
    "lat": 46.365367,
    "lng": 6.3034869,
    "candidateSource": "osm",
    "candidateFoundAt": "2026-02-11",
    "candidateOsmType": "node",
    "candidateOsmId": 12052874025,
    "candidateUrl": ""
  },
  {
    "id": "osm-node-12075078022-les-jardins-de-la-confr-rie",
    "name": "Les Jardins de la Confrérie",
    "lat": 46.4579421,
    "lng": 6.8485852,
    "candidateSource": "osm",
    "candidateFoundAt": "2026-02-11",
    "candidateOsmType": "node",
    "candidateOsmId": 12075078022,
    "candidateUrl": ""
  },
  {
    "id": "osm-node-12075905487-da-roberto",
    "name": "Da Roberto",
    "lat": 46.5069205,
    "lng": 6.667067,
    "candidateSource": "osm",
    "candidateFoundAt": "2026-02-11",
    "candidateOsmType": "node",
    "candidateOsmId": 12075905487
  },
  {
    "id": "osm-node-12325531343-milano-pizza",
    "name": "Milano Pizza",
    "lat": 46.4010589,
    "lng": 6.5947901,
    "candidateSource": "osm",
    "candidateFoundAt": "2026-02-11",
    "candidateOsmType": "node",
    "candidateOsmId": 12325531343,
    "candidateUrl": ""
  },
  {
    "id": "osm-node-12326717906-la-vaudaire",
    "name": "La Vaudaire",
    "lat": 46.4012051,
    "lng": 6.5942768,
    "candidateSource": "osm",
    "candidateFoundAt": "2026-02-11",
    "candidateOsmType": "node",
    "candidateOsmId": 12326717906
  },
  {
    "id": "osm-node-12365580801-smaggy-burgers-branch",
    "name": "Smaggy Burgers & Branch",
    "lat": 46.5119791,
    "lng": 6.6091723,
    "candidateSource": "osm",
    "candidateFoundAt": "2026-02-11",
    "candidateOsmType": "node",
    "candidateOsmId": 12365580801,
    "candidateUrl": "https://www.smaggy.ch/",
    "candidatePhone": "+41 21 543 61 04",
    "candidateHours": "Tu-We 11:00-14:00, 18:00-22:00; Th-Sa 11:00-14:00, 18:00-23:00; Su 10:00-14:00"
  },
  {
    "id": "osm-node-12425681901-pedalo-cr-perie-ateliers-picerie",
    "name": "Pedalo crêperie, ateliers & épicerie",
    "lat": 46.4004271,
    "lng": 6.5926123,
    "candidateSource": "osm",
    "candidateFoundAt": "2026-02-11",
    "candidateOsmType": "node",
    "candidateOsmId": 12425681901,
    "candidateUrl": ""
  },
  {
    "id": "osm-node-12496886148-epicerie-hermance",
    "name": "Epicerie Hermance",
    "lat": 46.3023328,
    "lng": 6.244581,
    "candidateSource": "osm",
    "candidateFoundAt": "2026-02-11",
    "candidateOsmType": "node",
    "candidateOsmId": 12496886148,
    "candidateUrl": ""
  },
  {
    "id": "osm-node-12536201656-koko-sushi",
    "name": "Koko Sushi",
    "lat": 46.3992413,
    "lng": 6.5810144,
    "candidateSource": "osm",
    "candidateFoundAt": "2026-02-11",
    "candidateOsmType": "node",
    "candidateOsmId": 12536201656,
    "candidateUrl": "https://kokosushi.fr",
    "candidatePhone": "+33 4 50 79 54 49",
    "candidateHours": "Mo 18:30-22:30; Tu,We,Th,Sa,Su 11:30-14:00,18:30-22:30; Fr 11:30-14:00,18:00-22:30"
  },
  {
    "id": "osm-node-12536201659-whynot-bar",
    "name": "WhyNot Bar",
    "lat": 46.3992524,
    "lng": 6.5810922,
    "candidateSource": "osm",
    "candidateFoundAt": "2026-02-11",
    "candidateOsmType": "node",
    "candidateOsmId": 12536201659,
    "candidateUrl": "https://www.whynot-bar.com",
    "candidatePhone": "+33 4 50 75 29 94",
    "candidateHours": "Su-We 20:00-03:00; Th-Sa 20:00-05:00"
  },
  {
    "id": "osm-node-12613411210-kaiseki-by-manabu",
    "name": "KAISEKI BY MANABU",
    "lat": 46.4584472,
    "lng": 6.8478499,
    "candidateSource": "osm",
    "candidateFoundAt": "2026-02-11",
    "candidateOsmType": "node",
    "candidateOsmId": 12613411210,
    "candidateUrl": "https://www.hoteltroiscouronnes.ch/fr/restaurants-bar/manabu-restaurant/"
  },
  {
    "id": "osm-node-12613592220-emotions-by-guy-ravet",
    "name": "EMOTIONS by Guy Ravet",
    "lat": 46.4578065,
    "lng": 6.8518435,
    "candidateSource": "osm",
    "candidateFoundAt": "2026-02-11",
    "candidateOsmType": "node",
    "candidateOsmId": 12613592220,
    "candidateUrl": "https://www.ghdl.ch/fr/restaurants-bars/emotions-guy-ravet/"
  },
  {
    "id": "osm-node-12662639455-cr-perie-d-or",
    "name": "Crêperie d'Or",
    "lat": 46.5098066,
    "lng": 6.499217,
    "candidateSource": "osm",
    "candidateFoundAt": "2026-02-11",
    "candidateOsmType": "node",
    "candidateOsmId": 12662639455
  },
  {
    "id": "osm-node-12718694951-la-table-du-10",
    "name": "La Table du 10",
    "lat": 46.382055,
    "lng": 6.2396005,
    "candidateSource": "osm",
    "candidateFoundAt": "2026-02-11",
    "candidateOsmType": "node",
    "candidateOsmId": 12718694951,
    "candidateUrl": "https://latabledu10.ch/",
    "candidatePhone": "+41 22 361 09 10"
  },
  {
    "id": "osm-node-12737458464-le-pirate",
    "name": "Le Pirate",
    "lat": 46.3701589,
    "lng": 6.3241419,
    "candidateSource": "osm",
    "candidateFoundAt": "2026-02-11",
    "candidateOsmType": "node",
    "candidateOsmId": 12737458464,
    "candidateUrl": "http://www.restaurant-le-pirate-yvoire.com/",
    "candidatePhone": "+33450728361"
  },
  {
    "id": "osm-node-12953528813-le-rivage-chez-monmon",
    "name": "Le Rivage \"Chez Monmon\"",
    "lat": 46.393693,
    "lng": 6.805511,
    "candidateSource": "osm",
    "candidateFoundAt": "2026-02-11",
    "candidateOsmType": "node",
    "candidateOsmId": 12953528813,
    "candidatePhone": "+41 24 482 70 32",
    "candidateHours": "Mo-Th 08:00-14:30; Fr-Su 08:00-22:00",
    "candidateUrl": ""
  },
  {
    "id": "osm-node-12959830001-la-brasserie-du-chalet-du-port",
    "name": "La Brasserie du Chalet du Port",
    "lat": 46.3402339,
    "lng": 6.3899162,
    "candidateSource": "osm",
    "candidateFoundAt": "2026-02-11",
    "candidateOsmType": "node",
    "candidateOsmId": 12959830001,
    "candidateUrl": "https://labrasserieduchaletduport.fr/",
    "candidatePhone": "+33 6 87 13 28 49"
  },
  {
    "id": "osm-node-12959830101-le-noeud-de-8",
    "name": "Le Noeud de 8",
    "lat": 46.3396002,
    "lng": 6.390781,
    "candidateSource": "osm",
    "candidateFoundAt": "2026-02-11",
    "candidateOsmType": "node",
    "candidateOsmId": 12959830101,
    "candidateUrl": "https://au-noeud-de-8.odoo.com/",
    "candidatePhone": "+33 4 50 17 30 73",
    "candidateHours": "Fr-We 12:00-21:30"
  },
  {
    "id": "osm-node-13115189290-madame-kim",
    "name": "Madame Kim",
    "lat": 46.5096045,
    "lng": 6.4997099,
    "candidateSource": "osm",
    "candidateFoundAt": "2026-02-11",
    "candidateOsmType": "node",
    "candidateOsmId": 13115189290,
    "candidateUrl": "https://www.madamekim.ch/",
    "candidateHours": "Mo-Fr 11:00-19:00; Sa 11:00-15:00"
  },
  {
    "id": "osm-node-13196253908-la-terrasse",
    "name": "La Terrasse",
    "lat": 46.5077451,
    "lng": 6.6301706,
    "candidateSource": "osm",
    "candidateFoundAt": "2026-02-11",
    "candidateOsmType": "node",
    "candidateOsmId": 13196253908,
    "candidateUrl": "https://www.brp.ch/restaurants-bars/la-terrasse/"
  },
  {
    "id": "osm-node-13196265987-caf-beau-rivage",
    "name": "Café Beau-Rivage",
    "lat": 46.5078604,
    "lng": 6.6299365,
    "candidateSource": "osm",
    "candidateFoundAt": "2026-02-11",
    "candidateOsmType": "node",
    "candidateOsmId": 13196265987,
    "candidateUrl": "https://www.brp.ch/restaurants-bars/cafe-beau-rivage/"
  },
  {
    "id": "osm-node-13227586301-le-kiosque-du-contretemps",
    "name": "Le Kiosque du Contretemps",
    "lat": 46.4258845,
    "lng": 6.9223073,
    "candidateSource": "osm",
    "candidateFoundAt": "2026-02-11",
    "candidateOsmType": "node",
    "candidateOsmId": 13227586301,
    "candidateUrl": ""
  },
  {
    "id": "osm-node-13256457942-a-c-t",
    "name": "A Côté",
    "lat": 46.3822571,
    "lng": 6.2403262,
    "candidateSource": "osm",
    "candidateFoundAt": "2026-02-11",
    "candidateOsmType": "node",
    "candidateOsmId": 13256457942,
    "candidateUrl": "https://acotenyon.ch/",
    "candidatePhone": "+41 22 565 25 55"
  },
  {
    "id": "osm-way-44157827-le-carrousel-de-vidy",
    "name": "Le Carrousel de Vidy",
    "lat": 46.5128587,
    "lng": 6.6061327,
    "candidateSource": "osm",
    "candidateFoundAt": "2026-02-11",
    "candidateOsmType": "way",
    "candidateOsmId": 44157827,
    "candidateUrl": "https://www.restaurant-carrousel-vidy.ch/",
    "candidatePhone": "+41 21 601 40 30",
    "candidateHours": "Tu-Su 11:00-24:00"
  },
  {
    "id": "osm-way-44772670-le-lacustre",
    "name": "Le Lacustre",
    "lat": 46.504925,
    "lng": 6.6276291,
    "candidateSource": "osm",
    "candidateFoundAt": "2026-02-11",
    "candidateOsmType": "way",
    "candidateOsmId": 44772670,
    "candidateUrl": "https://www.thelacustre.com",
    "candidatePhone": "+41 21 617 42 00",
    "candidateHours": "We 14:00-00:00; Th 14:00-01:00; Fr 14:00-02:00; Sa 11:00-02:00; Su 11:00-00:00"
  },
  {
    "id": "osm-way-53210580-buvette",
    "name": "Buvette",
    "lat": 46.3915651,
    "lng": 6.2555442,
    "candidateSource": "osm",
    "candidateFoundAt": "2026-02-11",
    "candidateOsmType": "way",
    "candidateOsmId": 53210580
  },
  {
    "id": "osm-way-66975214-le-franco-suisse",
    "name": "Le Franco Suisse",
    "lat": 46.4005481,
    "lng": 6.5913999,
    "candidateSource": "osm",
    "candidateFoundAt": "2026-02-11",
    "candidateOsmType": "way",
    "candidateOsmId": 66975214,
    "candidateUrl": ""
  },
  {
    "id": "osm-way-66975401-l-hexagone",
    "name": "L'hexagone",
    "lat": 46.40029,
    "lng": 6.5866298,
    "candidateSource": "osm",
    "candidateFoundAt": "2026-02-11",
    "candidateOsmType": "way",
    "candidateOsmId": 66975401
  },
  {
    "id": "osm-way-66975717-le-shiraz",
    "name": "Le shiraz",
    "lat": 46.400292,
    "lng": 6.5862664,
    "candidateSource": "osm",
    "candidateFoundAt": "2026-02-11",
    "candidateOsmType": "way",
    "candidateOsmId": 66975717
  },
  {
    "id": "osm-way-66975881-au-cabestan",
    "name": "Au Cabestan",
    "lat": 46.4017649,
    "lng": 6.6027441,
    "candidateSource": "osm",
    "candidateFoundAt": "2026-02-11",
    "candidateOsmType": "way",
    "candidateOsmId": 66975881
  },
  {
    "id": "osm-way-66976461-pizza-rapido",
    "name": "Pizza rapido",
    "lat": 46.4006318,
    "lng": 6.5877167,
    "candidateSource": "osm",
    "candidateFoundAt": "2026-02-11",
    "candidateOsmType": "way",
    "candidateOsmId": 66976461,
    "candidateUrl": ""
  },
  {
    "id": "osm-way-66976634-l-amphore",
    "name": "L'amphore",
    "lat": 46.4012176,
    "lng": 6.5882534,
    "candidateSource": "osm",
    "candidateFoundAt": "2026-02-11",
    "candidateOsmType": "way",
    "candidateOsmId": 66976634,
    "candidateUrl": "https://lamphore-evian.fr/",
    "candidatePhone": "+33 4 50 75 40 72"
  },
  {
    "id": "osm-way-66976720-la-voile",
    "name": "La Voile",
    "lat": 46.4022526,
    "lng": 6.6054082,
    "candidateSource": "osm",
    "candidateFoundAt": "2026-02-11",
    "candidateOsmType": "way",
    "candidateOsmId": 66976720,
    "candidateUrl": "https://www.la-voile.fr/",
    "candidatePhone": "+33 4 50 75 53 84",
    "candidateHours": "Th-Tu 10:00-18:00; We off"
  },
  {
    "id": "osm-way-66976820-tuppy-beach",
    "name": "Tuppy Beach",
    "lat": 46.4018296,
    "lng": 6.6035405,
    "candidateSource": "osm",
    "candidateFoundAt": "2026-02-11",
    "candidateOsmType": "way",
    "candidateOsmId": 66976820,
    "candidateUrl": ""
  },
  {
    "id": "osm-way-66976941-la-cuisine-des-sables",
    "name": "La cuisine des Sables",
    "lat": 46.4002926,
    "lng": 6.5915054,
    "candidateSource": "osm",
    "candidateFoundAt": "2026-02-11",
    "candidateOsmType": "way",
    "candidateOsmId": 66976941,
    "candidateUrl": ""
  },
  {
    "id": "osm-way-66977298-le-muratore",
    "name": "Le Muratore",
    "lat": 46.4006543,
    "lng": 6.5911593,
    "candidateSource": "osm",
    "candidateFoundAt": "2026-02-11",
    "candidateOsmType": "way",
    "candidateOsmId": 66977298
  },
  {
    "id": "osm-way-66977432-le-patio",
    "name": "Le Patio",
    "lat": 46.4004838,
    "lng": 6.5878382,
    "candidateSource": "osm",
    "candidateFoundAt": "2026-02-11",
    "candidateOsmType": "way",
    "candidateOsmId": 66977432
  },
  {
    "id": "osm-way-66977475-china-town",
    "name": "China Town",
    "lat": 46.4002275,
    "lng": 6.5927985,
    "candidateSource": "osm",
    "candidateFoundAt": "2026-02-11",
    "candidateOsmType": "way",
    "candidateOsmId": 66977475,
    "candidateUrl": ""
  },
  {
    "id": "osm-way-66977892-bistrot-le-120",
    "name": "Bistrot le 120",
    "lat": 46.4005138,
    "lng": 6.587563,
    "candidateSource": "osm",
    "candidateFoundAt": "2026-02-11",
    "candidateOsmType": "way",
    "candidateOsmId": 66977892,
    "candidateUrl": ""
  },
  {
    "id": "osm-way-66978078-kdyos",
    "name": "Kdyos",
    "lat": 46.4010047,
    "lng": 6.5921863,
    "candidateSource": "osm",
    "candidateFoundAt": "2026-02-11",
    "candidateOsmType": "way",
    "candidateOsmId": 66978078
  },
  {
    "id": "osm-way-67008940-h-tel-bar-restaurant-l-amiral",
    "name": "Hôtel Bar restaurant L'amiral",
    "lat": 46.3953879,
    "lng": 6.5411969,
    "candidateSource": "osm",
    "candidateFoundAt": "2026-02-11",
    "candidateOsmType": "way",
    "candidateOsmId": 67008940,
    "candidateUrl": ""
  },
  {
    "id": "osm-way-67050106-my-ami",
    "name": "My Ami",
    "lat": 46.3730475,
    "lng": 6.4784933,
    "candidateSource": "osm",
    "candidateFoundAt": "2026-02-11",
    "candidateOsmType": "way",
    "candidateOsmId": 67050106
  },
  {
    "id": "osm-way-69005589-la-godille",
    "name": "La Godille",
    "lat": 46.3630104,
    "lng": 6.4414713,
    "candidateSource": "osm",
    "candidateFoundAt": "2026-02-11",
    "candidateOsmType": "way",
    "candidateOsmId": 69005589
  },
  {
    "id": "osm-way-69011800-la-vieille-porte",
    "name": "La Vieille Porte",
    "lat": 46.3697729,
    "lng": 6.3273597,
    "candidateSource": "osm",
    "candidateFoundAt": "2026-02-11",
    "candidateOsmType": "way",
    "candidateOsmId": 69011800,
    "candidateUrl": "http://la-vieille-porte.com/",
    "candidatePhone": "+33 4 50 72 80 14"
  },
  {
    "id": "osm-way-69051233-le-jolla",
    "name": "Le Jolla",
    "lat": 46.3510123,
    "lng": 6.4045337,
    "candidateSource": "osm",
    "candidateFoundAt": "2026-02-11",
    "candidateOsmType": "way",
    "candidateOsmId": 69051233,
    "candidateUrl": "http://www.lejolla.com/",
    "candidatePhone": "+33 4 50 72 63 06"
  },
  {
    "id": "osm-way-69052604-les-cygnes",
    "name": "Les Cygnes",
    "lat": 46.3501562,
    "lng": 6.4028328,
    "candidateSource": "osm",
    "candidateFoundAt": "2026-02-11",
    "candidateOsmType": "way",
    "candidateOsmId": 69052604,
    "candidateUrl": "http://www.restaurant-les-cygnes-chez-jules.fr/",
    "candidatePhone": "+33 4 50 72 63 10"
  },
  {
    "id": "osm-way-69053135-le-redon",
    "name": "Le Redon",
    "lat": 46.3499343,
    "lng": 6.4001982,
    "candidateSource": "osm",
    "candidateFoundAt": "2026-02-11",
    "candidateOsmType": "way",
    "candidateOsmId": 69053135,
    "candidatePhone": "+33 4 50 72 27 51"
  },
  {
    "id": "osm-way-69053174-sechex-nous",
    "name": "Sechex-nous",
    "lat": 46.3491066,
    "lng": 6.4021201,
    "candidateSource": "osm",
    "candidateFoundAt": "2026-02-11",
    "candidateOsmType": "way",
    "candidateOsmId": 69053174,
    "candidateUrl": "https://www.sechex-nous.com/",
    "candidatePhone": "+33 4 50 72 48 81",
    "candidateHours": "Mo off; Tu 19:15-21:30; We-Sa 12:15-13:45, 19:15-21:30; Su 12:15-13:45"
  },
  {
    "id": "osm-way-69053607-le-l-man",
    "name": "Le Léman",
    "lat": 46.3506766,
    "lng": 6.4035892,
    "candidateSource": "osm",
    "candidateFoundAt": "2026-02-11",
    "candidateOsmType": "way",
    "candidateOsmId": 69053607,
    "candidateUrl": "http://www.restaurant-le-leman.fr/",
    "candidatePhone": "+33 4 50 72 63 16"
  },
  {
    "id": "osm-way-87649859-restaurant-du-tennis",
    "name": "Restaurant du Tennis",
    "lat": 46.5047503,
    "lng": 6.4896255,
    "candidateSource": "osm",
    "candidateFoundAt": "2026-02-11",
    "candidateOsmType": "way",
    "candidateOsmId": 87649859,
    "candidateUrl": "http://www.restaurantdutennis.ch",
    "candidatePhone": "+41 21 801 60 35"
  },
  {
    "id": "osm-way-89292462-la-terrasse",
    "name": "La Terrasse",
    "lat": 46.5039194,
    "lng": 6.6783431,
    "candidateSource": "osm",
    "candidateFoundAt": "2026-02-11",
    "candidateOsmType": "way",
    "candidateOsmId": 89292462
  },
  {
    "id": "osm-way-89292468-wagyu",
    "name": "Wagyu",
    "lat": 46.5037918,
    "lng": 6.68021,
    "candidateSource": "osm",
    "candidateFoundAt": "2026-02-11",
    "candidateOsmType": "way",
    "candidateOsmId": 89292468,
    "candidateUrl": "https://wagyu.cover.page",
    "candidatePhone": "+41217931888",
    "candidateHours": "Mo, We-Su 11:30-14:30, 18:30-22:30"
  },
  {
    "id": "osm-way-89480083-la-barca",
    "name": "La Barca",
    "lat": 46.5020959,
    "lng": 6.6853054,
    "candidateSource": "osm",
    "candidateFoundAt": "2026-02-11",
    "candidateOsmType": "way",
    "candidateOsmId": 89480083,
    "candidateUrl": "https://la-barca.ch/",
    "candidatePhone": "+41 21 791 59 43",
    "candidateHours": "Mo-Su 10:00-15:00, 18:30-00:00"
  },
  {
    "id": "osm-way-197270705-les-figuiers",
    "name": "Les Figuiers",
    "lat": 46.348863,
    "lng": 6.2777305,
    "candidateSource": "osm",
    "candidateFoundAt": "2026-02-11",
    "candidateOsmType": "way",
    "candidateOsmId": 197270705,
    "candidateUrl": "http://les-figuiers.eresto.net/",
    "candidatePhone": "+33 4 50 94 34 68"
  },
  {
    "id": "osm-way-197274203-le-bellevue",
    "name": "Le Bellevue",
    "lat": 46.354933,
    "lng": 6.3534,
    "candidateSource": "osm",
    "candidateFoundAt": "2026-02-11",
    "candidateOsmType": "way",
    "candidateOsmId": 197274203,
    "candidatePhone": "+33 4 50 72 83 00"
  },
  {
    "id": "osm-way-197279871-chalet-du-port",
    "name": "Chalet du Port",
    "lat": 46.3399201,
    "lng": 6.3905412,
    "candidateSource": "osm",
    "candidateFoundAt": "2026-02-11",
    "candidateOsmType": "way",
    "candidateOsmId": 197279871,
    "candidateUrl": "https://www.chaletduport.fr/",
    "candidatePhone": "+33 4 50 72 62 72"
  },
  {
    "id": "osm-way-197286288-brasserie-du-chalet-du-port",
    "name": "Brasserie du Chalet du Port",
    "lat": 46.34013,
    "lng": 6.3900995,
    "candidateSource": "osm",
    "candidateFoundAt": "2026-02-11",
    "candidateOsmType": "way",
    "candidateOsmId": 197286288,
    "candidateUrl": "https://brasserie-du-chalet-du-port.business.site",
    "candidatePhone": "+33 4 50 72 60 39",
    "candidateHours": "Mo-Sa 10:00-24:00"
  },
  {
    "id": "osm-way-197835951-buvette-du-port",
    "name": "Buvette du Port",
    "lat": 46.4515529,
    "lng": 6.8571247,
    "candidateSource": "osm",
    "candidateFoundAt": "2026-02-11",
    "candidateOsmType": "way",
    "candidateOsmId": 197835951,
    "candidateUrl": ""
  },
  {
    "id": "osm-way-225308134-restaurant-du-port-de-tougues",
    "name": "Restaurant du Port de Tougues",
    "lat": 46.3234532,
    "lng": 6.256375,
    "candidateSource": "osm",
    "candidateFoundAt": "2026-02-11",
    "candidateOsmType": "way",
    "candidateOsmId": 225308134,
    "candidateUrl": ""
  },
  {
    "id": "osm-way-244403387-port-taillecou",
    "name": "Port-Taillecou",
    "lat": 46.4847654,
    "lng": 6.4616983,
    "candidateSource": "osm",
    "candidateFoundAt": "2026-02-11",
    "candidateOsmType": "way",
    "candidateOsmId": 244403387,
    "candidateUrl": "https://secure.i-web.ch/gemweb/saintprex/fr/toolbar/rechercher/?sl_q=Port&x=0&y=0"
  },
  {
    "id": "osm-way-268477476-aux-d-lices-du-lac",
    "name": "Aux Délices du Lac",
    "lat": 46.5014094,
    "lng": 6.486506,
    "candidateSource": "osm",
    "candidateFoundAt": "2026-02-11",
    "candidateOsmType": "way",
    "candidateOsmId": 268477476,
    "candidateUrl": "https://www.aux-delices-du-lac.ch/",
    "candidatePhone": "+41 21 801 87 37"
  },