[
  {
    "id": "osm-node-262423146-ristorante-sunshine-sushi",
    "name": "Ristorante Sunshine Sushi",
    "lat": 46.062572,
    "lng": 8.6970486,
    "candidateSource": "osm",
    "candidateFoundAt": "2026-02-11",
    "candidateOsmType": "node",
    "candidateOsmId": 262423146,
    "candidateUrl": "https://ristorantesunshine.com/",
    "candidatePhone": "+3903231981536"
  },
  {
    "id": "osm-node-324750234-lungolago",
    "name": "Lungolago",
    "lat": 45.9352394,
    "lng": 8.573608,
    "candidateSource": "osm",
    "candidateFoundAt": "2026-02-11",
    "candidateOsmType": "node",
    "candidateOsmId": 324750234
  },
  {
    "id": "osm-node-347848568-restaurante-mercato",
    "name": "Restaurante Mercato",
    "lat": 46.1678619,
    "lng": 8.8014874,
    "candidateSource": "osm",
    "candidateFoundAt": "2026-02-11",
    "candidateOsmType": "node",
    "candidateOsmId": 347848568,
    "candidateUrl": ""
  },
  {
    "id": "osm-node-348692046-debarcadero",
    "name": "Debarcadero",
    "lat": 46.1700739,
    "lng": 8.801119,
    "candidateSource": "osm",
    "candidateFoundAt": "2026-02-11",
    "candidateOsmType": "node",
    "candidateOsmId": 348692046
  },
  {
    "id": "osm-node-348842517-tyrell-s",
    "name": "Tyrell's",
    "lat": 46.1651205,
    "lng": 8.8049621,
    "candidateSource": "osm",
    "candidateFoundAt": "2026-02-11",
    "candidateOsmType": "node",
    "candidateOsmId": 348842517
  },
  {
    "id": "osm-node-367026941-ristorante-parco-ciani",
    "name": "Ristorante Parco Ciani",
    "lat": 46.0048684,
    "lng": 8.9557706,
    "candidateSource": "osm",
    "candidateFoundAt": "2026-02-11",
    "candidateOsmType": "node",
    "candidateOsmId": 367026941,
    "candidateUrl": ""
  },
  {
    "id": "osm-node-367028639-ristorante-seven-lugano",
    "name": "Ristorante Seven Lugano",
    "lat": 46.0039026,
    "lng": 8.9551141,
    "candidateSource": "osm",
    "candidateFoundAt": "2026-02-11",
    "candidateOsmType": "node",
    "candidateOsmId": 367028639,
    "candidateUrl": "https://www.seven.ch/restaurants/seven-lugano-restaurant",
    "candidatePhone": "+41 912 90 77 77",
    "candidateHours": "Mo-Su 12:00-15:00,19:30-01:00"
  },
  {
    "id": "osm-node-367036024-argentino",
    "name": "Argentino",
    "lat": 46.0040648,
    "lng": 8.9514821,
    "candidateSource": "osm",
    "candidateFoundAt": "2026-02-11",
    "candidateOsmType": "node",
    "candidateOsmId": 367036024,
    "candidateUrl": "https://ristoranteargentino.ch/",
    "candidatePhone": "+41 91 922 90 49",
    "candidateHours": "11:30-22:30; Fr,Sa 11:30-23:00"
  },
  {
    "id": "osm-node-367036060-tango",
    "name": "Tango",
    "lat": 46.0040121,
    "lng": 8.9515108,
    "candidateSource": "osm",
    "candidateFoundAt": "2026-02-11",
    "candidateOsmType": "node",
    "candidateOsmId": 367036060,
    "candidateUrl": "https://www.tango-ti.ch/",
    "candidatePhone": "+41 91 922 27 01",
    "candidateHours": "Mo-Su 09:00-01:00"
  },
  {
    "id": "osm-node-368197644-galleria",
    "name": "Galleria",
    "lat": 46.0047222,
    "lng": 8.9531292,
    "candidateSource": "osm",
    "candidateFoundAt": "2026-02-11",
    "candidateOsmType": "node",
    "candidateOsmId": 368197644
  },
  {
    "id": "osm-node-368207028-gran-cafe",
    "name": "Gran cafe",
    "lat": 46.0048885,
    "lng": 8.9534734,
    "candidateSource": "osm",
    "candidateFoundAt": "2026-02-11",
    "candidateOsmType": "node",
    "candidateOsmId": 368207028,
    "candidateUrl": ""
  },
  {
    "id": "osm-node-368353231-bar-portici",
    "name": "Bar Portici",
    "lat": 46.0042929,
    "lng": 8.9524683,
    "candidateSource": "osm",
    "candidateFoundAt": "2026-02-11",
    "candidateOsmType": "node",
    "candidateOsmId": 368353231,
    "candidateUrl": ""
  },
  {
    "id": "osm-node-372760920-ristorante-art",
    "name": "Ristorante Arté",
    "lat": 46.0051233,
    "lng": 8.9703502,
    "candidateSource": "osm",
    "candidateFoundAt": "2026-02-11",
    "candidateOsmType": "node",
    "candidateOsmId": 372760920,
    "candidatePhone": "+41 91 9734800",
    "candidateUrl": ""
  },
  {
    "id": "osm-node-373008526-vitti",
    "name": "Vitti",
    "lat": 46.0052839,
    "lng": 8.9517002,
    "candidateSource": "osm",
    "candidateFoundAt": "2026-02-11",
    "candidateOsmType": "node",
    "candidateOsmId": 373008526,
    "candidateUrl": "https://vittilugano.ch/",
    "candidatePhone": "+41 91 605 61 61"
  },
  {
    "id": "osm-node-373009461-bottegone-del-vino",
    "name": "Bottegone del vino",
    "lat": 46.004181,
    "lng": 8.9519945,
    "candidateSource": "osm",
    "candidateFoundAt": "2026-02-11",
    "candidateOsmType": "node",
    "candidateOsmId": 373009461,
    "candidateUrl": ""
  },
  {
    "id": "osm-node-373414555-ristorante-birreria-del-lago",
    "name": "Ristorante Birreria del Lago",
    "lat": 46.0058166,
    "lng": 8.9669067,
    "candidateSource": "osm",
    "candidateFoundAt": "2026-02-11",
    "candidateOsmType": "node",
    "candidateOsmId": 373414555,
    "candidateUrl": ""
  },
  {
    "id": "osm-node-373419261-federale",
    "name": "Federale",
    "lat": 46.0040247,
    "lng": 8.9511546,
    "candidateSource": "osm",
    "candidateFoundAt": "2026-02-11",
    "candidateOsmType": "node",
    "candidateOsmId": 373419261
  },
  {
    "id": "osm-node-373422893-osteria-del-portico",
    "name": "Osteria del Portico",
    "lat": 46.0057935,
    "lng": 8.953924,
    "candidateSource": "osm",
    "candidateFoundAt": "2026-02-11",
    "candidateOsmType": "node",
    "candidateOsmId": 373422893,
    "candidateUrl": ""
  },
  {
    "id": "osm-node-415948855-antica-stallera",
    "name": "Antica Stallera",
    "lat": 46.0630253,
    "lng": 8.6985651,
    "candidateSource": "osm",
    "candidateFoundAt": "2026-02-11",
    "candidateOsmType": "node",
    "candidateOsmId": 415948855,
    "candidateUrl": ""
  },
  {
    "id": "osm-node-434348273-della-ruga",
    "name": "Della Ruga",
    "lat": 46.155374,
    "lng": 8.7670263,
    "candidateSource": "osm",
    "candidateFoundAt": "2026-02-11",
    "candidateOsmType": "node",
    "candidateOsmId": 434348273,
    "candidateUrl": ""
  },
  {
    "id": "osm-node-434348274-la-cambüsa",
    "name": "La Cambüsa",
    "lat": 46.1549842,
    "lng": 8.7665037,
    "candidateSource": "osm",
    "candidateFoundAt": "2026-02-11",
    "candidateOsmType": "node",
    "candidateOsmId": 434348274
  },
  {
    "id": "osm-node-434348275-pizzeria-4-stagioni",
    "name": "Pizzeria 4 Stagioni",
    "lat": 46.1548314,
    "lng": 8.7672477,
    "candidateSource": "osm",
    "candidateFoundAt": "2026-02-11",
    "candidateOsmType": "node",
    "candidateOsmId": 434348275,
    "candidateUrl": ""
  },
  {
    "id": "osm-node-434348279-al-pontile",
    "name": "Al Pontile",
    "lat": 46.1539109,
    "lng": 8.7691261,
    "candidateSource": "osm",
    "candidateFoundAt": "2026-02-11",
    "candidateOsmType": "node",
    "candidateOsmId": 434348279
  },
  {
    "id": "osm-node-454099791-ristorante-sociale",
    "name": "Ristorante Sociale",
    "lat": 45.9057947,
    "lng": 8.9729156,
    "candidateSource": "osm",
    "candidateFoundAt": "2026-02-11",
    "candidateOsmType": "node",
    "candidateOsmId": 454099791,
    "candidateUrl": "https://www.ristorantesociale.ch/",
    "candidatePhone": "+41 91 6481789",
    "candidateHours": "Mo-Su 07:00-24:00;PH 09:00-24:00"
  },
  {
    "id": "osm-node-454099810-bar-lido",
    "name": "Bar Lido",
    "lat": 45.9046364,
    "lng": 8.9783961,
    "candidateSource": "osm",
    "candidateFoundAt": "2026-02-11",
    "candidateOsmType": "node",
    "candidateOsmId": 454099810,
    "candidatePhone": "+41 91 6481108",
    "candidateHours": "Oct-Feb off",
    "candidateUrl": ""
  },
  {
    "id": "osm-node-454099820-osteria-da-patty",
    "name": "Osteria da Patty",
    "lat": 45.9053721,
    "lng": 8.970799,
    "candidateSource": "osm",
    "candidateFoundAt": "2026-02-11",
    "candidateOsmType": "node",
    "candidateOsmId": 454099820,
    "candidateUrl": ""
  },
  {
    "id": "osm-node-454099825-osteria-san-giorgio",
    "name": "Osteria San Giorgio",
    "lat": 45.9051891,
    "lng": 8.9712222,
    "candidateSource": "osm",
    "candidateFoundAt": "2026-02-11",
    "candidateOsmType": "node",
    "candidateOsmId": 454099825,
    "candidatePhone": "+41 91 6481180",
    "candidateUrl": ""
  },
  {
    "id": "osm-node-454128122-osteria-generale-01",
    "name": "Osteria Generale 01",
    "lat": 45.9051275,
    "lng": 8.9704213,
    "candidateSource": "osm",
    "candidateFoundAt": "2026-02-11",
    "candidateOsmType": "node",
    "candidateOsmId": 454128122,
    "candidateUrl": ""
  },
  {
    "id": "osm-node-460384662-la-gabella",
    "name": "La Gabella",
    "lat": 46.044881,
    "lng": 8.7335972,
    "candidateSource": "osm",
    "candidateFoundAt": "2026-02-11",
    "candidateOsmType": "node",
    "candidateOsmId": 460384662
  },
  {
    "id": "osm-node-460384682-albergo-paradiso",
    "name": "Albergo Paradiso",
    "lat": 46.0444512,
    "lng": 8.7355375,
    "candidateSource": "osm",
    "candidateFoundAt": "2026-02-11",
    "candidateOsmType": "node",
    "candidateOsmId": 460384682,
    "candidateUrl": "http://www.pensioneparadiso.it/",
    "candidatePhone": "+39 0332 560128"
  },
  {
    "id": "osm-node-524394472-ristorante-pizzeria-da-zi-rosaria",
    "name": "Ristorante Pizzeria da Zi Rosaria",
    "lat": 45.9513734,
    "lng": 8.6079034,
    "candidateSource": "osm",
    "candidateFoundAt": "2026-02-11",
    "candidateOsmType": "node",
    "candidateOsmId": 524394472,
    "candidateUrl": ""
  },
  {
    "id": "osm-node-600938319-miralago",
    "name": "Miralago",
    "lat": 45.957143,
    "lng": 8.6152767,
    "candidateSource": "osm",
    "candidateFoundAt": "2026-02-11",
    "candidateOsmType": "node",
    "candidateOsmId": 600938319,
    "candidatePhone": "+39 0323 59888",
    "candidateHours": "Mo-Su 12:00-22:00"
  },
  {
    "id": "osm-node-619395404-trattoria-la-canfora",
    "name": "Trattoria La Canfora",
    "lat": 45.956495,
    "lng": 8.6165202,
    "candidateSource": "osm",
    "candidateFoundAt": "2026-02-11",
    "candidateOsmType": "node",
    "candidateOsmId": 619395404,
    "candidateUrl": ""
  },
  {
    "id": "osm-node-619395429-bar-scalo",
    "name": "Bar Scalo",
    "lat": 45.9572822,
    "lng": 8.6184785,
    "candidateSource": "osm",
    "candidateFoundAt": "2026-02-11",
    "candidateOsmType": "node",
    "candidateOsmId": 619395429,
    "candidateUrl": ""
  },
  {
    "id": "osm-node-619395454-convivium",
    "name": "Convivium",
    "lat": 45.961252,
    "lng": 8.6197718,
    "candidateSource": "osm",
    "candidateFoundAt": "2026-02-11",
    "candidateOsmType": "node",
    "candidateOsmId": 619395454
  },
  {
    "id": "osm-node-636034564-la-dama-del-porto",
    "name": "La dama del porto",
    "lat": 45.898234,
    "lng": 8.596374,
    "candidateSource": "osm",
    "candidateFoundAt": "2026-02-11",
    "candidateOsmType": "node",
    "candidateOsmId": 636034564,
    "candidateUrl": ""
  },
  {
    "id": "osm-node-663870157-porto-ronco-beach-club",
    "name": "Porto Ronco Beach Club",
    "lat": 46.1332318,
    "lng": 8.719419,
    "candidateSource": "osm",
    "candidateFoundAt": "2026-02-11",
    "candidateOsmType": "node",
    "candidateOsmId": 663870157,
    "candidateUrl": "http://portoroncobeach.ch/"
  },
  {
    "id": "osm-node-664833749-grotto-baldoria",
    "name": "Grotto Baldoria",
    "lat": 46.1542843,
    "lng": 8.7695385,
    "candidateSource": "osm",
    "candidateFoundAt": "2026-02-11",
    "candidateOsmType": "node",
    "candidateOsmId": 664833749,
    "candidateUrl": "https://www.grottobaldoria.ch/",
    "candidateHours": "Mo-Su 12:00-14:00, 18:00-22:00"
  },
  {
    "id": "osm-node-664906634-sensi",
    "name": "Sensi",
    "lat": 46.1716501,
    "lng": 8.8017482,
    "candidateSource": "osm",
    "candidateFoundAt": "2026-02-11",
    "candidateOsmType": "node",
    "candidateOsmId": 664906634,
    "candidateUrl": "https://www.ristoranti-ff.ch/it/ristorante-sensi-muralto",
    "candidatePhone": "+41 91 743 17 17"
  },
  {
    "id": "osm-node-714678877-sano-banano",
    "name": "Sano Banano",
    "lat": 46.0221081,
    "lng": 8.6847094,
    "candidateSource": "osm",
    "candidateFoundAt": "2026-02-11",
    "candidateOsmType": "node",
    "candidateOsmId": 714678877,
    "candidateUrl": ""
  },
  {
    "id": "osm-node-738250145-lago-maggiore",
    "name": "Lago Maggiore",
    "lat": 45.8842848,
    "lng": 8.539078,
    "candidateSource": "osm",
    "candidateFoundAt": "2026-02-11",
    "candidateOsmType": "node",
    "candidateOsmId": 738250145,
    "candidateUrl": ""
  },
  {
    "id": "osm-node-771523819-minigolf",
    "name": "Minigolf",
    "lat": 46.148555,
    "lng": 8.8573659,
    "candidateSource": "osm",
    "candidateFoundAt": "2026-02-11",
    "candidateOsmType": "node",
    "candidateOsmId": 771523819
  },
  {
    "id": "osm-node-798528549-100-cento",
    "name": "100 ~ Cento",
    "lat": 46.1486402,
    "lng": 8.8617343,
    "candidateSource": "osm",
    "candidateFoundAt": "2026-02-11",
    "candidateOsmType": "node",
    "candidateOsmId": 798528549,
    "candidateUrl": "https://ristorante100.ch/",
    "candidatePhone": "+41 91 795 12 12",
    "candidateHours": "Mo-Fr 06:00-23:00; Sa-Su 07:00-23:00"
  },
  {
    "id": "osm-node-806521332-seven-sea-lounge",
    "name": "Seven Sea Lounge",
    "lat": 46.1546915,
    "lng": 8.7664343,
    "candidateSource": "osm",
    "candidateFoundAt": "2026-02-11",
    "candidateOsmType": "node",
    "candidateOsmId": 806521332,
    "candidateUrl": ""
  },
  {
    "id": "osm-node-806521342-seven-easy",
    "name": "Seven Easy",
    "lat": 46.1530126,
    "lng": 8.7706758,
    "candidateSource": "osm",
    "candidateFoundAt": "2026-02-11",
    "candidateOsmType": "node",
    "candidateOsmId": 806521342,
    "candidateUrl": ""
  },
  {
    "id": "osm-node-806521348-seven",
    "name": "Seven",
    "lat": 46.1548077,
    "lng": 8.7662785,
    "candidateSource": "osm",
    "candidateFoundAt": "2026-02-11",
    "candidateOsmType": "node",
    "candidateOsmId": 806521348,
    "candidateUrl": "https://seven.ch/"
  },
  {
    "id": "osm-node-806521350-al-piazza",
    "name": "Al Piazza",
    "lat": 46.1540223,
    "lng": 8.7689275,
    "candidateSource": "osm",
    "candidateFoundAt": "2026-02-11",
    "candidateOsmType": "node",
    "candidateOsmId": 806521350
  },
  {
    "id": "osm-node-821376991-seven",
    "name": "Seven",
    "lat": 46.003817,
    "lng": 8.954686,
    "candidateSource": "osm",
    "candidateFoundAt": "2026-02-11",
    "candidateOsmType": "node",
    "candidateOsmId": 821376991
  },
  {
    "id": "osm-node-821377278-bar-roma",
    "name": "Bar Roma",
    "lat": 46.005252,
    "lng": 8.953585,
    "candidateSource": "osm",
    "candidateFoundAt": "2026-02-11",
    "candidateOsmType": "node",
    "candidateOsmId": 821377278,
    "candidateUrl": ""
  },
  {
    "id": "osm-node-823042658-le-bucce-di-gandria",
    "name": "le Bucce di Gandria",
    "lat": 46.0059389,
    "lng": 9.0022377,
    "candidateSource": "osm",
    "candidateFoundAt": "2026-02-11",
    "candidateOsmType": "node",
    "candidateOsmId": 823042658,
    "candidatePhone": "+41 912258833",
    "candidateHours": "Mo,Tu off, Th-Su 12:00-15:00, Fr-Su 19:00-24:00, We 17:00-01:00",
    "candidateUrl": ""
  },
  {
    "id": "osm-node-826761125-roccabella",
    "name": "Roccabella",
    "lat": 46.0056993,
    "lng": 9.0039384,
    "candidateSource": "osm",
    "candidateFoundAt": "2026-02-11",
    "candidateOsmType": "node",
    "candidateOsmId": 826761125,
    "candidateUrl": "https://ristoranteroccabella.ch",
    "candidatePhone": "+41 91 971 27 22",
    "candidateHours": "Tu-Su 10:00-23:45; Mo closed"
  },
  {
    "id": "osm-node-826765636-antico",
    "name": "Antico",
    "lat": 46.0055583,
    "lng": 9.0036231,
    "candidateSource": "osm",
    "candidateFoundAt": "2026-02-11",
    "candidateOsmType": "node",
    "candidateOsmId": 826765636
  },
  {
    "id": "osm-node-832079499-al-torchio",
    "name": "Al Torchio",
    "lat": 46.1718306,
    "lng": 8.8028905,
    "candidateSource": "osm",
    "candidateFoundAt": "2026-02-11",
    "candidateOsmType": "node",
    "candidateOsmId": 832079499,
    "candidateUrl": "https://www.altorchio.ch/",
    "candidatePhone": "+41 91 743 43 77"
  },
  {
    "id": "osm-node-892455573-seven-asia",
    "name": "Seven Asia",
    "lat": 46.1558992,
    "lng": 8.7676928,
    "candidateSource": "osm",
    "candidateFoundAt": "2026-02-11",
    "candidateOsmType": "node",
    "candidateOsmId": 892455573,
    "candidateUrl": "https://seven.ch",
    "candidatePhone": "+41 91 786 96 76"
  },
  {
    "id": "osm-node-1008534671-just-caf",
    "name": "Just Cafè",
    "lat": 46.0053724,
    "lng": 8.9548172,
    "candidateSource": "osm",
    "candidateFoundAt": "2026-02-11",
    "candidateOsmType": "node",
    "candidateOsmId": 1008534671,
    "candidateUrl": "http://www.justcafelugano.ch"
  },
  {
    "id": "osm-node-1087059908-osteria-nostrana",
    "name": "Osteria Nostrana",
    "lat": 46.1533705,
    "lng": 8.7701112,
    "candidateSource": "osm",
    "candidateFoundAt": "2026-02-11",
    "candidateOsmType": "node",
    "candidateOsmId": 1087059908,
    "candidateUrl": ""
  },
  {
    "id": "osm-node-1264080929-europa",
    "name": "Europa",
    "lat": 46.0218418,
    "lng": 8.6855383,
    "candidateSource": "osm",
    "candidateFoundAt": "2026-02-11",
    "candidateOsmType": "node",
    "candidateOsmId": 1264080929,
    "candidateUrl": "https://www.europa-ristorante.com/de/",
    "candidatePhone": "+39 0323 788292",
    "candidateHours": "10:00-23:00"
  },
  {
    "id": "osm-node-1264080931-lido",
    "name": "Lido",
    "lat": 46.019798,
    "lng": 8.6793325,
    "candidateSource": "osm",
    "candidateFoundAt": "2026-02-11",
    "candidateOsmType": "node",
    "candidateOsmId": 1264080931
  },
  {
    "id": "osm-node-1264080941-trattoria-il-giardino",
    "name": "Trattoria Il Giardino",
    "lat": 46.0228704,
    "lng": 8.6839627,
    "candidateSource": "osm",
    "candidateFoundAt": "2026-02-11",
    "candidateOsmType": "node",
    "candidateOsmId": 1264080941,
    "candidatePhone": "+39 323 787138",
    "candidateHours": "Th-Tu 12:00-14:00,18:00-22:00",
    "candidateUrl": ""
  },
  {
    "id": "osm-node-1264080945-piccolo-cannero",
    "name": "Piccolo Cannero",
    "lat": 46.0227683,
    "lng": 8.6831366,
    "candidateSource": "osm",
    "candidateFoundAt": "2026-02-11",
    "candidateOsmType": "node",
    "candidateOsmId": 1264080945,
    "candidateUrl": ""
  },
  {
    "id": "osm-node-1264080949-park-hotel-italia",
    "name": "Park Hotel Italia",
    "lat": 46.0205158,
    "lng": 8.6840255,
    "candidateSource": "osm",
    "candidateFoundAt": "2026-02-11",
    "candidateOsmType": "node",
    "candidateOsmId": 1264080949,
    "candidateUrl": "https://www.parkhotelitalia.com",
    "candidatePhone": "+39 0323 788488"
  },
  {
    "id": "osm-node-1264080952-magnolia",
    "name": "Magnolia",
    "lat": 46.0193705,
    "lng": 8.6824402,
    "candidateSource": "osm",
    "candidateFoundAt": "2026-02-11",
    "candidateOsmType": "node",
    "candidateOsmId": 1264080952,
    "candidateUrl": "https://www.ristorantemagnolia.it/",
    "candidatePhone": "+39 323 788066"
  },
  {
    "id": "osm-node-1264080955-cannero",
    "name": "Cannero",
    "lat": 46.022043,
    "lng": 8.6856777,
    "candidateSource": "osm",
    "candidateFoundAt": "2026-02-11",
    "candidateOsmType": "node",
    "candidateOsmId": 1264080955,
    "candidateUrl": "https://www.hotelcannero.com/",
    "candidatePhone": "+39 0323 788046"
  },
  {
    "id": "osm-node-1354247794-l-antico-lido",
    "name": "L'Antico Lido",
    "lat": 45.8604213,
    "lng": 8.6085033,
    "candidateSource": "osm",
    "candidateFoundAt": "2026-02-11",
    "candidateOsmType": "node",
    "candidateOsmId": 1354247794,
    "candidateUrl": ""
  },
  {
    "id": "osm-node-1390193553-bar-al-portico",
    "name": "Bar al Portico",
    "lat": 46.0384431,
    "lng": 8.7414032,
    "candidateSource": "osm",
    "candidateFoundAt": "2026-02-11",
    "candidateOsmType": "node",
    "candidateOsmId": 1390193553,
    "candidatePhone": "+39 0332 560768",
    "candidateHours": "Mo-Th 06:00-24:00, Fr 06:00-01:00, Sa 07:00-01:00, Su 08:00-24:00",
    "candidateUrl": ""
  },
  {
    "id": "osm-node-1401586075-non-il-mare",
    "name": "Non è il mare",
    "lat": 45.8613937,
    "lng": 8.6070428,
    "candidateSource": "osm",
    "candidateFoundAt": "2026-02-11",
    "candidateOsmType": "node",
    "candidateOsmId": 1401586075,
    "candidateUrl": ""
  },
  {
    "id": "osm-node-1422950816-gabietta",
    "name": "Gabietta",
    "lat": 46.119665,
    "lng": 8.71293,
    "candidateSource": "osm",
    "candidateFoundAt": "2026-02-11",
    "candidateOsmType": "node",
    "candidateOsmId": 1422950816
  },
  {
    "id": "osm-node-1422950817-osteria-boato",
    "name": "Osteria Boato",
    "lat": 46.1191641,
    "lng": 8.7125589,
    "candidateSource": "osm",
    "candidateFoundAt": "2026-02-11",
    "candidateOsmType": "node",
    "candidateOsmId": 1422950817,
    "candidateUrl": ""
  },
  {
    "id": "osm-node-1422950832-ristorante-kalea",
    "name": "Ristorante Kalea",
    "lat": 46.1183311,
    "lng": 8.7110107,
    "candidateSource": "osm",
    "candidateFoundAt": "2026-02-11",
    "candidateOsmType": "node",
    "candidateOsmId": 1422950832,
    "candidateUrl": ""
  },
  {
    "id": "osm-node-1422957051-ristorante-graziella",
    "name": "Ristorante Graziella",
    "lat": 46.156192,
    "lng": 8.8013097,
    "candidateSource": "osm",
    "candidateFoundAt": "2026-02-11",
    "candidateOsmType": "node",
    "candidateOsmId": 1422957051,
    "candidateUrl": ""
  },
  {
    "id": "osm-node-1431264260-little-italy",
    "name": "Little Italy",
    "lat": 45.9234952,
    "lng": 8.5531963,
    "candidateSource": "osm",
    "candidateFoundAt": "2026-02-11",
    "candidateOsmType": "node",
    "candidateOsmId": 1431264260,
    "candidateUrl": ""
  },
  {
    "id": "osm-node-1552106803-osteria-di-reno-circolo",
    "name": "Osteria di Reno (circolo)",
    "lat": 45.8812034,
    "lng": 8.6022205,
    "candidateSource": "osm",
    "candidateFoundAt": "2026-02-11",
    "candidateOsmType": "node",
    "candidateOsmId": 1552106803,
    "candidateUrl": "http://osteriadireno.com/",
    "candidatePhone": "+39 0332 648894"
  },
  {
    "id": "osm-node-1552132749-hotel-ristorante-bucaniere",
    "name": "Hotel Ristorante Bucaniere",
    "lat": 45.8810041,
    "lng": 8.6016913,
    "candidateSource": "osm",
    "candidateFoundAt": "2026-02-11",
    "candidateOsmType": "node",
    "candidateOsmId": 1552132749,
    "candidateUrl": ""
  },
  {
    "id": "osm-node-1757030055-ristorante-molinetto",
    "name": "Ristorante Molinetto",
    "lat": 46.1308047,
    "lng": 8.800026,
    "candidateSource": "osm",
    "candidateFoundAt": "2026-02-11",
    "candidateOsmType": "node",
    "candidateOsmId": 1757030055,
    "candidateUrl": ""
  },
  {
    "id": "osm-node-1800266135-tre-re",
    "name": "Tre Re",
    "lat": 46.0023495,
    "lng": 8.7436708,
    "candidateSource": "osm",
    "candidateFoundAt": "2026-02-11",
    "candidateOsmType": "node",
    "candidateOsmId": 1800266135,
    "candidatePhone": "+39 0332 531147"
  },
  {
    "id": "osm-node-1800380014-bar-ristorante-il-grande-fratello",
    "name": "Bar-Ristorante Il Grande Fratello",
    "lat": 45.9544054,
    "lng": 8.9497167,
    "candidateSource": "osm",
    "candidateFoundAt": "2026-02-11",
    "candidateOsmType": "node",
    "candidateOsmId": 1800380014,
    "candidateUrl": ""
  },
  {
    "id": "osm-node-1800380017-icecream",
    "name": "icecream",
    "lat": 45.9543809,
    "lng": 8.9483859,
    "candidateSource": "osm",
    "candidateFoundAt": "2026-02-11",
    "candidateOsmType": "node",
    "candidateOsmId": 1800380017
  },
  {
    "id": "osm-node-1807078778-lago",
    "name": "Lago",
    "lat": 45.991458,
    "lng": 8.6489035,
    "candidateSource": "osm",
    "candidateFoundAt": "2026-02-11",
    "candidateOsmType": "node",
    "candidateOsmId": 1807078778,
    "candidateUrl": "https://ristorantepizzerialago.it",
    "candidatePhone": "+393883619935",
    "candidateHours": "Mo-Su 12:00-14:30,18:30-23:00"
  },
  {
    "id": "osm-node-1853012232-croce-bianca-bar-pizzeria",
    "name": "Croce Bianca Bar Pizzeria",
    "lat": 45.8981854,
    "lng": 8.5963833,
    "candidateSource": "osm",
    "candidateFoundAt": "2026-02-11",
    "candidateOsmType": "node",
    "candidateOsmId": 1853012232,
    "candidateUrl": ""
  },
  {
    "id": "osm-node-1859270971-l-idrovolante-caf",
    "name": "L'idrovolante Café",
    "lat": 45.8906535,
    "lng": 8.5244988,
    "candidateSource": "osm",
    "candidateFoundAt": "2026-02-11",
    "candidateOsmType": "node",
    "candidateOsmId": 1859270971,
    "candidatePhone": "+39 0323 934475",
    "candidateUrl": ""
  },
  {
    "id": "osm-node-1869124525-laguna-blu",
    "name": "Laguna Blu",
    "lat": 45.8812453,
    "lng": 8.5995179,
    "candidateSource": "osm",
    "candidateFoundAt": "2026-02-11",
    "candidateOsmType": "node",
    "candidateOsmId": 1869124525,
    "candidateUrl": "https://www.bistrotlagunablu.it/",
    "candidatePhone": "+39 332 647545",
    "candidateHours": "We-Mo 09:00-22:00"
  },
  {
    "id": "osm-node-1893978349-bistrot-imbarcadero",
    "name": "Bistrot Imbarcadero",
    "lat": 45.9624007,
    "lng": 8.6805364,
    "candidateSource": "osm",
    "candidateFoundAt": "2026-02-11",
    "candidateOsmType": "node",
    "candidateOsmId": 1893978349,
    "candidateUrl": "https://bistrotimbarcadero.it/",
    "candidatePhone": "+39 0332 157 3849"
  },
  {
    "id": "osm-node-1908060013-bar-simona",
    "name": "Bar Simona",
    "lat": 46.0228627,
    "lng": 9.0391629,
    "candidateSource": "osm",
    "candidateFoundAt": "2026-02-11",
    "candidateOsmType": "node",
    "candidateOsmId": 1908060013,
    "candidateUrl": ""
  },
  {
    "id": "osm-node-2178946419-vistaqua",
    "name": "Vistaqua",
    "lat": 45.9293732,
    "lng": 8.4810277,
    "candidateSource": "osm",
    "candidateFoundAt": "2026-02-11",
    "candidateOsmType": "node",
    "candidateOsmId": 2178946419,
    "candidatePhone": "+39 0323 28568"
  },
  {
    "id": "osm-node-2267941107-caff-della-posta",
    "name": "Caffè della Posta",
    "lat": 45.9529412,
    "lng": 8.9459788,
    "candidateSource": "osm",
    "candidateFoundAt": "2026-02-11",
    "candidateOsmType": "node",
    "candidateOsmId": 2267941107,
    "candidateUrl": ""
  },
  {
    "id": "osm-node-2272689428-la-tegola",
    "name": "la Tegola",
    "lat": 46.1715883,
    "lng": 8.8070926,
    "candidateSource": "osm",
    "candidateFoundAt": "2026-02-11",
    "candidateOsmType": "node",
    "candidateOsmId": 2272689428
  },
  {
    "id": "osm-node-2272701301-martini-lounge-caff",
    "name": "Martini Lounge Caffè",
    "lat": 46.0055099,
    "lng": 8.969422,
    "candidateSource": "osm",
    "candidateFoundAt": "2026-02-11",
    "candidateOsmType": "node",
    "candidateOsmId": 2272701301,
    "candidatePhone": "+41 91 9703859",
    "candidateUrl": ""
  },
  {
    "id": "osm-node-2288142607-pane-e-zucchero",
    "name": "Pane e Zucchero",
    "lat": 46.0061878,
    "lng": 8.9655999,
    "candidateSource": "osm",
    "candidateFoundAt": "2026-02-11",
    "candidateOsmType": "node",
    "candidateOsmId": 2288142607,
    "candidateUrl": "https://spaghettigastrogroup.com/home/pane-e-zucchero",
    "candidatePhone": "+41 91 9701000",
    "candidateHours": "Mo-Th 07:00-24:00, Fr 07:00-01:00, Sa 15:30-01:00, Su off"
  },
  {
    "id": "osm-node-2299811085-curcuma",
    "name": "Curcuma",
    "lat": 45.9215577,
    "lng": 8.5523308,
    "candidateSource": "osm",
    "candidateFoundAt": "2026-02-11",
    "candidateOsmType": "node",
    "candidateOsmId": 2299811085
  },
  {
    "id": "osm-node-2299811093-gintoneria",
    "name": "Gintoneria",
    "lat": 45.9212892,
    "lng": 8.5533263,
    "candidateSource": "osm",
    "candidateFoundAt": "2026-02-11",
    "candidateOsmType": "node",
    "candidateOsmId": 2299811093
  },
  {
    "id": "osm-node-2299811137-bar-villa-giulia",
    "name": "Bar Villa Giulia",
    "lat": 45.9202622,
    "lng": 8.5549986,
    "candidateSource": "osm",
    "candidateFoundAt": "2026-02-11",
    "candidateOsmType": "node",
    "candidateOsmId": 2299811137,
    "candidateUrl": ""
  },
  {
    "id": "osm-node-2299811185-cala-rita-caffe-del-principato",
    "name": "Cala Rita - Caffe del Principato",
    "lat": 45.9290329,
    "lng": 8.4807845,
    "candidateSource": "osm",
    "candidateFoundAt": "2026-02-11",
    "candidateOsmType": "node",
    "candidateOsmId": 2299811185,
    "candidateUrl": ""
  },
  {
    "id": "osm-node-2299811278-estremadura",
    "name": "Estremadura",
    "lat": 45.931308,
    "lng": 8.5395147,
    "candidateSource": "osm",
    "candidateFoundAt": "2026-02-11",
    "candidateOsmType": "node",
    "candidateOsmId": 2299811278,
    "candidateUrl": "https://www.estremaduracafe.it/",
    "candidatePhone": "+39 0323 504282"
  },
  {
    "id": "osm-node-2299811325-jambalaya",
    "name": "Jambalaya",
    "lat": 45.9303403,
    "lng": 8.5411782,
    "candidateSource": "osm",
    "candidateFoundAt": "2026-02-11",
    "candidateOsmType": "node",
    "candidateOsmId": 2299811325
  },
  {
    "id": "osm-node-2299811340-il-burchiello",
    "name": "Il Burchiello",
    "lat": 45.92093,
    "lng": 8.5541089,
    "candidateSource": "osm",
    "candidateFoundAt": "2026-02-11",
    "candidateOsmType": "node",
    "candidateOsmId": 2299811340
  },
  {
    "id": "osm-node-2299811348-il-porto",
    "name": "Il Porto",
    "lat": 45.9285824,
    "lng": 8.4802475,
    "candidateSource": "osm",
    "candidateFoundAt": "2026-02-11",
    "candidateOsmType": "node",
    "candidateOsmId": 2299811348
  },
  {
    "id": "osm-node-2299811370-il-regno-di-napoli",
    "name": "Il Regno di Napoli",
    "lat": 45.9341717,
    "lng": 8.5725052,
    "candidateSource": "osm",
    "candidateFoundAt": "2026-02-11",
    "candidateOsmType": "node",
    "candidateOsmId": 2299811370,
    "candidateUrl": ""
  },
  {
    "id": "osm-node-2299811385-the-flag",
    "name": "The Flag",
    "lat": 45.9211206,
    "lng": 8.5499156,
    "candidateSource": "osm",
    "candidateFoundAt": "2026-02-11",
    "candidateOsmType": "node",
    "candidateOsmId": 2299811385,
    "candidateUrl": "https://www.theflag-skybar.com/",
    "candidatePhone": "+39 0323 1998047",
    "candidateHours": "Mo-Su 07:00-19:00 open \"Molo\"; Mo-Su 17:00-00:00 open \"Sky Lounge Bar\""
  },
  {
    "id": "osm-node-2299811391-imbarcadero",
    "name": "Imbarcadero",
    "lat": 45.9298608,
    "lng": 8.5412691,
    "candidateSource": "osm",
    "candidateFoundAt": "2026-02-11",
    "candidateOsmType": "node",
    "candidateOsmId": 2299811391
  },
  {
    "id": "osm-node-2299811432-la-lanterna",
    "name": "La Lanterna",
    "lat": 45.9298175,
    "lng": 8.5418125,
    "candidateSource": "osm",
    "candidateFoundAt": "2026-02-11",
    "candidateOsmType": "node",
    "candidateOsmId": 2299811432,
    "candidatePhone": "+39 0323 506070"
  },
  {
    "id": "osm-node-2299811474-la-tentazione",
    "name": "La Tentazione",
    "lat": 45.9213259,
    "lng": 8.5529162,
    "candidateSource": "osm",
    "candidateFoundAt": "2026-02-11",
    "candidateOsmType": "node",
    "candidateOsmId": 2299811474,
    "candidateUrl": "https://www.hotelnovara.com/ristorante/"
  },
  {
    "id": "osm-node-2299811508-milano",
    "name": "Milano",
    "lat": 45.9207277,
    "lng": 8.5538921,
    "candidateSource": "osm",
    "candidateFoundAt": "2026-02-11",
    "candidateOsmType": "node",
    "candidateOsmId": 2299811508
  },
  {
    "id": "osm-node-2299811522-mirafiori-la-terrazza",
    "name": "Mirafiori - La Terrazza",
    "lat": 45.9308802,
    "lng": 8.4814468,
    "candidateSource": "osm",
    "candidateFoundAt": "2026-02-11",
    "candidateOsmType": "node",
    "candidateOsmId": 2299811522,
    "candidateUrl": ""
  },
  {
    "id": "osm-node-2299811535-caff-nazionale",
    "name": "Caffé Nazionale",
    "lat": 45.9360076,
    "lng": 8.5748298,
    "candidateSource": "osm",
    "candidateFoundAt": "2026-02-11",
    "candidateOsmType": "node",
    "candidateOsmId": 2299811535,
    "candidateUrl": ""
  },
  {
    "id": "osm-node-2299811539-osteria-antica-il-monte-rosso",
    "name": "Osteria Antica Il Monte Rosso",
    "lat": 45.9311735,
    "lng": 8.5400885,
    "candidateSource": "osm",
    "candidateFoundAt": "2026-02-11",
    "candidateOsmType": "node",
    "candidateOsmId": 2299811539,
    "candidateUrl": "https://www.osteriamonterosso.com/",
    "candidatePhone": "+39 0323 506056"
  },
  {
    "id": "osm-node-2299811542-pigalle",
    "name": "Pigalle",
    "lat": 45.921284,
    "lng": 8.5530824,
    "candidateSource": "osm",
    "candidateFoundAt": "2026-02-11",
    "candidateOsmType": "node",
    "candidateOsmId": 2299811542
  },
  {
    "id": "osm-node-2299811543-pasticceria-pinton",
    "name": "Pasticceria Pinton",
    "lat": 45.9226439,
    "lng": 8.5511744,
    "candidateSource": "osm",
    "candidateFoundAt": "2026-02-11",
    "candidateOsmType": "node",
    "candidateOsmId": 2299811543,
    "candidateUrl": ""
  },
  {
    "id": "osm-node-2299811721-il-tiki",
    "name": "Il Tiki",
    "lat": 45.9285153,
    "lng": 8.5425019,
    "candidateSource": "osm",
    "candidateFoundAt": "2026-02-11",
    "candidateOsmType": "node",
    "candidateOsmId": 2299811721
  },
  {
    "id": "osm-node-2299813052-ranzoni",
    "name": "Ranzoni",
    "lat": 45.9362463,
    "lng": 8.5744856,
    "candidateSource": "osm",
    "candidateFoundAt": "2026-02-11",
    "candidateOsmType": "node",
    "candidateOsmId": 2299813052
  },
  {
    "id": "osm-node-2299813054-la-rosa-bianca",
    "name": "La Rosa Bianca",
    "lat": 45.9371185,
    "lng": 8.5754903,
    "candidateSource": "osm",
    "candidateFoundAt": "2026-02-11",
    "candidateOsmType": "node",
    "candidateOsmId": 2299813054,
    "candidateUrl": ""
  },
  {
    "id": "osm-node-2299813064-verbano",
    "name": "Verbano",
    "lat": 45.9343872,
    "lng": 8.572286,
    "candidateSource": "osm",
    "candidateFoundAt": "2026-02-11",
    "candidateOsmType": "node",
    "candidateOsmId": 2299813064
  },
  {
    "id": "osm-node-2299813072-dell-angolo",
    "name": "dell'Angolo",
    "lat": 45.921204,
    "lng": 8.5533911,
    "candidateSource": "osm",
    "candidateFoundAt": "2026-02-11",
    "candidateOsmType": "node",
    "candidateOsmId": 2299813072,
    "candidateUrl": ""
  },
  {
    "id": "osm-node-2312669658-i-baldi",
    "name": "I baldi",
    "lat": 45.9085483,
    "lng": 8.6194468,
    "candidateSource": "osm",
    "candidateFoundAt": "2026-02-11",
    "candidateOsmType": "node",
    "candidateOsmId": 2312669658,
    "candidateUrl": "https://www.daibaldi.it"
  },
  {
    "id": "osm-node-2361261725-caff-brusin",
    "name": "Caffè Brusin",
    "lat": 45.9485836,
    "lng": 8.8899748,
    "candidateSource": "osm",
    "candidateFoundAt": "2026-02-11",
    "candidateOsmType": "node",
    "candidateOsmId": 2361261725,
    "candidateUrl": ""
  },
  {
    "id": "osm-node-2420886134-al-lago",
    "name": "Al Lago",
    "lat": 46.1479066,
    "lng": 8.8549148,
    "candidateSource": "osm",
    "candidateFoundAt": "2026-02-11",
    "candidateOsmType": "node",
    "candidateOsmId": 2420886134
  },
  {
    "id": "osm-node-2446125421-dai-monelli",
    "name": "Dai Monelli",
    "lat": 46.0041586,
    "lng": 8.7433686,
    "candidateSource": "osm",
    "candidateFoundAt": "2026-02-11",
    "candidateOsmType": "node",
    "candidateOsmId": 2446125421,
    "candidatePhone": "+39 329 3988055",
    "candidateUrl": ""
  },
  {
    "id": "osm-node-2446200947-caffe-clerici",
    "name": "Caffe Clerici",
    "lat": 46.0034971,
    "lng": 8.7428308,
    "candidateSource": "osm",
    "candidateFoundAt": "2026-02-11",
    "candidateOsmType": "node",
    "candidateOsmId": 2446200947,
    "candidatePhone": "+39 0332 510833",
    "candidateUrl": ""
  },
  {
    "id": "osm-node-2446200948-al-cantinone",
    "name": "Al Cantinone",
    "lat": 46.0031351,
    "lng": 8.7441764,
    "candidateSource": "osm",
    "candidateFoundAt": "2026-02-11",
    "candidateOsmType": "node",
    "candidateOsmId": 2446200948
  },
  {
    "id": "osm-node-2446200949-cupido",
    "name": "Cupido",
    "lat": 46.0022425,
    "lng": 8.7434503,
    "candidateSource": "osm",
    "candidateFoundAt": "2026-02-11",
    "candidateOsmType": "node",
    "candidateOsmId": 2446200949,
    "candidatePhone": "+39 320 1752830"
  },
  {
    "id": "osm-node-2446200950-gelateria-piadineria",
    "name": "Gelateria Piadineria",
    "lat": 46.0032197,
    "lng": 8.7429623,
    "candidateSource": "osm",
    "candidateFoundAt": "2026-02-11",
    "candidateOsmType": "node",
    "candidateOsmId": 2446200950,
    "candidateHours": "We-Mo 11:00-24:00",
    "candidateUrl": ""
  },
  {
    "id": "osm-node-2446200951-la-tavernetta",
    "name": "La Tavernetta",
    "lat": 46.0030111,
    "lng": 8.7447947,
    "candidateSource": "osm",
    "candidateFoundAt": "2026-02-11",
    "candidateOsmType": "node",
    "candidateOsmId": 2446200951
  },
  {
    "id": "osm-node-2446200952-le-volte",
    "name": "Le Volte",
    "lat": 46.0033767,
    "lng": 8.7430877,
    "candidateSource": "osm",
    "candidateFoundAt": "2026-02-11",
    "candidateOsmType": "node",
    "candidateOsmId": 2446200952
  },
  {
    "id": "osm-node-2446200954-trattoria-pizzeria-manzoni",
    "name": "Trattoria Pizzeria Manzoni",
    "lat": 46.0024643,
    "lng": 8.745013,
    "candidateSource": "osm",
    "candidateFoundAt": "2026-02-11",
    "candidateOsmType": "node",
    "candidateOsmId": 2446200954,
    "candidatePhone": "+39 0332 537488",
    "candidateUrl": ""
  },
  {
    "id": "osm-node-2446200985-caff-sottosopra",
    "name": "Caffé Sottosopra",
    "lat": 46.0028263,
    "lng": 8.7425861,
    "candidateSource": "osm",
    "candidateFoundAt": "2026-02-11",
    "candidateOsmType": "node",
    "candidateOsmId": 2446200985,
    "candidatePhone": "+39 0332 510371",
    "candidateUrl": ""
  },
  {
    "id": "osm-node-2446201010-ristorante-duescale",
    "name": "Ristorante Duescale",
    "lat": 46.0034199,
    "lng": 8.7431534,
    "candidateSource": "osm",
    "candidateFoundAt": "2026-02-11",
    "candidateOsmType": "node",
    "candidateOsmId": 2446201010,
    "candidatePhone": "+39 0332 158 5870",
    "candidateUrl": ""
  },
  {
    "id": "osm-node-2446201011-turismo",
    "name": "Turismo",
    "lat": 46.0029272,
    "lng": 8.7426779,
    "candidateSource": "osm",
    "candidateFoundAt": "2026-02-11",
    "candidateOsmType": "node",
    "candidateOsmId": 2446201011
  },
  {
    "id": "osm-node-2446201012-cavallotti-bistro",
    "name": "Cavallotti Bistro",
    "lat": 46.0032385,
    "lng": 8.7439684,
    "candidateSource": "osm",
    "candidateFoundAt": "2026-02-11",
    "candidateOsmType": "node",
    "candidateOsmId": 2446201012,
    "candidateUrl": ""
  },
  {
    "id": "osm-node-2479326929-pizzeria-branca",
    "name": "Pizzeria Branca",
    "lat": 46.1434704,
    "lng": 8.8408941,
    "candidateSource": "osm",
    "candidateFoundAt": "2026-02-11",
    "candidateOsmType": "node",
    "candidateOsmId": 2479326929,
    "candidatePhone": "+41917953595",
    "candidateHours": "We-Tu 11:00-14:00, 17:30-23:00",
    "candidateUrl": ""
  },
  {
    "id": "osm-node-2633465718-lounge-bar-de-biagio",
    "name": "Lounge Bar de Biagio",
    "lat": 46.0365956,
    "lng": 8.7424464,
    "candidateSource": "osm",
    "candidateFoundAt": "2026-02-11",
    "candidateOsmType": "node",
    "candidateOsmId": 2633465718,
    "candidateHours": "Mo-Th 06:00-01:00, Fr 06:00-02:00, Sa 08:00-02:00, Su 08:00-01:00",
    "candidateUrl": ""
  },
  {
    "id": "osm-node-2885599681-alla-foce",
    "name": "Alla Foce",
    "lat": 46.0026601,
    "lng": 8.962205,
    "candidateSource": "osm",
    "candidateFoundAt": "2026-02-11",
    "candidateOsmType": "node",
    "candidateOsmId": 2885599681,
    "candidateUrl": ""
  },
  {
    "id": "osm-node-2916390198-pasticceria-sicily-caff",
    "name": "Pasticceria Sicily Caffè",
    "lat": 45.9621827,
    "lng": 8.6812987,
    "candidateSource": "osm",
    "candidateFoundAt": "2026-02-11",
    "candidateOsmType": "node",
    "candidateOsmId": 2916390198,
    "candidateUrl": ""
  },
  {
    "id": "osm-node-2925704395-ristorante-scaletta",
    "name": "Ristorante Scaletta",
    "lat": 46.1721813,
    "lng": 8.8018555,
    "candidateSource": "osm",
    "candidateFoundAt": "2026-02-11",
    "candidateOsmType": "node",
    "candidateOsmId": 2925704395,
    "candidateUrl": ""
  },
  {
    "id": "osm-node-2925893293-al-torchio",
    "name": "Al Torchio",
    "lat": 46.155548,
    "lng": 8.7675225,
    "candidateSource": "osm",
    "candidateFoundAt": "2026-02-11",
    "candidateOsmType": "node",
    "candidateOsmId": 2925893293
  },
  {
    "id": "osm-node-2925898423-bar-kiki",
    "name": "Bar Kiki",
    "lat": 46.1557275,
    "lng": 8.7674822,
    "candidateSource": "osm",
    "candidateFoundAt": "2026-02-11",
    "candidateOsmType": "node",
    "candidateOsmId": 2925898423,
    "candidateUrl": ""
  },
  {
    "id": "osm-node-2928201584-wunderbar",
    "name": "Wunderbar",
    "lat": 45.9472967,
    "lng": 8.6610004,
    "candidateSource": "osm",
    "candidateFoundAt": "2026-02-11",
    "candidateOsmType": "node",
    "candidateOsmId": 2928201584
  },
  {
    "id": "osm-node-2934629304-pizza-pasta-e-basta",
    "name": "Pizza pasta e basta",
    "lat": 45.9467633,
    "lng": 8.661473,
    "candidateSource": "osm",
    "candidateFoundAt": "2026-02-11",
    "candidateOsmType": "node",
    "candidateOsmId": 2934629304,
    "candidatePhone": "+39 337 105 7903",
    "candidateHours": "Mo-Su 12:00-24:00",
    "candidateUrl": ""
  },
  {
    "id": "osm-node-2937984344-osteria-la-riva",
    "name": "Osteria La Riva",
    "lat": 46.1734125,
    "lng": 8.8193074,
    "candidateSource": "osm",
    "candidateFoundAt": "2026-02-11",
    "candidateOsmType": "node",
    "candidateOsmId": 2937984344,
    "candidatePhone": "+41917432093",
    "candidateUrl": ""
  },
  {
    "id": "osm-node-2955196546-m-ama-gaia",
    "name": "M'Ama Gaia",
    "lat": 45.9349667,
    "lng": 8.5700873,
    "candidateSource": "osm",
    "candidateFoundAt": "2026-02-11",
    "candidateOsmType": "node",
    "candidateOsmId": 2955196546,
    "candidateUrl": ""
  },
  {
    "id": "osm-node-3011561199-ristorante-pizzeria-da-nuccia",
    "name": "Ristorante Pizzeria Da Nuccia",
    "lat": 46.0656745,
    "lng": 8.7000005,
    "candidateSource": "osm",
    "candidateFoundAt": "2026-02-11",
    "candidateOsmType": "node",
    "candidateOsmId": 3011561199,
    "candidateUrl": ""
  },
  {
    "id": "osm-node-3043367650-caff-bolongaro",
    "name": "Caffè Bolongaro",
    "lat": 45.9213812,
    "lng": 8.5507079,
    "candidateSource": "osm",
    "candidateFoundAt": "2026-02-11",
    "candidateOsmType": "node",
    "candidateOsmId": 3043367650,
    "candidateUrl": ""
  },
  {
    "id": "osm-node-3043367651-osteria-degli-specchi",
    "name": "Osteria degli Specchi",
    "lat": 45.9223839,
    "lng": 8.5505356,
    "candidateSource": "osm",
    "candidateFoundAt": "2026-02-11",
    "candidateOsmType": "node",
    "candidateOsmId": 3043367651,
    "candidateUrl": ""
  },
  {
    "id": "osm-node-3052595544-ristorante-il-portico",
    "name": "Ristorante Il Portico",
    "lat": 46.064127,
    "lng": 8.7002335,
    "candidateSource": "osm",
    "candidateFoundAt": "2026-02-11",
    "candidateOsmType": "node",
    "candidateOsmId": 3052595544,
    "candidateUrl": ""
  },
  {
    "id": "osm-node-3054581999-pizza-al-campanile",
    "name": "Pizza Al Campanile",
    "lat": 46.0613956,
    "lng": 8.6971252,
    "candidateSource": "osm",
    "candidateFoundAt": "2026-02-11",
    "candidateOsmType": "node",
    "candidateOsmId": 3054581999,
    "candidateUrl": "https://www.facebook.com/pizzaalcampanile/",
    "candidatePhone": "+39 0323 739513",
    "candidateHours": "Tu-Sa 10:30-14:00,18:00-21:00; Su 10:30-14:00,18:00-21:00 open \"summer;estiva\"; Su 18:00-21:00 open \"winter;invernale\"; Mo closed"
  },
  {
    "id": "osm-node-3054582000-parasio-bar",
    "name": "Parasio Bar",
    "lat": 46.0613788,
    "lng": 8.697254,
    "candidateSource": "osm",
    "candidateFoundAt": "2026-02-11",
    "candidateOsmType": "node",
    "candidateOsmId": 3054582000,
    "candidateUrl": ""
  },
  {
    "id": "osm-node-3106072685-ristorante-l-approdo",
    "name": "Ristorante L'Approdo",
    "lat": 46.1781849,
    "lng": 8.8411048,
    "candidateSource": "osm",
    "candidateFoundAt": "2026-02-11",
    "candidateOsmType": "node",
    "candidateOsmId": 3106072685,
    "candidateUrl": "https://www.lapprodo.ch/"
  },
  {
    "id": "osm-node-3111033508-vanini",
    "name": "Vanini",
    "lat": 46.0040397,
    "lng": 8.9512925,
    "candidateSource": "osm",
    "candidateFoundAt": "2026-02-11",
    "candidateOsmType": "node",
    "candidateOsmId": 3111033508,
    "candidateUrl": "http://www.vanini-dolce-caffe.ch/",
    "candidateHours": "Mo-Su 07:00-20:00"
  },
  {
    "id": "osm-node-3239053565-pizzeria-rondalli",
    "name": "Pizzeria Rondalli",
    "lat": 46.1708449,
    "lng": 8.8006354,
    "candidateSource": "osm",
    "candidateFoundAt": "2026-02-11",
    "candidateOsmType": "node",
    "candidateOsmId": 3239053565,
    "candidateUrl": ""
  },
  {
    "id": "osm-node-3239053580-bar-oasi",
    "name": "Bar Oasi",
    "lat": 46.1709984,
    "lng": 8.7995075,
    "candidateSource": "osm",
    "candidateFoundAt": "2026-02-11",
    "candidateOsmType": "node",
    "candidateOsmId": 3239053580,
    "candidateUrl": ""
  },
  {
    "id": "osm-node-3269633261-bar-tennis",
    "name": "Bar Tennis",
    "lat": 45.9530537,
    "lng": 8.9516934,
    "candidateSource": "osm",
    "candidateFoundAt": "2026-02-11",
    "candidateOsmType": "node",
    "candidateOsmId": 3269633261,
    "candidateUrl": ""
  },
  {
    "id": "osm-node-3293054568-ristorante-svizzero",
    "name": "Ristorante Svizzero",
    "lat": 45.9043598,
    "lng": 8.9793763,
    "candidateSource": "osm",
    "candidateFoundAt": "2026-02-11",
    "candidateOsmType": "node",
    "candidateOsmId": 3293054568,
    "candidateUrl": "https://www.albergoristorantesvizzero.com/",
    "candidatePhone": "+41 91 648 19 75"
  },
  {
    "id": "osm-node-3293420284-osteria-unione",
    "name": "Osteria Unione",
    "lat": 45.9049608,
    "lng": 8.973977,
    "candidateSource": "osm",
    "candidateFoundAt": "2026-02-11",
    "candidateOsmType": "node",
    "candidateOsmId": 3293420284,
    "candidateUrl": "http://www.osteriaunione.ch/",
    "candidatePhone": "+41 91 6482353",
    "candidateHours": "Mo,Th,Fr,Sa,Su 09:00-24:00; Tu 09:00-14:00; We off"
  },
  {
    "id": "osm-node-3303130294-ristorante-etnic",
    "name": "Ristorante Etnic",
    "lat": 46.005015,
    "lng": 8.954645,
    "candidateSource": "osm",
    "candidateFoundAt": "2026-02-11",
    "candidateOsmType": "node",
    "candidateOsmId": 3303130294,
    "candidateUrl": "https://www.etnic.ch/",
    "candidatePhone": "+41 91 923 38 25"
  },
  {
    "id": "osm-node-3410471355-trattoria-pizzeria-la-lanterna",
    "name": "Trattoria Pizzeria La Lanterna",
    "lat": 46.1716539,
    "lng": 8.8044484,
    "candidateSource": "osm",
    "candidateFoundAt": "2026-02-11",
    "candidateOsmType": "node",
    "candidateOsmId": 3410471355,
    "candidateUrl": ""
  },
  {
    "id": "osm-node-3512055675-ristorante-pizzeria-o-sole-mio",
    "name": "Ristorante Pizzeria O Sole Mio",
    "lat": 45.957519,
    "lng": 8.618674,
    "candidateSource": "osm",
    "candidateFoundAt": "2026-02-11",
    "candidateOsmType": "node",
    "candidateOsmId": 3512055675,
    "candidateUrl": ""
  },
  {
    "id": "osm-node-3522512784-bar-gelateria-la-fontana",
    "name": "Bar Gelateria La Fontana",
    "lat": 45.9214436,
    "lng": 8.5526755,
    "candidateSource": "osm",
    "candidateFoundAt": "2026-02-11",
    "candidateOsmType": "node",
    "candidateOsmId": 3522512784,
    "candidateUrl": ""
  },
  {
    "id": "osm-node-3524352038-ristorante-pizzeria-san-giorgio",
    "name": "Ristorante Pizzeria San Giorgio",
    "lat": 45.9218656,
    "lng": 8.9297439,
    "candidateSource": "osm",
    "candidateFoundAt": "2026-02-11",
    "candidateOsmType": "node",
    "candidateOsmId": 3524352038,
    "candidateUrl": "https://www.chaletsangiorgio.ch/"
  },
  {
    "id": "osm-node-3536969123-il-cigno-verde",
    "name": "Il Cigno Verde",
    "lat": 45.91069,
    "lng": 8.6190051,
    "candidateSource": "osm",
    "candidateFoundAt": "2026-02-11",
    "candidateOsmType": "node",
    "candidateOsmId": 3536969123,
    "candidatePhone": "+39 0332 667264",
    "candidateUrl": ""
  },
  {
    "id": "osm-node-3545129485-osteria-degli-amici",
    "name": "Osteria Degli Amici",
    "lat": 45.9538647,
    "lng": 8.9057755,
    "candidateSource": "osm",
    "candidateFoundAt": "2026-02-11",
    "candidateOsmType": "node",
    "candidateOsmId": 3545129485,
    "candidateUrl": "https://osteriadegliamici.ch",
    "candidatePhone": "+41919801072",
    "candidateHours": "We-Sa 11:00-15:00, 18:00-23:00; Su 11:00-23:00"
  },
  {
    "id": "osm-node-3563772100-bar-del-gallo",
    "name": "Bar del Gallo",
    "lat": 45.9290947,
    "lng": 8.4796064,
    "candidateSource": "osm",
    "candidateFoundAt": "2026-02-11",
    "candidateOsmType": "node",
    "candidateOsmId": 3563772100,
    "candidatePhone": "+39 0323 28598",
    "candidateUrl": ""
  },
  {
    "id": "osm-node-3563772101-400",
    "name": "400",
    "lat": 45.929312,
    "lng": 8.4798081,
    "candidateSource": "osm",
    "candidateFoundAt": "2026-02-11",
    "candidateOsmType": "node",
    "candidateOsmId": 3563772101
  },
  {
    "id": "osm-node-3564257819-la-vecchia-scogliera",
    "name": "La Vecchia Scogliera",
    "lat": 45.9299919,
    "lng": 8.4810842,
    "candidateSource": "osm",
    "candidateFoundAt": "2026-02-11",
    "candidateOsmType": "node",
    "candidateOsmId": 3564257819,
    "candidateUrl": ""
  },
  {
    "id": "osm-node-3576166516-osteria-verda",
    "name": "Osteria Verda",
    "lat": 45.9357254,
    "lng": 8.9703557,
    "candidateSource": "osm",
    "candidateFoundAt": "2026-02-11",
    "candidateOsmType": "node",
    "candidateOsmId": 3576166516,
    "candidateUrl": ""
  },
  {
    "id": "osm-node-3577237937-tennis-club-brusino-arsizio",
    "name": "Tennis Club Brusino Arsizio",
    "lat": 45.9214444,
    "lng": 8.9301429,
    "candidateSource": "osm",
    "candidateFoundAt": "2026-02-11",
    "candidateOsmType": "node",
    "candidateOsmId": 3577237937,
    "candidateUrl": "https://www.tennisbrusino.ch/"
  },
  {
    "id": "osm-node-3580468756-casa-del-popolo",
    "name": "Casa del Popolo",
    "lat": 45.9310087,
    "lng": 8.5426551,
    "candidateSource": "osm",
    "candidateFoundAt": "2026-02-11",
    "candidateOsmType": "node",
    "candidateOsmId": 3580468756,
    "candidatePhone": "+39 390 323556520",
    "candidateUrl": ""
  },
  {
    "id": "osm-node-3587469833-al-faro",
    "name": "al faro",
    "lat": 46.1540913,
    "lng": 8.7688348,
    "candidateSource": "osm",
    "candidateFoundAt": "2026-02-11",
    "candidateOsmType": "node",
    "candidateOsmId": 3587469833
  },
  {
    "id": "osm-node-3587469834-ristorante-carcani",
    "name": "Ristorante Carcani",
    "lat": 46.154299,
    "lng": 8.7682611,
    "candidateSource": "osm",
    "candidateFoundAt": "2026-02-11",
    "candidateOsmType": "node",
    "candidateOsmId": 3587469834,
    "candidateUrl": ""
  },
  {
    "id": "osm-node-3587474993-antico-ristorante-borromeo",
    "name": "Antico Ristorante Borromeo",
    "lat": 46.1552532,
    "lng": 8.7694101,
    "candidateSource": "osm",
    "candidateFoundAt": "2026-02-11",
    "candidateOsmType": "node",
    "candidateOsmId": 3587474993,
    "candidateUrl": "https://www.antico-borromeo.ch/",
    "candidatePhone": "+41 91 791 92 81"
  },
  {
    "id": "osm-node-3613381340-al-porto-caf-lago",
    "name": "Al Porto Café Lago",
    "lat": 46.1714142,
    "lng": 8.8013409,
    "candidateSource": "osm",
    "candidateFoundAt": "2026-02-11",
    "candidateOsmType": "node",
    "candidateOsmId": 3613381340,
    "candidateUrl": ""
  },
  {
    "id": "osm-node-3627591053-arancioamaro",
    "name": "Arancioamaro",
    "lat": 46.0198761,
    "lng": 8.6836346,
    "candidateSource": "osm",
    "candidateFoundAt": "2026-02-11",
    "candidateOsmType": "node",
    "candidateOsmId": 3627591053,
    "candidateUrl": "https://www.arancioamaro.it/",
    "candidatePhone": "+39 339 8318937"
  },
  {
    "id": "osm-node-3627628174-amantes",
    "name": "Amantes",
    "lat": 46.0221401,
    "lng": 8.6816727,
    "candidateSource": "osm",
    "candidateFoundAt": "2026-02-11",
    "candidateOsmType": "node",
    "candidateOsmId": 3627628174,
    "candidatePhone": "+39 323 788 160",
    "candidateHours": "Mo-Su 17:30-00:00"
  },
  {
    "id": "osm-node-3631937313-bahia",
    "name": "Bahia",
    "lat": 46.1209969,
    "lng": 8.7136319,
    "candidateSource": "osm",
    "candidateFoundAt": "2026-02-11",
    "candidateOsmType": "node",
    "candidateOsmId": 3631937313,
    "candidateUrl": "https://www.bahiabrissago.ch/"
  },
  {
    "id": "osm-node-3632051966-oggi-pasta",
    "name": "Oggi Pasta",
    "lat": 46.0614162,
    "lng": 8.698675,
    "candidateSource": "osm",
    "candidateFoundAt": "2026-02-11",
    "candidateOsmType": "node",
    "candidateOsmId": 3632051966,
    "candidateUrl": ""
  },
  {
    "id": "osm-node-3639889314-oldrati",
    "name": "Oldrati",
    "lat": 46.1708978,
    "lng": 8.8011063,
    "candidateSource": "osm",
    "candidateFoundAt": "2026-02-11",
    "candidateOsmType": "node",
    "candidateOsmId": 3639889314
  },
  {
    "id": "osm-node-3639893372-ristorante-villino-chalet",
    "name": "Ristorante Villino Chalet",
    "lat": 46.1722389,
    "lng": 8.8019305,
    "candidateSource": "osm",
    "candidateFoundAt": "2026-02-11",
    "candidateOsmType": "node",
    "candidateOsmId": 3639893372,
    "candidateUrl": ""
  },
  {
    "id": "osm-node-3639895516-antica-osteria-il-malatesta",
    "name": "Antica Osteria Il Malatesta",
    "lat": 46.1720085,
    "lng": 8.8059484,
    "candidateSource": "osm",
    "candidateFoundAt": "2026-02-11",
    "candidateOsmType": "node",
    "candidateOsmId": 3639895516,
    "candidateUrl": ""
  },
  {
    "id": "osm-node-3639897428-burbai-bar-ristorante-pizzeria",
    "name": "Burbai bar ristorante pizzeria",
    "lat": 46.1714363,
    "lng": 8.8075011,
    "candidateSource": "osm",
    "candidateFoundAt": "2026-02-11",
    "candidateOsmType": "node",
    "candidateOsmId": 3639897428,
    "candidateUrl": ""
  },
  {
    "id": "osm-node-3639897429-la-vela",
    "name": "La Vela",
    "lat": 46.1716241,
    "lng": 8.8066351,
    "candidateSource": "osm",
    "candidateFoundAt": "2026-02-11",
    "candidateOsmType": "node",
    "candidateOsmId": 3639897429
  },
  {
    "id": "osm-node-3639903851-gelateria-snackbar-chenal",
    "name": "Gelateria Snackbar Chenal",
    "lat": 46.1717169,
    "lng": 8.8020083,
    "candidateSource": "osm",
    "candidateFoundAt": "2026-02-11",
    "candidateOsmType": "node",
    "candidateOsmId": 3639903851,
    "candidateUrl": ""
  },
  {
    "id": "osm-node-3639903852-al-pozz",
    "name": "Al Pozz",
    "lat": 46.1718558,
    "lng": 8.8032287,
    "candidateSource": "osm",
    "candidateFoundAt": "2026-02-11",
    "candidateOsmType": "node",
    "candidateOsmId": 3639903852
  },
  {
    "id": "osm-node-3639903853-di-vino",
    "name": "Di Vino",
    "lat": 46.1717838,
    "lng": 8.8026896,
    "candidateSource": "osm",
    "candidateFoundAt": "2026-02-11",
    "candidateOsmType": "node",
    "candidateOsmId": 3639903853
  },
  {
    "id": "osm-node-3639903854-osteria-del-centenario",
    "name": "Osteria del Centenario",
    "lat": 46.1718428,
    "lng": 8.8030336,
    "candidateSource": "osm",
    "candidateFoundAt": "2026-02-11",
    "candidateOsmType": "node",
    "candidateOsmId": 3639903854,
    "candidateUrl": ""
  },
  {
    "id": "osm-node-3656868596-ristorante-lido-mappo",
    "name": "Ristorante Lido Mappo",
    "lat": 46.1766031,
    "lng": 8.8423077,
    "candidateSource": "osm",
    "candidateFoundAt": "2026-02-11",
    "candidateOsmType": "node",
    "candidateOsmId": 3656868596,
    "candidateUrl": ""
  },
  {
    "id": "osm-node-3660340266-parco-lounge-caf",
    "name": "Parco Lounge Café",
    "lat": 46.1607611,
    "lng": 8.8026124,
    "candidateSource": "osm",
    "candidateFoundAt": "2026-02-11",
    "candidateOsmType": "node",
    "candidateOsmId": 3660340266,
    "candidateUrl": ""
  },
  {
    "id": "osm-node-3660525257-ristorante-al-gabbiano",
    "name": "Ristorante al Gabbiano",
    "lat": 46.1531996,
    "lng": 8.7703511,
    "candidateSource": "osm",
    "candidateFoundAt": "2026-02-11",
    "candidateOsmType": "node",
    "candidateOsmId": 3660525257,
    "candidateUrl": "http://www.ristorantealgabbiano.ch"
  },
  {
    "id": "osm-node-3660638934-trattoria-pizzeria-bella-ciao",
    "name": "Trattoria Pizzeria Bella Ciao",
    "lat": 46.1545955,
    "lng": 8.7677234,
    "candidateSource": "osm",
    "candidateFoundAt": "2026-02-11",
    "candidateOsmType": "node",
    "candidateOsmId": 3660638934,
    "candidateUrl": ""
  },
  {
    "id": "osm-node-3664409332-cinese-lungolago",
    "name": "Cinese Lungolago",
    "lat": 46.1796345,
    "lng": 8.8427587,
    "candidateSource": "osm",
    "candidateFoundAt": "2026-02-11",
    "candidateOsmType": "node",
    "candidateOsmId": 3664409332,
    "candidateUrl": ""
  },
  {
    "id": "osm-node-3664412569-all-angolo-bar-gelateria",
    "name": "All'Angolo Bar Gelateria",
    "lat": 46.1549768,
    "lng": 8.7667881,
    "candidateSource": "osm",
    "candidateFoundAt": "2026-02-11",
    "candidateOsmType": "node",
    "candidateOsmId": 3664412569,
    "candidateUrl": ""
  },
  {
    "id": "osm-node-3676392793-giannino-caf",
    "name": "Giannino Café",
    "lat": 46.1707148,
    "lng": 8.7997349,
    "candidateSource": "osm",
    "candidateFoundAt": "2026-02-11",
    "candidateOsmType": "node",
    "candidateOsmId": 3676392793,
    "candidateHours": "Mo-Sa 08:00-22:30; Su,PH 08:30-22:30",
    "candidateUrl": ""
  },
  {
    "id": "osm-node-3702915310-caffe-stanglini",
    "name": "Caffe Stanglini",
    "lat": 45.931032,
    "lng": 8.5403354,
    "candidateSource": "osm",
    "candidateFoundAt": "2026-02-11",
    "candidateOsmType": "node",
    "candidateOsmId": 3702915310,
    "candidateUrl": ""
  },
  {
    "id": "osm-node-3703080011-fantasia",
    "name": "Fantasia",
    "lat": 45.9299685,
    "lng": 8.5414334,
    "candidateSource": "osm",
    "candidateFoundAt": "2026-02-11",
    "candidateOsmType": "node",
    "candidateOsmId": 3703080011
  },
  {
    "id": "osm-node-3706225660-bar-sport",
    "name": "Bar Sport",
    "lat": 45.9294908,
    "lng": 8.5418521,
    "candidateSource": "osm",
    "candidateFoundAt": "2026-02-11",
    "candidateOsmType": "node",
    "candidateOsmId": 3706225660,
    "candidateUrl": ""
  },
  {
    "id": "osm-node-3711092917-cor87",
    "name": "Cor87",
    "lat": 45.9350028,
    "lng": 8.5709694,
    "candidateSource": "osm",
    "candidateFoundAt": "2026-02-11",
    "candidateOsmType": "node",
    "candidateOsmId": 3711092917
  },
  {
    "id": "osm-node-3711092924-plaza-caf",
    "name": "Plaza Cafè",
    "lat": 45.9351821,
    "lng": 8.5704765,
    "candidateSource": "osm",
    "candidateFoundAt": "2026-02-11",
    "candidateOsmType": "node",
    "candidateOsmId": 3711092924,
    "candidateUrl": ""
  },
  {
    "id": "osm-node-3716878601-dam-a-traa",
    "name": "Dam A Traa",
    "lat": 45.9306338,
    "lng": 8.5408745,
    "candidateSource": "osm",
    "candidateFoundAt": "2026-02-11",
    "candidateOsmType": "node",
    "candidateOsmId": 3716878601,
    "candidateUrl": "http://damatraa.it",
    "candidatePhone": "+39 0323 557152",
    "candidateHours": "Tu-Su 11:00-15:00,18:00-26:00"
  },
  {
    "id": "osm-node-3725482746-amy-sushi",
    "name": "Amy Sushi",
    "lat": 45.9095745,
    "lng": 8.6197353,
    "candidateSource": "osm",
    "candidateFoundAt": "2026-02-11",
    "candidateOsmType": "node",
    "candidateOsmId": 3725482746,
    "candidatePhone": "+39 0332 628041",
    "candidateHours": "Mo,We-Su 12:00-15:00,19:00-23:30; Tu off",
    "candidateUrl": ""
  },
  {
    "id": "osm-node-3734222792-sakura",
    "name": "Sakura",
    "lat": 45.9670954,
    "lng": 8.857503,
    "candidateSource": "osm",
    "candidateFoundAt": "2026-02-11",
    "candidateOsmType": "node",
    "candidateOsmId": 3734222792,
    "candidateHours": "We-Su 10:30-14:30,17:30-23:30+; Mo,Tu 17:30-23:30+"
  },
  {
    "id": "osm-node-3751418834-pasticceria-dei-portici",
    "name": "Pasticceria dei Portici",
    "lat": 45.9607015,
    "lng": 8.6793788,
    "candidateSource": "osm",
    "candidateFoundAt": "2026-02-11",
    "candidateOsmType": "node",
    "candidateOsmId": 3751418834,
    "candidateUrl": "https://pasticceriadeiporticisnc.eatbu.com/",
    "candidatePhone": "+39 0332 547034",
    "candidateHours": "We-Mo 05:00-19:30"
  },
  {
    "id": "osm-node-3758964471-snak-bar-eliantus",
    "name": "Snak bar Eliantus",
    "lat": 46.0058713,
    "lng": 8.9601315,
    "candidateSource": "osm",
    "candidateFoundAt": "2026-02-11",
    "candidateOsmType": "node",
    "candidateOsmId": 3758964471,
    "candidateUrl": ""
  },
  {
    "id": "osm-node-3758964479-domingo",
    "name": "Domingo",
    "lat": 46.0057972,
    "lng": 8.9580819,
    "candidateSource": "osm",
    "candidateFoundAt": "2026-02-11",
    "candidateOsmType": "node",
    "candidateOsmId": 3758964479
  },
  {
    "id": "osm-node-3758964482-cafe-a-port",
    "name": "cafe a portè",
    "lat": 46.0057527,
    "lng": 8.9571895,
    "candidateSource": "osm",
    "candidateFoundAt": "2026-02-11",
    "candidateOsmType": "node",
    "candidateOsmId": 3758964482,
    "candidateUrl": "http://cafe-a-porter.ch"
  },
  {
    "id": "osm-node-3760350634-kream",
    "name": "Kream",
    "lat": 46.003896,
    "lng": 8.9521643,
    "candidateSource": "osm",
    "candidateFoundAt": "2026-02-11",
    "candidateOsmType": "node",
    "candidateOsmId": 3760350634,
    "candidatePhone": "+41 91 222 59 15",
    "candidateHours": "Su-Th 08:00-20:00; Fr-Sa 08:00-22:00"
  },
  {
    "id": "osm-node-3760356759-ristorante-olimpia",
    "name": "Ristorante Olimpia",
    "lat": 46.0035715,
    "lng": 8.9514348,
    "candidateSource": "osm",
    "candidateFoundAt": "2026-02-11",
    "candidateOsmType": "node",
    "candidateOsmId": 3760356759,
    "candidateUrl": "https://www.ristoranteolimpia.ch"
  },
  {
    "id": "osm-node-3876214063-la-bottega-del-caff",
    "name": "La bottega del caffè",
    "lat": 45.9085145,
    "lng": 8.6209704,
    "candidateSource": "osm",
    "candidateFoundAt": "2026-02-11",
    "candidateOsmType": "node",
    "candidateOsmId": 3876214063,
    "candidatePhone": "+39 0332 626767",
    "candidateHours": "07:00-19:00",
    "candidateUrl": ""
  },
  {
    "id": "osm-node-3968605734-taverna-dei-pescatori",
    "name": "Taverna dei Pescatori",
    "lat": 45.9625227,
    "lng": 8.870457,
    "candidateSource": "osm",
    "candidateFoundAt": "2026-02-11",
    "candidateOsmType": "node",
    "candidateOsmId": 3968605734,
    "candidatePhone": "+41 91 606 18 47",
    "candidateHours": "Mo-Su 09:30-22:30; We off",
    "candidateUrl": ""
  },
  {
    "id": "osm-node-4043767489-club-nautico",
    "name": "Club nautico",
    "lat": 46.1233922,
    "lng": 8.7144869,
    "candidateSource": "osm",
    "candidateFoundAt": "2026-02-11",
    "candidateOsmType": "node",
    "candidateOsmId": 4043767489,
    "candidateUrl": ""
  },
  {
    "id": "osm-node-4095929635-osteria-cyrano",
    "name": "Osteria Cyrano",
    "lat": 46.0059068,
    "lng": 8.9548494,
    "candidateSource": "osm",
    "candidateFoundAt": "2026-02-11",
    "candidateOsmType": "node",
    "candidateOsmId": 4095929635,
    "candidatePhone": "+41 91 225 44 44",
    "candidateUrl": ""
  },
  {
    "id": "osm-node-4177090216-calianna",
    "name": "Calianna",
    "lat": 45.9116993,
    "lng": 8.6185761,
    "candidateSource": "osm",
    "candidateFoundAt": "2026-02-11",
    "candidateOsmType": "node",
    "candidateOsmId": 4177090216,
    "candidatePhone": "+39 0332 667315"
  },
  {
    "id": "osm-node-4213596926-l-imbuto",
    "name": "l'imbuto",
    "lat": 46.0609338,
    "lng": 8.7004154,
    "candidateSource": "osm",
    "candidateFoundAt": "2026-02-11",
    "candidateOsmType": "node",
    "candidateOsmId": 4213596926,
    "candidateUrl": "http://www.ristorantelimbuto.it",
    "candidatePhone": "+39 0323 70026"
  },
  {
    "id": "osm-node-4225655824-ristorante-degli-angioli",
    "name": "Ristorante degli Angioli",
    "lat": 46.1523156,
    "lng": 8.7715031,
    "candidateSource": "osm",
    "candidateFoundAt": "2026-02-11",
    "candidateOsmType": "node",
    "candidateOsmId": 4225655824,
    "candidateUrl": "http://www.angioli.ch"
  },
  {
    "id": "osm-node-4321692108-vera-gelateria",
    "name": "Vera gelateria",
    "lat": 46.1712584,
    "lng": 8.8001713,
    "candidateSource": "osm",
    "candidateFoundAt": "2026-02-11",
    "candidateOsmType": "node",
    "candidateOsmId": 4321692108,
    "candidateHours": "Mo-Sa 08:30-19:00; Su 11:30-19:00",
    "candidateUrl": ""
  },
  {
    "id": "osm-node-4347096191-carillon",
    "name": "Carillon",
    "lat": 45.9615329,
    "lng": 8.8570188,
    "candidateSource": "osm",
    "candidateFoundAt": "2026-02-11",
    "candidateOsmType": "node",
    "candidateOsmId": 4347096191,
    "candidateUrl": "https://www.hotelcarillon.net",
    "candidatePhone": "+39 0332 550311",
    "candidateHours": "08:00-15:00,18:00-24:00"
  },
  {
    "id": "osm-node-4349051192-birreria-il-mulino",
    "name": "Birreria Il Mulino",
    "lat": 45.9364895,
    "lng": 8.5747347,
    "candidateSource": "osm",
    "candidateFoundAt": "2026-02-11",
    "candidateOsmType": "node",
    "candidateOsmId": 4349051192,
    "candidateUrl": ""
  },
  {
    "id": "osm-node-4364495158-porto-nuovo-drink-and-food",
    "name": "Porto Nuovo Drink and Food",
    "lat": 45.9972706,
    "lng": 8.7332039,
    "candidateSource": "osm",
    "candidateFoundAt": "2026-02-11",
    "candidateOsmType": "node",
    "candidateOsmId": 4364495158,
    "candidateUrl": ""
  },
  {
    "id": "osm-node-4447035008-patrick-s-kafe",
    "name": "Patrick's Kafe",
    "lat": 45.9101962,
    "lng": 8.6193462,
    "candidateSource": "osm",
    "candidateFoundAt": "2026-02-11",
    "candidateOsmType": "node",
    "candidateOsmId": 4447035008,
    "candidatePhone": "+39 345 4689473",
    "candidateUrl": ""
  },
  {
    "id": "osm-node-4447882190-taverna-concordia",
    "name": "Taverna Concordia",
    "lat": 45.9112439,
    "lng": 8.6183073,
    "candidateSource": "osm",
    "candidateFoundAt": "2026-02-11",
    "candidateOsmType": "node",
    "candidateOsmId": 4447882190,
    "candidateUrl": "https://concordialaveno.it/",
    "candidatePhone": "+39 0332 666320",
    "candidateHours": "Sa 11:00-15:30,17:00-01:00; Su 11:00-16:00,17:30-22:30; We-Th 17:00-24:00; Fr 17:00-01:00; Mo-Tu closed; PH closed"
  },
  {
    "id": "osm-node-4459582289-caff-della-piazza",
    "name": "Caffè della Piazza",
    "lat": 45.9476932,
    "lng": 8.8904878,
    "candidateSource": "osm",
    "candidateFoundAt": "2026-02-11",
    "candidateOsmType": "node",
    "candidateOsmId": 4459582289,
    "candidateUrl": ""
  },
  {
    "id": "osm-node-4459582290-capriccio",
    "name": "Capriccio",
    "lat": 45.9589484,
    "lng": 8.8728486,
    "candidateSource": "osm",
    "candidateFoundAt": "2026-02-11",
    "candidateOsmType": "node",
    "candidateOsmId": 4459582290
  },
  {
    "id": "osm-node-4459582294-ristorante-il-trionfo",
    "name": "Ristorante Il Trionfo",
    "lat": 45.9482982,
    "lng": 8.8904373,
    "candidateSource": "osm",
    "candidateFoundAt": "2026-02-11",
    "candidateOsmType": "node",
    "candidateOsmId": 4459582294,
    "candidateUrl": ""
  },
  {
    "id": "osm-node-4459582299-osteria-del-carde",
    "name": "osteria del carde",
    "lat": 45.9589572,
    "lng": 8.8730065,
    "candidateSource": "osm",
    "candidateFoundAt": "2026-02-11",
    "candidateOsmType": "node",
    "candidateOsmId": 4459582299,
    "candidateUrl": ""
  },
  {
    "id": "osm-node-4471009367-bar-skipper",
    "name": "Bar Skipper",
    "lat": 45.9085545,
    "lng": 8.6214171,
    "candidateSource": "osm",
    "candidateFoundAt": "2026-02-11",
    "candidateOsmType": "node",
    "candidateOsmId": 4471009367,
    "candidateUrl": ""
  },
  {
    "id": "osm-node-4478074889-caff-vela",
    "name": "Caffè Vela",
    "lat": 45.9112738,
    "lng": 8.6179925,
    "candidateSource": "osm",
    "candidateFoundAt": "2026-02-11",
    "candidateOsmType": "node",
    "candidateOsmId": 4478074889,
    "candidateUrl": ""
  },
  {
    "id": "osm-node-4485642529-antica-ceramica",
    "name": "Antica Ceramica",
    "lat": 45.9134898,
    "lng": 8.6150025,
    "candidateSource": "osm",
    "candidateFoundAt": "2026-02-11",
    "candidateOsmType": "node",
    "candidateOsmId": 4485642529,
    "candidateUrl": ""
  },
  {
    "id": "osm-node-4485648844-il-burchiello",
    "name": "Il Burchiello",
    "lat": 45.9119115,
    "lng": 8.6175076,
    "candidateSource": "osm",
    "candidateFoundAt": "2026-02-11",
    "candidateOsmType": "node",
    "candidateOsmId": 4485648844,
    "candidateUrl": "https://ristoranteilburchiello.eatbu.com",
    "candidatePhone": "+39 0332 316390",
    "candidateHours": "Mo-Su 11:00-15:30,18:00-23:30"
  },
  {
    "id": "osm-node-4485648845-kopi-club",
    "name": "Kopi Club",
    "lat": 45.9116436,
    "lng": 8.6176867,
    "candidateSource": "osm",
    "candidateFoundAt": "2026-02-11",
    "candidateOsmType": "node",
    "candidateOsmId": 4485648845,
    "candidateUrl": "http://www.theoldkopiclub.com/",
    "candidatePhone": "+39 0332 669776",
    "candidateHours": "Mo-Tu,Th-Su 10:00-22:30; We 09:00-22:30; PH closed"
  },
  {
    "id": "osm-node-4499076098-bar-campione",
    "name": "Bar Campione",
    "lat": 45.9686396,
    "lng": 8.9706124,
    "candidateSource": "osm",
    "candidateFoundAt": "2026-02-11",
    "candidateOsmType": "node",
    "candidateOsmId": 4499076098,
    "candidateUrl": ""
  },
  {
    "id": "osm-node-4499076105-dolcevita-caffe",
    "name": "Dolcevita Caffe",
    "lat": 45.9686871,
    "lng": 8.9708313,
    "candidateSource": "osm",
    "candidateFoundAt": "2026-02-11",
    "candidateOsmType": "node",
    "candidateOsmId": 4499076105,
    "candidateUrl": ""
  },
  {
    "id": "osm-node-4499076111-ristorante-taverna",
    "name": "Ristorante Taverna",
    "lat": 45.9688286,
    "lng": 8.9708038,
    "candidateSource": "osm",
    "candidateFoundAt": "2026-02-11",
    "candidateOsmType": "node",
    "candidateOsmId": 4499076111,
    "candidateUrl": ""
  },
  {
    "id": "osm-node-4499076126-caf-de-paris",
    "name": "Café de Paris",
    "lat": 45.9692247,
    "lng": 8.9706878,
    "candidateSource": "osm",
    "candidateFoundAt": "2026-02-11",
    "candidateOsmType": "node",
    "candidateOsmId": 4499076126,
    "candidateUrl": ""
  },
  {
    "id": "osm-node-4537063389-al-porto",
    "name": "Al Porto",
    "lat": 46.1719731,
    "lng": 8.8010915,
    "candidateSource": "osm",
    "candidateFoundAt": "2026-02-11",
    "candidateOsmType": "node",
    "candidateOsmId": 4537063389,
    "candidateHours": "06:30-18:30"
  },
  {
    "id": "osm-node-4551185608-al-forte-pedro",
    "name": "Al Forte (Pedro)",
    "lat": 46.0054559,
    "lng": 8.953365,
    "candidateSource": "osm",
    "candidateFoundAt": "2026-02-11",
    "candidateOsmType": "node",
    "candidateOsmId": 4551185608,
    "candidateUrl": ""
  },
  {
    "id": "osm-node-4602958926-hotel-primavera",
    "name": "Hotel Primavera",
    "lat": 46.123032,
    "lng": 8.7112691,
    "candidateSource": "osm",
    "candidateFoundAt": "2026-02-11",
    "candidateOsmType": "node",
    "candidateOsmId": 4602958926,
    "candidateUrl": "http://www.primavera-hotel.com",
    "candidatePhone": "+41 91 7931251"
  },
  {
    "id": "osm-node-4613221589-osteria-chiara",
    "name": "Osteria Chiara",
    "lat": 46.171889,
    "lng": 8.8060983,
    "candidateSource": "osm",
    "candidateFoundAt": "2026-02-11",
    "candidateOsmType": "node",
    "candidateOsmId": 4613221589,
    "candidateUrl": "https://www.osteriachiara.ch/",
    "candidatePhone": "+41917433296"
  },
  {
    "id": "osm-node-4661159797-incontro",
    "name": "Incontro",
    "lat": 46.1198331,
    "lng": 8.7112877,
    "candidateSource": "osm",
    "candidateFoundAt": "2026-02-11",
    "candidateOsmType": "node",
    "candidateOsmId": 4661159797
  },
  {
    "id": "osm-node-4663093695-camelia",
    "name": "Camelia",
    "lat": 46.1189265,
    "lng": 8.7100322,
    "candidateSource": "osm",
    "candidateFoundAt": "2026-02-11",
    "candidateOsmType": "node",
    "candidateOsmId": 4663093695
  },
  {
    "id": "osm-node-4663093697-leoncavallo",
    "name": "Leoncavallo",
    "lat": 46.1183138,
    "lng": 8.7092303,
    "candidateSource": "osm",
    "candidateFoundAt": "2026-02-11",
    "candidateOsmType": "node",
    "candidateOsmId": 4663093697
  },
  {
    "id": "osm-node-4663093700-pizzeria-portico",
    "name": "Pizzeria Portico",
    "lat": 46.1198309,
    "lng": 8.7110384,
    "candidateSource": "osm",
    "candidateFoundAt": "2026-02-11",
    "candidateOsmType": "node",
    "candidateOsmId": 4663093700,
    "candidateUrl": ""
  },
  {
    "id": "osm-node-4694114384-ristorante-delle-carr",
    "name": "Ristorante delle Carrà",
    "lat": 46.1555677,
    "lng": 8.7684341,
    "candidateSource": "osm",
    "candidateFoundAt": "2026-02-11",
    "candidateOsmType": "node",
    "candidateOsmId": 4694114384,
    "candidateUrl": ""
  },
  {
    "id": "osm-node-4694115133-ristorante-il-cortile",
    "name": "Ristorante il Cortile",
    "lat": 46.155589,
    "lng": 8.7683386,
    "candidateSource": "osm",
    "candidateFoundAt": "2026-02-11",
    "candidateOsmType": "node",
    "candidateOsmId": 4694115133,
    "candidateUrl": ""
  },
  {
    "id": "osm-node-4729381696-la-terrazza",
    "name": "La Terrazza",
    "lat": 45.9484451,
    "lng": 8.8902297,
    "candidateSource": "osm",
    "candidateFoundAt": "2026-02-11",
    "candidateOsmType": "node",
    "candidateOsmId": 4729381696
  },
  {
    "id": "osm-node-4741707329-mary",
    "name": "Mary",
    "lat": 46.0033518,
    "lng": 8.9508701,
    "candidateSource": "osm",
    "candidateFoundAt": "2026-02-11",
    "candidateOsmType": "node",
    "candidateOsmId": 4741707329,
    "candidateUrl": "https://ristorantemary.ch/",
    "candidatePhone": "+41 91 923 38 06",
    "candidateHours": "Mo-So 11:30-00:00"
  },
  {
    "id": "osm-node-4741707332-sass",
    "name": "Sass",
    "lat": 46.0040342,
    "lng": 8.9510344,
    "candidateSource": "osm",
    "candidateFoundAt": "2026-02-11",
    "candidateOsmType": "node",
    "candidateOsmId": 4741707332
  },
  {
    "id": "osm-node-4750882924-sass-caf-vineria",
    "name": "Sass Café Vineria",
    "lat": 46.0040115,
    "lng": 8.9511446,
    "candidateSource": "osm",
    "candidateFoundAt": "2026-02-11",
    "candidateOsmType": "node",
    "candidateOsmId": 4750882924,
    "candidateUrl": "https://www.sasscafe.ch/",
    "candidatePhone": "+41 91 922 21 83",
    "candidateHours": "Mo-Sa 11:00-00:00"
  },
  {
    "id": "osm-node-4751711980-da-stella-e-sonia",
    "name": "da Stella e Sonia",
    "lat": 45.9921187,
    "lng": 8.946842,
    "candidateSource": "osm",
    "candidateFoundAt": "2026-02-11",
    "candidateOsmType": "node",
    "candidateOsmId": 4751711980,
    "candidateUrl": ""
  },
  {
    "id": "osm-node-4760805623-breva",
    "name": "Breva",
    "lat": 46.006052,
    "lng": 8.966219,
    "candidateSource": "osm",
    "candidateFoundAt": "2026-02-11",
    "candidateOsmType": "node",
    "candidateOsmId": 4760805623,
    "candidateUrl": "https://pizzeriabreva.ch/",
    "candidatePhone": "+41 91 976 07 07",
    "candidateHours": "Tu-Th 07:00-00:00; Fr-Sa 08:00-01:00; Su 08:00-00:00"
  },
  {
    "id": "osm-node-4761601722-come-a-casa",
    "name": "Come a Casa",
    "lat": 45.9104782,
    "lng": 8.6186941,
    "candidateSource": "osm",
    "candidateFoundAt": "2026-02-11",
    "candidateOsmType": "node",
    "candidateOsmId": 4761601722,
    "candidatePhone": "+39 0332 666001",
    "candidateHours": "Tu-Th,Su 12:00-14:00,19:00-21:30+; Fr-Sa 12:00-14:00,19:00-22:00+; Mo closed; PH closed",
    "candidateUrl": ""
  },
  {
    "id": "osm-node-4767654800-yama",
    "name": "Yama",
    "lat": 45.9601097,
    "lng": 8.8627701,
    "candidateSource": "osm",
    "candidateFoundAt": "2026-02-11",
    "candidateOsmType": "node",
    "candidateOsmId": 4767654800,
    "candidateUrl": "http://www.yama-restaurant.com/",
    "candidatePhone": "+39 0332 523343",
    "candidateHours": "Mo-We 19:00-24:00; Th-Su 12:00-15:00,19:00-24:00"
  },
  {
    "id": "osm-node-4786456222-mizuumi-sushi",
    "name": "Mizuumi Sushi",
    "lat": 45.9664124,
    "lng": 8.8587073,
    "candidateSource": "osm",
    "candidateFoundAt": "2026-02-11",
    "candidateOsmType": "node",
    "candidateOsmId": 4786456222,
    "candidatePhone": "+39 338 500 8828",
    "candidateUrl": ""
  },
  {
    "id": "osm-node-4790130923-gli-artisti",
    "name": "Gli artisti",
    "lat": 46.0010013,
    "lng": 8.7427029,
    "candidateSource": "osm",
    "candidateFoundAt": "2026-02-11",
    "candidateOsmType": "node",
    "candidateOsmId": 4790130923,
    "candidateUrl": "https://www.ristorantepizzeriagliartisti.it",
    "candidatePhone": "+39 0332 530335",
    "candidateHours": "Tu-Su 12:00-14:30,18:00-22:30"
  },
  {
    "id": "osm-node-4795307627-la-nuova-sella-d-oro",
    "name": "La Nuova Sella d'Oro",
    "lat": 45.9535859,
    "lng": 8.8761943,
    "candidateSource": "osm",
    "candidateFoundAt": "2026-02-11",
    "candidateOsmType": "node",
    "candidateOsmId": 4795307627,
    "candidatePhone": "+39 0332 523450",
    "candidateUrl": ""
  },
  {
    "id": "osm-node-4799497121-al-rosselli",
    "name": "Al Rosselli",
    "lat": 45.9090524,
    "lng": 8.620423,
    "candidateSource": "osm",
    "candidateFoundAt": "2026-02-11",
    "candidateOsmType": "node",
    "candidateOsmId": 4799497121
  },
  {
    "id": "osm-node-4837502927-lift-caffe-risto-bar",
    "name": "Lift Caffe Risto Bar",
    "lat": 45.9356721,
    "lng": 8.5743715,
    "candidateSource": "osm",
    "candidateFoundAt": "2026-02-11",
    "candidateOsmType": "node",
    "candidateOsmId": 4837502927,
    "candidateUrl": ""
  },
  {
    "id": "osm-node-4843903600-caff-le-vele",
    "name": "Caffè le Vele",
    "lat": 46.022215,
    "lng": 8.6857945,
    "candidateSource": "osm",
    "candidateFoundAt": "2026-02-11",
    "candidateOsmType": "node",
    "candidateOsmId": 4843903600,
    "candidateUrl": ""
  },
  {
    "id": "osm-node-4865146596-la-barchetta",
    "name": "La Barchetta",
    "lat": 45.9690029,
    "lng": 8.9712743,
    "candidateSource": "osm",
    "candidateFoundAt": "2026-02-11",
    "candidateOsmType": "node",
    "candidateOsmId": 4865146596
  },
  {
    "id": "osm-node-4881594734-caff-sport-1988",
    "name": "Caffè Sport 1988",
    "lat": 46.0630961,
    "lng": 8.6999448,
    "candidateSource": "osm",
    "candidateFoundAt": "2026-02-11",
    "candidateOsmType": "node",
    "candidateOsmId": 4881594734,
    "candidateUrl": ""
  },
  {
    "id": "osm-node-4881594740-marencacaf",
    "name": "Marencacafè",
    "lat": 46.0665519,
    "lng": 8.6993657,
    "candidateSource": "osm",
    "candidateFoundAt": "2026-02-11",
    "candidateOsmType": "node",
    "candidateOsmId": 4881594740
  },
  {
    "id": "osm-node-4881594741-osteria-la-scala",
    "name": "Osteria La Scala",
    "lat": 46.0621834,
    "lng": 8.7000737,
    "candidateSource": "osm",
    "candidateFoundAt": "2026-02-11",
    "candidateOsmType": "node",
    "candidateOsmId": 4881594741,
    "candidateUrl": ""
  },
  {
    "id": "osm-node-4881594743-magistris",
    "name": "Magistris",
    "lat": 46.0642553,
    "lng": 8.7003701,
    "candidateSource": "osm",
    "candidateFoundAt": "2026-02-11",
    "candidateOsmType": "node",
    "candidateOsmId": 4881594743
  },
  {
    "id": "osm-node-4881594746-porto-vecchio",
    "name": "Porto Vecchio",
    "lat": 46.0620271,
    "lng": 8.7001604,
    "candidateSource": "osm",
    "candidateFoundAt": "2026-02-11",
    "candidateOsmType": "node",
    "candidateOsmId": 4881594746,
    "candidateUrl": "http://portolago.com/SpondaLombarda/Luino/Porti/DescrizionePorto.html"
  },
  {
    "id": "osm-node-4881594747-centro",
    "name": "Centro",
    "lat": 46.0625571,
    "lng": 8.6974376,
    "candidateSource": "osm",
    "candidateFoundAt": "2026-02-11",
    "candidateOsmType": "node",
    "candidateOsmId": 4881594747
  },
  {
    "id": "osm-node-4881594750-matatacafe",
    "name": "Matatacafe",
    "lat": 46.0611355,
    "lng": 8.7003276,
    "candidateSource": "osm",
    "candidateFoundAt": "2026-02-11",
    "candidateOsmType": "node",
    "candidateOsmId": 4881594750
  },
  {
    "id": "osm-node-4881594753-beer-bante",
    "name": "Beer-Bante",
    "lat": 46.0645501,
    "lng": 8.7003176,
    "candidateSource": "osm",
    "candidateFoundAt": "2026-02-11",
    "candidateOsmType": "node",
    "candidateOsmId": 4881594753,
    "candidateUrl": ""
  },
  {
    "id": "osm-node-4881594754-caff-del-corso",
    "name": "Caffè del Corso",
    "lat": 46.0614743,
    "lng": 8.6984602,
    "candidateSource": "osm",
    "candidateFoundAt": "2026-02-11",
    "candidateOsmType": "node",
    "candidateOsmId": 4881594754,
    "candidateUrl": ""
  },
  {
    "id": "osm-node-4881594760-victory",
    "name": "Victory",
    "lat": 46.0615979,
    "lng": 8.6978774,
    "candidateSource": "osm",
    "candidateFoundAt": "2026-02-11",
    "candidateOsmType": "node",
    "candidateOsmId": 4881594760
  },
  {
    "id": "osm-node-4881594763-vizi-e-sfizi",
    "name": "vizi e sfizi",
    "lat": 46.061701,
    "lng": 8.6996852,
    "candidateSource": "osm",
    "candidateFoundAt": "2026-02-11",
    "candidateOsmType": "node",
    "candidateOsmId": 4881594763,
    "candidateUrl": ""
  },
  {
    "id": "osm-node-4882104872-agora",
    "name": "Agora",
    "lat": 46.1193816,
    "lng": 8.7106532,
    "candidateSource": "osm",
    "candidateFoundAt": "2026-02-11",
    "candidateOsmType": "node",
    "candidateOsmId": 4882104872
  },
  {
    "id": "osm-node-4885251757-la-dolce-vita",
    "name": "La Dolce Vita",
    "lat": 46.1183515,
    "lng": 8.709627,
    "candidateSource": "osm",
    "candidateFoundAt": "2026-02-11",
    "candidateOsmType": "node",
    "candidateOsmId": 4885251757,
    "candidateUrl": ""
  },
  {
    "id": "osm-node-4885251758-la-filandra",
    "name": "La Filandra",
    "lat": 46.1186234,
    "lng": 8.7096706,
    "candidateSource": "osm",
    "candidateFoundAt": "2026-02-11",
    "candidateOsmType": "node",
    "candidateOsmId": 4885251758
  },
  {
    "id": "osm-node-4885565008-plaza",
    "name": "Plaza",
    "lat": 46.0660639,
    "lng": 8.6997937,
    "candidateSource": "osm",
    "candidateFoundAt": "2026-02-11",
    "candidateOsmType": "node",
    "candidateOsmId": 4885565008
  },
  {
    "id": "osm-node-4885565009-lago",
    "name": "Lago",
    "lat": 46.0649282,
    "lng": 8.7002754,
    "candidateSource": "osm",
    "candidateFoundAt": "2026-02-11",
    "candidateOsmType": "node",
    "candidateOsmId": 4885565009
  },
  {
    "id": "osm-node-4935680552-paulon",
    "name": "Paulon",
    "lat": 45.8841378,
    "lng": 8.5400578,
    "candidateSource": "osm",
    "candidateFoundAt": "2026-02-11",
    "candidateOsmType": "node",
    "candidateOsmId": 4935680552
  },
  {
    "id": "osm-node-4935784736-primavera",
    "name": "Primavera",
    "lat": 45.8839786,
    "lng": 8.5392435,
    "candidateSource": "osm",
    "candidateFoundAt": "2026-02-11",
    "candidateOsmType": "node",
    "candidateOsmId": 4935784736
  },
  {
    "id": "osm-node-4935784741-gazebo",
    "name": "Gazebo",
    "lat": 45.8840019,
    "lng": 8.539575,
    "candidateSource": "osm",
    "candidateFoundAt": "2026-02-11",
    "candidateOsmType": "node",
    "candidateOsmId": 4935784741
  },
  {
    "id": "osm-node-4935784743-lo-stornello",
    "name": "Lo Stornello",
    "lat": 45.8840503,
    "lng": 8.5394251,
    "candidateSource": "osm",
    "candidateFoundAt": "2026-02-11",
    "candidateOsmType": "node",
    "candidateOsmId": 4935784743,
    "candidateUrl": "https://www.ristorantelostornello-stresa.it/"
  },
  {
    "id": "osm-node-4936420561-trattoria-la-botte",
    "name": "Trattoria La Botte",
    "lat": 45.8835829,
    "lng": 8.5410547,
    "candidateSource": "osm",
    "candidateFoundAt": "2026-02-11",
    "candidateOsmType": "node",
    "candidateOsmId": 4936420561,
    "candidateUrl": "https://www.trattorialabottestresa.it/",
    "candidatePhone": "+39 0323 30462"
  },
  {
    "id": "osm-node-4936420562-mamma-mia",
    "name": "Mamma Mia",
    "lat": 45.8838634,
    "lng": 8.5400244,
    "candidateSource": "osm",
    "candidateFoundAt": "2026-02-11",
    "candidateOsmType": "node",
    "candidateOsmId": 4936420562,
    "candidateUrl": ""
  },
  {
    "id": "osm-node-4936420567-il-portico",
    "name": "Il Portico",
    "lat": 45.8837508,
    "lng": 8.5403593,
    "candidateSource": "osm",
    "candidateFoundAt": "2026-02-11",
    "candidateOsmType": "node",
    "candidateOsmId": 4936420567
  },
  {
    "id": "osm-node-4936420568-bar-pasticceria-bolongaro",
    "name": "Bar Pasticceria Bolongaro",
    "lat": 45.8839106,
    "lng": 8.5408321,
    "candidateSource": "osm",
    "candidateFoundAt": "2026-02-11",
    "candidateOsmType": "node",
    "candidateOsmId": 4936420568,
    "candidatePhone": "+39 0323 343980",
    "candidateUrl": ""
  },
  {
    "id": "osm-node-4936420570-da-cesare",
    "name": "Da Cesare",
    "lat": 45.8836678,
    "lng": 8.5405937,
    "candidateSource": "osm",
    "candidateFoundAt": "2026-02-11",
    "candidateOsmType": "node",
    "candidateOsmId": 4936420570
  },
  {
    "id": "osm-node-4936430385-nazionale",
    "name": "Nazionale",
    "lat": 45.8836047,
    "lng": 8.5398466,
    "candidateSource": "osm",
    "candidateFoundAt": "2026-02-11",
    "candidateOsmType": "node",
    "candidateOsmId": 4936430385
  },
  {
    "id": "osm-node-4936441576-enoteca-da-giannino",
    "name": "Enoteca da Giannino",
    "lat": 45.883502,
    "lng": 8.5402083,
    "candidateSource": "osm",
    "candidateFoundAt": "2026-02-11",
    "candidateOsmType": "node",
    "candidateOsmId": 4936441576,
    "candidateUrl": ""
  },
  {
    "id": "osm-node-4936464080-piemontese",
    "name": "Piemontese",
    "lat": 45.8834845,
    "lng": 8.5405971,
    "candidateSource": "osm",
    "candidateFoundAt": "2026-02-11",
    "candidateOsmType": "node",
    "candidateOsmId": 4936464080
  },
  {
    "id": "osm-node-4936464084-torino",
    "name": "Torino",
    "lat": 45.8831585,
    "lng": 8.5401336,
    "candidateSource": "osm",
    "candidateFoundAt": "2026-02-11",
    "candidateOsmType": "node",
    "candidateOsmId": 4936464084
  },
  {
    "id": "osm-node-4936464088-elena",
    "name": "Elena",
    "lat": 45.8833419,
    "lng": 8.5403781,
    "candidateSource": "osm",
    "candidateFoundAt": "2026-02-11",
    "candidateOsmType": "node",
    "candidateOsmId": 4936464088
  },
  {
    "id": "osm-node-4936500323-centrale",
    "name": "Centrale",
    "lat": 45.883372,
    "lng": 8.5397206,
    "candidateSource": "osm",
    "candidateFoundAt": "2026-02-11",
    "candidateOsmType": "node",
    "candidateOsmId": 4936500323
  },
  {
    "id": "osm-node-4936500324-cioccolato-artigianale",
    "name": "Cioccolato Artigianale",
    "lat": 45.8830031,
    "lng": 8.5392806,
    "candidateSource": "osm",
    "candidateFoundAt": "2026-02-11",
    "candidateOsmType": "node",
    "candidateOsmId": 4936500324,
    "candidateUrl": ""
  },
  {
    "id": "osm-node-4953636821-circolo-di-cerro",
    "name": "Circolo di Cerro",
    "lat": 45.8971856,
    "lng": 8.5989671,
    "candidateSource": "osm",
    "candidateFoundAt": "2026-02-11",
    "candidateOsmType": "node",
    "candidateOsmId": 4953636821,
    "candidatePhone": "+39 0332 667314",
    "candidateHours": "We-Fr,Su 12:00-14:00,19:30-22:00; Mo 12:00-14:00; Sa 09:00-21:15; Tu closed; PH closed",
    "candidateUrl": ""
  },
  {
    "id": "osm-node-4959781127-hostaria-del-golfo",
    "name": "Hostaria del Golfo",
    "lat": 45.9110797,
    "lng": 8.6181222,
    "candidateSource": "osm",
    "candidateFoundAt": "2026-02-11",
    "candidateOsmType": "node",
    "candidateOsmId": 4959781127,
    "candidatePhone": "+39 0332 666975",
    "candidateUrl": ""
  },
  {
    "id": "osm-node-4965679679-dlf-mensa",
    "name": "DLF Mensa",
    "lat": 45.9964107,
    "lng": 8.7359858,
    "candidateSource": "osm",
    "candidateFoundAt": "2026-02-11",
    "candidateOsmType": "node",
    "candidateOsmId": 4965679679,
    "candidateUrl": ""
  },
  {
    "id": "osm-node-4965684313-la-coincidenza",
    "name": "La coincidenza",
    "lat": 45.9962728,
    "lng": 8.735534,
    "candidateSource": "osm",
    "candidateFoundAt": "2026-02-11",
    "candidateOsmType": "node",
    "candidateOsmId": 4965684313,
    "candidatePhone": "+39 0332 510232"
  },
  {
    "id": "osm-node-4970529323-ristorante-long",
    "name": "Ristorante Long",
    "lat": 46.0024959,
    "lng": 8.7417357,
    "candidateSource": "osm",
    "candidateFoundAt": "2026-02-11",
    "candidateOsmType": "node",
    "candidateOsmId": 4970529323,
    "candidateUrl": ""
  },
  {
    "id": "osm-node-5017145121-trattoria-due-piccioni",
    "name": "Trattoria Due Piccioni",
    "lat": 45.8826616,
    "lng": 8.538847,
    "candidateSource": "osm",
    "candidateFoundAt": "2026-02-11",
    "candidateOsmType": "node",
    "candidateOsmId": 5017145121,
    "candidatePhone": "+39 0323 934556",
    "candidateHours": "PH,Th-Tu 12:00-14:00,19:00-22:00",
    "candidateUrl": ""
  },
  {
    "id": "osm-node-5150438583-lastressa",
    "name": "Lastressa",
    "lat": 45.8841541,
    "lng": 8.539201,
    "candidateSource": "osm",
    "candidateFoundAt": "2026-02-11",
    "candidateOsmType": "node",
    "candidateOsmId": 5150438583,
    "candidateUrl": "http://www.ristorantelastressa.it",
    "candidatePhone": "+39 0322 7083"
  },
  {
    "id": "osm-node-5155823121-osteria-della-luna-piena",
    "name": "Osteria della Luna Piena",
    "lat": 45.9352782,
    "lng": 8.573349,
    "candidateSource": "osm",
    "candidateFoundAt": "2026-02-11",
    "candidateOsmType": "node",
    "candidateOsmId": 5155823121,
    "candidatePhone": "+39 0323 404145",
    "candidateUrl": ""
  },
  {
    "id": "osm-node-5311847185-calice",
    "name": "Calice",
    "lat": 46.1208253,
    "lng": 8.7112661,
    "candidateSource": "osm",
    "candidateFoundAt": "2026-02-11",
    "candidateOsmType": "node",
    "candidateOsmId": 5311847185
  },
  {
    "id": "osm-node-5312080365-brio",
    "name": "Brio",
    "lat": 46.1568722,
    "lng": 8.7691608,
    "candidateSource": "osm",
    "candidateFoundAt": "2026-02-11",
    "candidateOsmType": "node",
    "candidateOsmId": 5312080365
  },
  {
    "id": "osm-node-5312080367-otello",
    "name": "Otello",
    "lat": 46.1561623,
    "lng": 8.7700741,
    "candidateSource": "osm",
    "candidateFoundAt": "2026-02-11",
    "candidateOsmType": "node",
    "candidateOsmId": 5312080367
  },
  {
    "id": "osm-node-5313566333-il-capolinea",
    "name": "Il capolinea",
    "lat": 46.1722442,
    "lng": 8.8001766,
    "candidateSource": "osm",
    "candidateFoundAt": "2026-02-11",
    "candidateOsmType": "node",
    "candidateOsmId": 5313566333
  },
  {
    "id": "osm-node-5313566334-pax",
    "name": "Pax",
    "lat": 46.1728444,
    "lng": 8.8008649,
    "candidateSource": "osm",
    "candidateFoundAt": "2026-02-11",
    "candidateOsmType": "node",
    "candidateOsmId": 5313566334
  },
  {
    "id": "osm-node-5314591327-la-prima",
    "name": "La Prima",
    "lat": 46.1137955,
    "lng": 8.7058685,
    "candidateSource": "osm",
    "candidateFoundAt": "2026-02-11",
    "candidateOsmType": "node",
    "candidateOsmId": 5314591327
  },
  {
    "id": "osm-node-5362174117-bubo-sushi",
    "name": "Bubo Sushi",
    "lat": 46.1705344,
    "lng": 8.8000562,
    "candidateSource": "osm",
    "candidateFoundAt": "2026-02-11",
    "candidateOsmType": "node",
    "candidateOsmId": 5362174117,
    "candidateHours": "Mo-Sa 11:30-14:30,18:00-22:30; Su 18:00-22:30",
    "candidateUrl": ""
  },
  {
    "id": "osm-node-5404969275-bar-verbano",
    "name": "Bar Verbano",
    "lat": 46.1712235,
    "lng": 8.8007809,
    "candidateSource": "osm",
    "candidateFoundAt": "2026-02-11",
    "candidateOsmType": "node",
    "candidateOsmId": 5404969275,
    "candidateUrl": ""
  },
  {
    "id": "osm-node-5488630962-il-fermento",
    "name": "Il Fermento",
    "lat": 46.0037263,
    "lng": 8.9541694,
    "candidateSource": "osm",
    "candidateFoundAt": "2026-02-11",
    "candidateOsmType": "node",
    "candidateOsmId": 5488630962,
    "candidateUrl": "https://www.ilfermento.ch"
  },
  {
    "id": "osm-node-5545096560-elisir",
    "name": "Elisir",
    "lat": 45.9541952,
    "lng": 8.948226,
    "candidateSource": "osm",
    "candidateFoundAt": "2026-02-11",
    "candidateOsmType": "node",
    "candidateOsmId": 5545096560
  },
  {
    "id": "osm-node-5673411926-antica-caffetteria",
    "name": "Antica Caffetteria",
    "lat": 45.9617691,
    "lng": 8.6808474,
    "candidateSource": "osm",
    "candidateFoundAt": "2026-02-11",
    "candidateOsmType": "node",
    "candidateOsmId": 5673411926,
    "candidateUrl": ""
  },
  {
    "id": "osm-node-5686249422-baia",
    "name": "Baia",
    "lat": 45.9697551,
    "lng": 8.8611127,
    "candidateSource": "osm",
    "candidateFoundAt": "2026-02-11",
    "candidateOsmType": "node",
    "candidateOsmId": 5686249422
  },
  {
    "id": "osm-node-5696905909-al-tulipano-bianco",
    "name": "Al Tulipano Bianco",
    "lat": 46.1706055,
    "lng": 8.7996259,
    "candidateSource": "osm",
    "candidateFoundAt": "2026-02-11",
    "candidateOsmType": "node",
    "candidateOsmId": 5696905909,
    "candidateUrl": "https://altulipanobianco.ch"
  },
  {
    "id": "osm-node-5752121001-caff-sereni",
    "name": "Caffè Sereni",
    "lat": 46.0022202,
    "lng": 8.7429676,
    "candidateSource": "osm",
    "candidateFoundAt": "2026-02-11",
    "candidateOsmType": "node",
    "candidateOsmId": 5752121001,
    "candidateUrl": ""
  },
  {
    "id": "osm-node-5761829911-bar-mario",
    "name": "Bar Mario",
    "lat": 46.0011119,
    "lng": 8.7418791,
    "candidateSource": "osm",
    "candidateFoundAt": "2026-02-11",
    "candidateOsmType": "node",
    "candidateOsmId": 5761829911,
    "candidateUrl": ""
  },
  {
    "id": "osm-node-5761829912-baretto",
    "name": "Baretto",
    "lat": 46.001126,
    "lng": 8.7412789,
    "candidateSource": "osm",
    "candidateFoundAt": "2026-02-11",
    "candidateOsmType": "node",
    "candidateOsmId": 5761829912
  },
  {
    "id": "osm-node-5761829913-platform",
    "name": "Platform",
    "lat": 46.0013928,
    "lng": 8.7415653,
    "candidateSource": "osm",
    "candidateFoundAt": "2026-02-11",
    "candidateOsmType": "node",
    "candidateOsmId": 5761829913
  },
  {
    "id": "osm-node-5761829914-bar-centrale",
    "name": "Bar Centrale",
    "lat": 46.0013027,
    "lng": 8.7410742,
    "candidateSource": "osm",
    "candidateFoundAt": "2026-02-11",
    "candidateOsmType": "node",
    "candidateOsmId": 5761829914,
    "candidateUrl": ""
  },
  {
    "id": "osm-node-5763986069-ristorante-steakhouse-trippolini",
    "name": "Ristorante Steakhouse Trippolini",
    "lat": 46.0010899,
    "lng": 8.7419706,
    "candidateSource": "osm",
    "candidateFoundAt": "2026-02-11",
    "candidateOsmType": "node",
    "candidateOsmId": 5763986069,
    "candidateUrl": ""
  },
  {
    "id": "osm-node-5786024236-caff-savoy",
    "name": "Caffè Savoy",
    "lat": 45.883829,
    "lng": 8.5414046,
    "candidateSource": "osm",
    "candidateFoundAt": "2026-02-11",
    "candidateOsmType": "node",
    "candidateOsmId": 5786024236,
    "candidateUrl": ""
  },
  {
    "id": "osm-node-5822607451-osteria-degli-amici",
    "name": "Osteria degli Amici",
    "lat": 45.8826159,
    "lng": 8.5393929,
    "candidateSource": "osm",
    "candidateFoundAt": "2026-02-11",
    "candidateOsmType": "node",
    "candidateOsmId": 5822607451,
    "candidatePhone": "+39 0323 30453",
    "candidateUrl": "https://osteriadegliamici.ch"
  },
  {
    "id": "osm-node-5834921401-autentiko-gusto-napoletano",
    "name": "Autentiko - Gusto Napoletano",
    "lat": 46.0037799,
    "lng": 8.9547911,
    "candidateSource": "osm",
    "candidateFoundAt": "2026-02-11",
    "candidateOsmType": "node",
    "candidateOsmId": 5834921401,
    "candidateUrl": "https://autentiko.it",
    "candidateHours": "Mo-Th 11:30-15:00; Mo-Th 18:30-22:00; Fr-Su 11:30-22:00; Su,PH 11:30-22:00"
  },
  {
    "id": "osm-node-5835167171-birreria-al-forte",
    "name": "Birreria al Forte",
    "lat": 46.0054454,
    "lng": 8.9532937,
    "candidateSource": "osm",
    "candidateFoundAt": "2026-02-11",
    "candidateOsmType": "node",
    "candidateOsmId": 5835167171,
    "candidateUrl": ""
  },
  {
    "id": "osm-node-5835931686-ristorante-cinese-lungolago",
    "name": "Ristorante Cinese Lungolago",
    "lat": 46.1793239,
    "lng": 8.8440359,
    "candidateSource": "osm",
    "candidateFoundAt": "2026-02-11",
    "candidateOsmType": "node",
    "candidateOsmId": 5835931686,
    "candidateUrl": "http://cinese.ch"
  },
  {
    "id": "osm-node-5844243689-da-lino-la-prosciutteria",
    "name": "Da Lino - La Prosciutteria",
    "lat": 46.0038913,
    "lng": 8.9517261,
    "candidateSource": "osm",
    "candidateFoundAt": "2026-02-11",
    "candidateOsmType": "node",
    "candidateOsmId": 5844243689,
    "candidatePhone": "+41 91 911 30 89",
    "candidateUrl": ""
  },
  {
    "id": "osm-node-5870418218-il-cinzanino",
    "name": "Il Cinzanino",
    "lat": 46.0465871,
    "lng": 8.7329088,
    "candidateSource": "osm",
    "candidateFoundAt": "2026-02-11",
    "candidateOsmType": "node",
    "candidateOsmId": 5870418218
  },
  {
    "id": "osm-node-5963506299-taverna-del-pappagallo",
    "name": "Taverna del Pappagallo",
    "lat": 45.8838505,
    "lng": 8.5389753,
    "candidateSource": "osm",
    "candidateFoundAt": "2026-02-11",
    "candidateOsmType": "node",
    "candidateOsmId": 5963506299,
    "candidateUrl": ""
  },
  {
    "id": "osm-node-5963506300-el-gato-negro",
    "name": "El Gato Negro",
    "lat": 45.8837522,
    "lng": 8.5389082,
    "candidateSource": "osm",
    "candidateFoundAt": "2026-02-11",
    "candidateOsmType": "node",
    "candidateOsmId": 5963506300,
    "candidateUrl": ""
  },
  {
    "id": "osm-node-5972065544-sport",
    "name": "Sport",
    "lat": 45.967746,
    "lng": 8.8591641,
    "candidateSource": "osm",
    "candidateFoundAt": "2026-02-11",
    "candidateOsmType": "node",
    "candidateOsmId": 5972065544
  },
  {
    "id": "osm-node-5972065545-dogana",
    "name": "Dogana",
    "lat": 45.9670017,
    "lng": 8.8583489,
    "candidateSource": "osm",
    "candidateFoundAt": "2026-02-11",
    "candidateOsmType": "node",
    "candidateOsmId": 5972065545,
    "candidateHours": "Tu-Su 06:30-02:00+; Mo off"
  },