[
  {
    "id": "osm-node-262423146-ristorante-sunshine-sushi",
    "name": "Ristorante Sunshine Sushi",
    "lat": 46.062572,
    "lng": 8.6970486,
    "candidateSource": "osm",
    "candidateFoundAt": "2026-02-11",
    "candidateOsmType": "node",
    "candidateOsmId": 262423146,
    "candidateUrl": "https://ristorantesunshine.com/",
    "candidatePhone": "+3903231981536"
  },
  {
    "id": "osm-node-264134468-ristorante-vicania",
    "name": "Ristorante Vicania",
    "lat": 45.9343778,
    "lng": 8.9145005,
    "candidateSource": "osm",
    "candidateFoundAt": "2026-02-11",
    "candidateOsmType": "node",
    "candidateOsmId": 264134468,
    "candidateUrl": "https://www.ristorantevicania.ch/",
    "candidatePhone": "+41 91 980 24 14",
    "candidateHours": "We-Su 11:00-24:00"
  },
  {
    "id": "osm-node-310192109-ristorante-alla-stazione",
    "name": "Ristorante alla Stazione",
    "lat": 46.0665513,
    "lng": 8.9662568,
    "candidateSource": "osm",
    "candidateFoundAt": "2026-02-11",
    "candidateOsmType": "node",
    "candidateOsmId": 310192109,
    "candidateUrl": "https://www.besomi-statione.ch"
  },
  {
    "id": "osm-node-326282572-pizzeria-centro",
    "name": "Pizzeria Centro",
    "lat": 46.0123147,
    "lng": 8.9463548,
    "candidateSource": "osm",
    "candidateFoundAt": "2026-02-11",
    "candidateOsmType": "node",
    "candidateOsmId": 326282572,
    "candidateUrl": "https://www.ristorantecentro.com",
    "candidatePhone": "+4191 967 13 96"
  },
  {
    "id": "osm-node-348691178-perbacco",
    "name": "Perbacco",
    "lat": 46.1691203,
    "lng": 8.7992443,
    "candidateSource": "osm",
    "candidateFoundAt": "2026-02-11",
    "candidateOsmType": "node",
    "candidateOsmId": 348691178,
    "candidateUrl": "https://www.ristoranteperbacco.ch/",
    "candidatePhone": "+41 91 601 07 99",
    "candidateHours": "Tu-Fr 11:00-14:30, 17:30-23:00; Sa-Su 11:00-23:00"
  },
  {
    "id": "osm-node-366962445-ristorante-pizzeria-resega",
    "name": "Ristorante Pizzeria Resega",
    "lat": 46.0252323,
    "lng": 8.9627699,
    "candidateSource": "osm",
    "candidateFoundAt": "2026-02-11",
    "candidateOsmType": "node",
    "candidateOsmId": 366962445,
    "candidateUrl": "https://www.osteriaresega.ch"
  },
  {
    "id": "osm-node-367028639-ristorante-seven-lugano",
    "name": "Ristorante Seven Lugano",
    "lat": 46.0039026,
    "lng": 8.9551141,
    "candidateSource": "osm",
    "candidateFoundAt": "2026-02-11",
    "candidateOsmType": "node",
    "candidateOsmId": 367028639,
    "candidateUrl": "https://www.seven.ch/restaurants/seven-lugano-restaurant",
    "candidatePhone": "+41 912 90 77 77",
    "candidateHours": "Mo-Su 12:00-15:00,19:30-01:00"
  },
  {
    "id": "osm-node-367036024-argentino",
    "name": "Argentino",
    "lat": 46.0040648,
    "lng": 8.9514821,
    "candidateSource": "osm",
    "candidateFoundAt": "2026-02-11",
    "candidateOsmType": "node",
    "candidateOsmId": 367036024,
    "candidateUrl": "https://ristoranteargentino.ch/",
    "candidatePhone": "+41 91 922 90 49",
    "candidateHours": "11:30-22:30; Fr,Sa 11:30-23:00"
  },
  {
    "id": "osm-node-367036060-tango",
    "name": "Tango",
    "lat": 46.0040121,
    "lng": 8.9515108,
    "candidateSource": "osm",
    "candidateFoundAt": "2026-02-11",
    "candidateOsmType": "node",
    "candidateOsmId": 367036060,
    "candidateUrl": "https://www.tango-ti.ch/",
    "candidatePhone": "+41 91 922 27 01",
    "candidateHours": "Mo-Su 09:00-01:00"
  },
  {
    "id": "osm-node-373417055-commercio",
    "name": "Commercio",
    "lat": 46.0059129,
    "lng": 8.9512761,
    "candidateSource": "osm",
    "candidateFoundAt": "2026-02-11",
    "candidateOsmType": "node",
    "candidateOsmId": 373417055,
    "candidateUrl": "https://www.ristorantecommercio.ch",
    "candidatePhone": "+41 91 923 43 64",
    "candidateHours": "Mo-Sa 06:00-24:00"
  },
  {
    "id": "osm-node-415254524-ristorante-stadio",
    "name": "Ristorante Stadio",
    "lat": 46.0212857,
    "lng": 8.9583644,
    "candidateSource": "osm",
    "candidateFoundAt": "2026-02-11",
    "candidateOsmType": "node",
    "candidateOsmId": 415254524,
    "candidateUrl": "https://ristorantestadio.ch/"
  },
  {
    "id": "osm-node-417005868-ristorante-miramonti",
    "name": "Ristorante Miramonti",
    "lat": 46.0523717,
    "lng": 8.9834022,
    "candidateSource": "osm",
    "candidateFoundAt": "2026-02-11",
    "candidateOsmType": "node",
    "candidateOsmId": 417005868,
    "candidateUrl": "https://ristorantemiramonti.ch/",
    "candidatePhone": "+41 91 943 19 51"
  },
  {
    "id": "osm-node-454099791-ristorante-sociale",
    "name": "Ristorante Sociale",
    "lat": 45.9057947,
    "lng": 8.9729156,
    "candidateSource": "osm",
    "candidateFoundAt": "2026-02-11",
    "candidateOsmType": "node",
    "candidateOsmId": 454099791,
    "candidateUrl": "https://www.ristorantesociale.ch/",
    "candidatePhone": "+41 91 6481789",
    "candidateHours": "Mo-Su 07:00-24:00;PH 09:00-24:00"
  },
  {
    "id": "osm-node-460384682-albergo-paradiso",
    "name": "Albergo Paradiso",
    "lat": 46.0444512,
    "lng": 8.7355375,
    "candidateSource": "osm",
    "candidateFoundAt": "2026-02-11",
    "candidateOsmType": "node",
    "candidateOsmId": 460384682,
    "candidateUrl": "http://www.pensioneparadiso.it/",
    "candidatePhone": "+39 0332 560128"
  },
  {
    "id": "osm-node-470352738-grotto-castagneto",
    "name": "Grotto Castagneto",
    "lat": 46.0111603,
    "lng": 8.9934275,
    "candidateSource": "osm",
    "candidateFoundAt": "2026-02-11",
    "candidateOsmType": "node",
    "candidateOsmId": 470352738,
    "candidateUrl": "https://www.grottocastagneto.ch/",
    "candidatePhone": "+41 91 971 06 97",
    "candidateHours": "Mo 17:00-21:00; Tu-Sa 11:00-14:30,17:00-21:00; Su 10:00-16:00"
  },
  {
    "id": "osm-node-482167032-la-locanda-di-emilio",
    "name": "La locanda di Emilio",
    "lat": 46.0199938,
    "lng": 8.9686227,
    "candidateSource": "osm",
    "candidateFoundAt": "2026-02-11",
    "candidateOsmType": "node",
    "candidateOsmId": 482167032,
    "candidateUrl": "http://www.lalocandadiemilio.ch/",
    "candidatePhone": "+41919406888"
  },
  {
    "id": "osm-node-506185094-grotto-pierino",
    "name": "Grotto Pierino",
    "lat": 46.0195883,
    "lng": 8.9838705,
    "candidateSource": "osm",
    "candidateFoundAt": "2026-02-11",
    "candidateOsmType": "node",
    "candidateOsmId": 506185094,
    "candidateUrl": "http://www.grottopierino.ch"
  },
  {
    "id": "osm-node-559589418-la-perla",
    "name": "La Perla",
    "lat": 46.0338923,
    "lng": 8.6631736,
    "candidateSource": "osm",
    "candidateFoundAt": "2026-02-11",
    "candidateOsmType": "node",
    "candidateOsmId": 559589418,
    "candidateUrl": "https://www.laperlatrarego.it/it/",
    "candidatePhone": "+39 0323 788146"
  },
  {
    "id": "osm-node-618395713-ristorante-la-trinit",
    "name": "Ristorante La Trinità",
    "lat": 45.962229,
    "lng": 8.6151933,
    "candidateSource": "osm",
    "candidateFoundAt": "2026-02-11",
    "candidateOsmType": "node",
    "candidateOsmId": 618395713,
    "candidateUrl": "https://ristorantelatrinita.eu/",
    "candidatePhone": "+39 0323 59300",
    "candidateHours": "Mo-Su 12:00-14:30, 19:00-21:30"
  },
  {
    "id": "osm-node-661105436-ristorate-san-michele",
    "name": "Ristorate San Michele",
    "lat": 45.971502,
    "lng": 8.8714563,
    "candidateSource": "osm",
    "candidateFoundAt": "2026-02-11",
    "candidateOsmType": "node",
    "candidateOsmId": 661105436,
    "candidateUrl": "https://www.ristosanmichele.ch",
    "candidatePhone": "+41 91 606 68 05"
  },
  {
    "id": "osm-node-663870157-porto-ronco-beach-club",
    "name": "Porto Ronco Beach Club",
    "lat": 46.1332318,
    "lng": 8.719419,
    "candidateSource": "osm",
    "candidateFoundAt": "2026-02-11",
    "candidateOsmType": "node",
    "candidateOsmId": 663870157,
    "candidateUrl": "http://portoroncobeach.ch/"
  },
  {
    "id": "osm-node-664833749-grotto-baldoria",
    "name": "Grotto Baldoria",
    "lat": 46.1542843,
    "lng": 8.7695385,
    "candidateSource": "osm",
    "candidateFoundAt": "2026-02-11",
    "candidateOsmType": "node",
    "candidateOsmId": 664833749,
    "candidateUrl": "https://www.grottobaldoria.ch/",
    "candidateHours": "Mo-Su 12:00-14:00, 18:00-22:00"
  },
  {
    "id": "osm-node-664862345-posse",
    "name": "Posse",
    "lat": 46.25214,
    "lng": 8.8438283,
    "candidateSource": "osm",
    "candidateFoundAt": "2026-02-11",
    "candidateOsmType": "node",
    "candidateOsmId": 664862345,
    "candidateUrl": "https://aiposse.ch/",
    "candidatePhone": "+41 91 746 17 96"
  },
  {
    "id": "osm-node-664906634-sensi",
    "name": "Sensi",
    "lat": 46.1716501,
    "lng": 8.8017482,
    "candidateSource": "osm",
    "candidateFoundAt": "2026-02-11",
    "candidateOsmType": "node",
    "candidateOsmId": 664906634,
    "candidateUrl": "https://www.ristoranti-ff.ch/it/ristorante-sensi-muralto",
    "candidatePhone": "+41 91 743 17 17"
  },
  {
    "id": "osm-node-715886453-agriturismo-alpe-la-grassa",
    "name": "Agriturismo Alpe La grassa",
    "lat": 45.8913734,
    "lng": 9.0142065,
    "candidateSource": "osm",
    "candidateFoundAt": "2026-02-11",
    "candidateOsmType": "node",
    "candidateOsmId": 715886453,
    "candidateUrl": "https://www.agriturismoalpegrassa.ch/",
    "candidatePhone": "+41 91 6492602",
    "candidateHours": "Jan-Dec; Mo closed"
  },
  {
    "id": "osm-node-798528549-100-cento",
    "name": "100 ~ Cento",
    "lat": 46.1486402,
    "lng": 8.8617343,
    "candidateSource": "osm",
    "candidateFoundAt": "2026-02-11",
    "candidateOsmType": "node",
    "candidateOsmId": 798528549,
    "candidateUrl": "https://ristorante100.ch/",
    "candidatePhone": "+41 91 795 12 12",
    "candidateHours": "Mo-Fr 06:00-23:00; Sa-Su 07:00-23:00"
  },
  {
    "id": "osm-node-806388080-grotto-contrattempi",
    "name": "Grotto Contrattempi",
    "lat": 46.1632834,
    "lng": 8.7621826,
    "candidateSource": "osm",
    "candidateFoundAt": "2026-02-11",
    "candidateOsmType": "node",
    "candidateOsmId": 806388080,
    "candidateUrl": "http://contrattempi.ch/",
    "candidatePhone": "+41 91 745 20 11",
    "candidateHours": "9:00-24:00"
  },
  {
    "id": "osm-node-806437049-il-giardino-d-arbigo",
    "name": "Il Giardino D'Arbigo",
    "lat": 46.1704345,
    "lng": 8.7566031,
    "candidateSource": "osm",
    "candidateFoundAt": "2026-02-11",
    "candidateOsmType": "node",
    "candidateOsmId": 806437049,
    "candidateUrl": "http://www.giardinodarbigo.ch"
  },
  {
    "id": "osm-node-806437087-grotto-ticinese",
    "name": "Grotto Ticinese",
    "lat": 46.1632741,
    "lng": 8.7631161,
    "candidateSource": "osm",
    "candidateFoundAt": "2026-02-11",
    "candidateOsmType": "node",
    "candidateOsmId": 806437087,
    "candidateUrl": "https://grottino-ticinese.ch/"
  },
  {
    "id": "osm-node-806437092-ristorante-centrale",
    "name": "Ristorante Centrale",
    "lat": 46.164647,
    "lng": 8.7606323,
    "candidateSource": "osm",
    "candidateFoundAt": "2026-02-11",
    "candidateOsmType": "node",
    "candidateOsmId": 806437092,
    "candidateUrl": "https://www.ristorantecentrale-losone.ch/"
  },
  {
    "id": "osm-node-806521348-seven",
    "name": "Seven",
    "lat": 46.1548077,
    "lng": 8.7662785,
    "candidateSource": "osm",
    "candidateFoundAt": "2026-02-11",
    "candidateOsmType": "node",
    "candidateOsmId": 806521348,
    "candidateUrl": "https://seven.ch/"
  },
  {
    "id": "osm-node-821892990-bella-riva",
    "name": "Bella Riva",
    "lat": 46.221619,
    "lng": 8.7417081,
    "candidateSource": "osm",
    "candidateFoundAt": "2026-02-11",
    "candidateOsmType": "node",
    "candidateOsmId": 821892990,
    "candidateUrl": "https://www.bellariva.ch/br-de/"
  },
  {
    "id": "osm-node-826761117-locanda-gandriese",
    "name": "Locanda Gandriese",
    "lat": 46.0050963,
    "lng": 9.0025979,
    "candidateSource": "osm",
    "candidateFoundAt": "2026-02-11",
    "candidateOsmType": "node",
    "candidateOsmId": 826761117,
    "candidateUrl": "https://www.locandagandriese.com/",
    "candidatePhone": "+41 91 971 41 81",
    "candidateHours": "09:00-22:00"
  },
  {
    "id": "osm-node-826761125-roccabella",
    "name": "Roccabella",
    "lat": 46.0056993,
    "lng": 9.0039384,
    "candidateSource": "osm",
    "candidateFoundAt": "2026-02-11",
    "candidateOsmType": "node",
    "candidateOsmId": 826761125,
    "candidateUrl": "https://ristoranteroccabella.ch",
    "candidatePhone": "+41 91 971 27 22",
    "candidateHours": "Tu-Su 10:00-23:45; Mo closed"
  },
  {
    "id": "osm-node-832079499-al-torchio",
    "name": "Al Torchio",
    "lat": 46.1718306,
    "lng": 8.8028905,
    "candidateSource": "osm",
    "candidateFoundAt": "2026-02-11",
    "candidateOsmType": "node",
    "candidateOsmId": 832079499,
    "candidateUrl": "https://www.altorchio.ch/",
    "candidatePhone": "+41 91 743 43 77"
  },
  {
    "id": "osm-node-832079665-grotto-america",
    "name": "Grotto America",
    "lat": 46.1892453,
    "lng": 8.7548079,
    "candidateSource": "osm",
    "candidateFoundAt": "2026-02-11",
    "candidateOsmType": "node",
    "candidateOsmId": 832079665,
    "candidateUrl": "https://www.grottoamerica.ch/"
  },
  {
    "id": "osm-node-892455573-seven-asia",
    "name": "Seven Asia",
    "lat": 46.1558992,
    "lng": 8.7676928,
    "candidateSource": "osm",
    "candidateFoundAt": "2026-02-11",
    "candidateOsmType": "node",
    "candidateOsmId": 892455573,
    "candidateUrl": "https://seven.ch",
    "candidatePhone": "+41 91 786 96 76"
  },
  {
    "id": "osm-node-897671662-il-golosone",
    "name": "Il golosone",
    "lat": 46.0108381,
    "lng": 8.9369722,
    "candidateSource": "osm",
    "candidateFoundAt": "2026-02-11",
    "candidateOsmType": "node",
    "candidateOsmId": 897671662,
    "candidateUrl": "https://www.golosonelugano.ch",
    "candidatePhone": "+41 91 966 13 66",
    "candidateHours": "Mo-Fr 08:00-23:00; Sa 10:00-23:00; Su off"
  },
  {
    "id": "osm-node-1082012436-l-osteria-della-purtascia",
    "name": "L'Osteria della Purtascia",
    "lat": 45.8605255,
    "lng": 8.6899168,
    "candidateSource": "osm",
    "candidateFoundAt": "2026-02-11",
    "candidateOsmType": "node",
    "candidateOsmId": 1082012436,
    "candidateUrl": "http://www.osteriadellapurtascia.it"
  },
  {
    "id": "osm-node-1181205792-spaghetti-store",
    "name": "Spaghetti Store",
    "lat": 46.0025706,
    "lng": 8.9502949,
    "candidateSource": "osm",
    "candidateFoundAt": "2026-02-11",
    "candidateOsmType": "node",
    "candidateOsmId": 1181205792,
    "candidateUrl": "http://www.spaghettigastrogroup.com",
    "candidatePhone": "+41 91 922 20 60",
    "candidateHours": "Mo-Su 09:00-01:00"
  },
  {
    "id": "osm-node-1259192724-romitaggio",
    "name": "Romitaggio",
    "lat": 46.1878358,
    "lng": 8.9963475,
    "candidateSource": "osm",
    "candidateFoundAt": "2026-02-11",
    "candidateOsmType": "node",
    "candidateOsmId": 1259192724,
    "candidateUrl": "http://www.romitaggio.ch"
  },
  {
    "id": "osm-node-1264080929-europa",
    "name": "Europa",
    "lat": 46.0218418,
    "lng": 8.6855383,
    "candidateSource": "osm",
    "candidateFoundAt": "2026-02-11",
    "candidateOsmType": "node",
    "candidateOsmId": 1264080929,
    "candidateUrl": "https://www.europa-ristorante.com/de/",
    "candidatePhone": "+39 0323 788292",
    "candidateHours": "10:00-23:00"
  },
  {
    "id": "osm-node-1264080949-park-hotel-italia",
    "name": "Park Hotel Italia",
    "lat": 46.0205158,
    "lng": 8.6840255,
    "candidateSource": "osm",
    "candidateFoundAt": "2026-02-11",
    "candidateOsmType": "node",
    "candidateOsmId": 1264080949,
    "candidateUrl": "https://www.parkhotelitalia.com",
    "candidatePhone": "+39 0323 788488"
  },
  {
    "id": "osm-node-1264080952-magnolia",
    "name": "Magnolia",
    "lat": 46.0193705,
    "lng": 8.6824402,
    "candidateSource": "osm",
    "candidateFoundAt": "2026-02-11",
    "candidateOsmType": "node",
    "candidateOsmId": 1264080952,
    "candidateUrl": "https://www.ristorantemagnolia.it/",
    "candidatePhone": "+39 323 788066"
  },
  {
    "id": "osm-node-1264080955-cannero",
    "name": "Cannero",
    "lat": 46.022043,
    "lng": 8.6856777,
    "candidateSource": "osm",
    "candidateFoundAt": "2026-02-11",
    "candidateOsmType": "node",
    "candidateOsmId": 1264080955,
    "candidateUrl": "https://www.hotelcannero.com/",
    "candidatePhone": "+39 0323 788046"
  },
  {
    "id": "osm-node-1270902504-grotto-raffael",
    "name": "Grotto Raffael",
    "lat": 46.1680317,
    "lng": 8.7557831,
    "candidateSource": "osm",
    "candidateFoundAt": "2026-02-11",
    "candidateOsmType": "node",
    "candidateOsmId": 1270902504,
    "candidateUrl": "https://grottoraffael.ch/",
    "candidatePhone": "+41917911529"
  },
  {
    "id": "osm-node-1371473058-anacapri",
    "name": "AnaCapri",
    "lat": 46.0044,
    "lng": 8.9476324,
    "candidateSource": "osm",
    "candidateFoundAt": "2026-02-11",
    "candidateOsmType": "node",
    "candidateOsmId": 1371473058,
    "candidateUrl": "https://www.anacapri.ch/",
    "candidatePhone": "+41 91 922 53 00"
  },
  {
    "id": "osm-node-1420179788-grotto-dell-ortiga-manno",
    "name": "Grotto Dell'Ortiga Manno",
    "lat": 46.0350369,
    "lng": 8.9187577,
    "candidateSource": "osm",
    "candidateFoundAt": "2026-02-11",
    "candidateOsmType": "node",
    "candidateOsmId": 1420179788,
    "candidateUrl": "http://www.ortiga.ch",
    "candidatePhone": "+41916051613"
  },
  {
    "id": "osm-node-1433676870-bellevue-bellavista",
    "name": "Bellevue Bellavista",
    "lat": 45.9840863,
    "lng": 8.9184341,
    "candidateSource": "osm",
    "candidateFoundAt": "2026-02-11",
    "candidateOsmType": "node",
    "candidateOsmId": 1433676870,
    "candidateUrl": "https://bellevue-bellavista.ch/",
    "candidatePhone": "+41 91 985 89 12",
    "candidateHours": "Mo-Sa 17:00-22:00; Su 12:00-14:00,17:00-22:00"
  },
  {
    "id": "osm-node-1437410452-osteria-grütli",
    "name": "Osteria Grütli",
    "lat": 46.1549379,
    "lng": 8.6091329,
    "candidateSource": "osm",
    "candidateFoundAt": "2026-02-11",
    "candidateOsmType": "node",
    "candidateOsmId": 1437410452,
    "candidateUrl": "http://www.osteria-gruetli.ch"
  },
  {
    "id": "osm-node-1437419652-campanile",
    "name": "Campanile",
    "lat": 46.1784681,
    "lng": 8.699972,
    "candidateSource": "osm",
    "candidateFoundAt": "2026-02-11",
    "candidateOsmType": "node",
    "candidateOsmId": 1437419652,
    "candidateUrl": "https://www.ristorantecampanile.com/",
    "candidatePhone": "+41 917961897",
    "candidateHours": "We-Su,PH 16:00-18:00+"
  },
  {
    "id": "osm-node-1470955348-osteria-penel",
    "name": "Osteria Penel",
    "lat": 46.0044834,
    "lng": 8.9382109,
    "candidateSource": "osm",
    "candidateFoundAt": "2026-02-11",
    "candidateOsmType": "node",
    "candidateOsmId": 1470955348,
    "candidateUrl": "http://www.osteriapenel.ch"
  },
  {
    "id": "osm-node-1516280690-hotel-morgana",
    "name": "Hotel Morgana",
    "lat": 45.8781101,
    "lng": 8.9865411,
    "candidateSource": "osm",
    "candidateFoundAt": "2026-02-11",
    "candidateOsmType": "node",
    "candidateOsmId": 1516280690,
    "candidateUrl": "http://www.hotelmorgana.ch",
    "candidatePhone": "+41 91 646 23 55"
  },
  {
    "id": "osm-node-1516283669-grotto-bundi",
    "name": "Grotto Bundi",
    "lat": 45.8791512,
    "lng": 8.9866531,
    "candidateSource": "osm",
    "candidateFoundAt": "2026-02-11",
    "candidateOsmType": "node",
    "candidateOsmId": 1516283669,
    "candidateUrl": "https://www.grottobundi.com/",
    "candidatePhone": "+41 91 646 70 89"
  },
  {
    "id": "osm-node-1516284750-antico-grotto-ticino",
    "name": "Antico Grotto Ticino",
    "lat": 45.8790055,
    "lng": 8.9867309,
    "candidateSource": "osm",
    "candidateFoundAt": "2026-02-11",
    "candidateOsmType": "node",
    "candidateOsmId": 1516284750,
    "candidateUrl": "https://www.grottoticino.ch/",
    "candidatePhone": "+41 91 646 77 97"
  },
  {
    "id": "osm-node-1516287313-ristorante-stella",
    "name": "Ristorante Stella",
    "lat": 45.871772,
    "lng": 8.9876617,
    "candidateSource": "osm",
    "candidateFoundAt": "2026-02-11",
    "candidateOsmType": "node",
    "candidateOsmId": 1516287313,
    "candidateUrl": "https://www.ristorantestella.ch/",
    "candidatePhone": "+41 91 646 72 28"
  },
  {
    "id": "osm-node-1540727103-ristorante-del-moro",
    "name": "Ristorante Del \"Moro\"",
    "lat": 46.1722536,
    "lng": 9.0095665,
    "candidateSource": "osm",
    "candidateFoundAt": "2026-02-11",
    "candidateOsmType": "node",
    "candidateOsmId": 1540727103,
    "candidateUrl": "https://ristorantedelmoro.ch/"
  },
  {
    "id": "osm-node-1542183074-bel-soggiorno",
    "name": "Bel Soggiorno",
    "lat": 45.99546,
    "lng": 8.6514281,
    "candidateSource": "osm",
    "candidateFoundAt": "2026-02-11",
    "candidateOsmType": "node",
    "candidateOsmId": 1542183074,
    "candidateUrl": "https://www.albergobelsoggiorno.it"
  },
  {
    "id": "osm-node-1552106803-osteria-di-reno-circolo",
    "name": "Osteria di Reno (circolo)",
    "lat": 45.8812034,
    "lng": 8.6022205,
    "candidateSource": "osm",
    "candidateFoundAt": "2026-02-11",
    "candidateOsmType": "node",
    "candidateOsmId": 1552106803,
    "candidateUrl": "http://osteriadireno.com/",
    "candidatePhone": "+39 0332 648894"
  },
  {
    "id": "osm-node-1562945793-hotel-panorama",
    "name": "Hotel Panorama",
    "lat": 45.9794765,
    "lng": 8.9783226,
    "candidateSource": "osm",
    "candidateFoundAt": "2026-02-11",
    "candidateOsmType": "node",
    "candidateOsmId": 1562945793,
    "candidateUrl": "http://www.panorama-ticino.ch"
  },
  {
    "id": "osm-node-1575849368-la-dislocanda",
    "name": "La Dislocanda",
    "lat": 45.996523,
    "lng": 8.6276469,
    "candidateSource": "osm",
    "candidateFoundAt": "2026-02-11",
    "candidateOsmType": "node",
    "candidateOsmId": 1575849368,
    "candidateUrl": "http://www.dislocanda.it/"
  },
  {
    "id": "osm-node-1739279723-ristorante-pizzeria-san-giobbe",
    "name": "Ristorante & Pizzeria San Giobbe",
    "lat": 46.1725308,
    "lng": 9.0084598,
    "candidateSource": "osm",
    "candidateFoundAt": "2026-02-11",
    "candidateOsmType": "node",
    "candidateOsmId": 1739279723,
    "candidateUrl": "https://www.hotelsangiobbe.ch/"
  },
  {
    "id": "osm-node-1807078778-lago",
    "name": "Lago",
    "lat": 45.991458,
    "lng": 8.6489035,
    "candidateSource": "osm",
    "candidateFoundAt": "2026-02-11",
    "candidateOsmType": "node",
    "candidateOsmId": 1807078778,
    "candidateUrl": "https://ristorantepizzerialago.it",
    "candidatePhone": "+393883619935",
    "candidateHours": "Mo-Su 12:00-14:30,18:30-23:00"
  },
  {
    "id": "osm-node-1811435535-ristorante-alla-cantina",
    "name": "Ristorante Alla Cantina",
    "lat": 46.1864826,
    "lng": 8.7444891,
    "candidateSource": "osm",
    "candidateFoundAt": "2026-02-11",
    "candidateOsmType": "node",
    "candidateOsmId": 1811435535,
    "candidateUrl": "https://www.ristoranteallacantina.com/",
    "candidateHours": "We-Su 09:00-14:00, Tu-Su 17:00-23:00"
  },
  {
    "id": "osm-node-1841946208-i-panigacci",
    "name": "i Panigacci",
    "lat": 45.9132121,
    "lng": 8.8350492,
    "candidateSource": "osm",
    "candidateFoundAt": "2026-02-11",
    "candidateOsmType": "node",
    "candidateOsmId": 1841946208,
    "candidateUrl": "https://www.ipanigacci.com/",
    "candidateHours": "We-Fr 18:30-24:00; Sa,Su 11:00-24:00"
  },
  {
    "id": "osm-node-1869124525-laguna-blu",
    "name": "Laguna Blu",
    "lat": 45.8812453,
    "lng": 8.5995179,
    "candidateSource": "osm",
    "candidateFoundAt": "2026-02-11",
    "candidateOsmType": "node",
    "candidateOsmId": 1869124525,
    "candidateUrl": "https://www.bistrotlagunablu.it/",
    "candidatePhone": "+39 332 647545",
    "candidateHours": "We-Mo 09:00-22:00"
  },
  {
    "id": "osm-node-1884053071-antica-osteria-del-ghiridone",
    "name": "Antica Osteria del Ghiridone",
    "lat": 46.1539755,
    "lng": 8.6320551,
    "candidateSource": "osm",
    "candidateFoundAt": "2026-02-11",
    "candidateOsmType": "node",
    "candidateOsmId": 1884053071,
    "candidateUrl": "https://www.osteriadelghiridone.ch/",
    "candidatePhone": "+41917981221",
    "candidateHours": "Tu-Su 08:30-22:00"
  },
  {
    "id": "osm-node-1893978349-bistrot-imbarcadero",
    "name": "Bistrot Imbarcadero",
    "lat": 45.9624007,
    "lng": 8.6805364,
    "candidateSource": "osm",
    "candidateFoundAt": "2026-02-11",
    "candidateOsmType": "node",
    "candidateOsmId": 1893978349,
    "candidateUrl": "https://bistrotimbarcadero.it/",
    "candidatePhone": "+39 0332 157 3849"
  },
  {
    "id": "osm-node-1925399174-accoglienza-familiare-da-germano",
    "name": "Accoglienza Familiare da Germano",
    "lat": 46.0687411,
    "lng": 8.6341679,
    "candidateSource": "osm",
    "candidateFoundAt": "2026-02-11",
    "candidateOsmType": "node",
    "candidateOsmId": 1925399174,
    "candidateUrl": "http://www.accoglienzafamigliare.it/"
  },
  {
    "id": "osm-node-2020507479-la-gigliola",
    "name": "La gigliola",
    "lat": 45.9187265,
    "lng": 8.643167,
    "candidateSource": "osm",
    "candidateFoundAt": "2026-02-11",
    "candidateOsmType": "node",
    "candidateOsmId": 2020507479,
    "candidateUrl": "http://www.ristorante-gigliola.it",
    "candidatePhone": "+39 0332 602266",
    "candidateHours": "Mo,Th-Fr 10:00-16:00; Su 10:00-17:00; Sa 10:00-22:30; Tu-We closed; PH closed"
  },
  {
    "id": "osm-node-2101142078-pian-del-lares",
    "name": "Pian Del Lares",
    "lat": 46.0730058,
    "lng": 8.7922137,
    "candidateSource": "osm",
    "candidateFoundAt": "2026-02-11",
    "candidateOsmType": "node",
    "candidateOsmId": 2101142078,
    "candidateUrl": "https://www.piandulares.it",
    "candidatePhone": "+39 0332 558178"
  },
  {
    "id": "osm-node-2245766694-locanda-laghetto-fonteviva",
    "name": "Locanda Laghetto Fonteviva",
    "lat": 45.8647615,
    "lng": 8.8333666,
    "candidateSource": "osm",
    "candidateFoundAt": "2026-02-11",
    "candidateOsmType": "node",
    "candidateOsmId": 2245766694,
    "candidateUrl": "https://www.laghettofonteviva.it/",
    "candidatePhone": "+39 0332 840 130",
    "candidateHours": "Mo-Su 12:00-14:30, 19:00-22:30"
  },
  {
    "id": "osm-node-2252844230-ristorante-battello",
    "name": "Ristorante Battello",
    "lat": 45.9293591,
    "lng": 8.9376994,
    "candidateSource": "osm",
    "candidateFoundAt": "2026-02-11",
    "candidateOsmType": "node",
    "candidateOsmId": 2252844230,
    "candidateUrl": "https://de.ristorantebattello.com",
    "candidatePhone": "+41919962135"
  },
  {
    "id": "osm-node-2254435266-grotto-alpe-di-brusino",
    "name": "Grotto Alpe di Brusino",
    "lat": 45.9210012,
    "lng": 8.9451044,
    "candidateSource": "osm",
    "candidateFoundAt": "2026-02-11",
    "candidateOsmType": "node",
    "candidateOsmId": 2254435266,
    "candidateUrl": "https://www.patriziatobrusino.ch/patriziato/proprieta/"
  },
  {
    "id": "osm-node-2288142607-pane-e-zucchero",
    "name": "Pane e Zucchero",
    "lat": 46.0061878,
    "lng": 8.9655999,
    "candidateSource": "osm",
    "candidateFoundAt": "2026-02-11",
    "candidateOsmType": "node",
    "candidateOsmId": 2288142607,
    "candidateUrl": "https://spaghettigastrogroup.com/home/pane-e-zucchero",
    "candidatePhone": "+41 91 9701000",
    "candidateHours": "Mo-Th 07:00-24:00, Fr 07:00-01:00, Sa 15:30-01:00, Su off"
  },
  {
    "id": "osm-node-2299811152-beata-giovannina",
    "name": "Beata Giovannina",
    "lat": 45.933883,
    "lng": 8.5305951,
    "candidateSource": "osm",
    "candidateFoundAt": "2026-02-11",
    "candidateOsmType": "node",
    "candidateOsmId": 2299811152,
    "candidateUrl": "https://www.beatagiovannina.com/"
  },
  {
    "id": "osm-node-2299811405-ristorante-italia",
    "name": "Ristorante Italia",
    "lat": 45.9014397,
    "lng": 8.5198124,
    "candidateSource": "osm",
    "candidateFoundAt": "2026-02-11",
    "candidateOsmType": "node",
    "candidateOsmId": 2299811405,
    "candidateUrl": "https://www.ristoranteitalia.eu/"
  },
  {
    "id": "osm-node-2299811474-la-tentazione",
    "name": "La Tentazione",
    "lat": 45.9213259,
    "lng": 8.5529162,
    "candidateSource": "osm",
    "candidateFoundAt": "2026-02-11",
    "candidateOsmType": "node",
    "candidateOsmId": 2299811474,
    "candidateUrl": "https://www.hotelnovara.com/ristorante/"
  },
  {
    "id": "osm-node-2299811539-osteria-antica-il-monte-rosso",
    "name": "Osteria Antica Il Monte Rosso",
    "lat": 45.9311735,
    "lng": 8.5400885,
    "candidateSource": "osm",
    "candidateFoundAt": "2026-02-11",
    "candidateOsmType": "node",
    "candidateOsmId": 2299811539,
    "candidateUrl": "https://www.osteriamonterosso.com/",
    "candidatePhone": "+39 0323 506056"
  },
  {
    "id": "osm-node-2299813058-sottosopra",
    "name": "Sottosopra",
    "lat": 45.9106666,
    "lng": 8.5044843,
    "candidateSource": "osm",
    "candidateFoundAt": "2026-02-11",
    "candidateOsmType": "node",
    "candidateOsmId": 2299813058,
    "candidateUrl": "https://it-it.facebook.com/sottosopra.baveno"
  },
  {
    "id": "osm-node-2299813063-verbano",
    "name": "Verbano",
    "lat": 45.9000071,
    "lng": 8.5218365,
    "candidateSource": "osm",
    "candidateFoundAt": "2026-02-11",
    "candidateOsmType": "node",
    "candidateOsmId": 2299813063,
    "candidateUrl": "https://ilverbano.com/",
    "candidatePhone": "+39 0323 30408;+39 0323 32534"
  },
  {
    "id": "osm-node-2327614653-al-rustico",
    "name": "Al Rustico",
    "lat": 45.8863426,
    "lng": 8.5128846,
    "candidateSource": "osm",
    "candidateFoundAt": "2026-02-11",
    "candidateOsmType": "node",
    "candidateOsmId": 2327614653,
    "candidateUrl": "http://alrustico.weebly.com/"
  },
  {
    "id": "osm-node-2327674250-la-rampolina",
    "name": "La Rampolina",
    "lat": 45.8937439,
    "lng": 8.5082392,
    "candidateSource": "osm",
    "candidateFoundAt": "2026-02-11",
    "candidateOsmType": "node",
    "candidateOsmId": 2327674250,
    "candidateUrl": "https://www.larampolina.com",
    "candidateHours": "We,Fr,Sa,Su 12:00-16:00,19:00-23:00; Tu,Th 19:00-23:00"
  },
  {
    "id": "osm-node-2419865077-officina-della-pizza",
    "name": "Officina della Pizza",
    "lat": 45.9767552,
    "lng": 8.7181919,
    "candidateSource": "osm",
    "candidateFoundAt": "2026-02-11",
    "candidateOsmType": "node",
    "candidateOsmId": 2419865077,
    "candidateUrl": "https://www.officinadellapizza.com",
    "candidatePhone": "+39 0328 783 2592"
  },
  {
    "id": "osm-node-2423976718-ristorante-pizzeria-boschetto",
    "name": "Ristorante Pizzeria Boschetto",
    "lat": 45.9950626,
    "lng": 8.7270148,
    "candidateSource": "osm",
    "candidateFoundAt": "2026-02-11",
    "candidateOsmType": "node",
    "candidateOsmId": 2423976718,
    "candidateUrl": "http://ristoranteilboschetto.net/",
    "candidatePhone": "+39 0332 510134"
  },
  {
    "id": "osm-node-2426818511-crotto-gesiola",
    "name": "Crotto Gesiola",
    "lat": 45.8821707,
    "lng": 8.7232032,
    "candidateSource": "osm",
    "candidateFoundAt": "2026-02-11",
    "candidateOsmType": "node",
    "candidateOsmId": 2426818511,
    "candidateUrl": "http://www.crottogesiola.it",
    "candidateHours": "Tu-Su 11:00-23:00; Fr-Su 11:00-23:00"
  },
  {
    "id": "osm-node-2429044720-la-stalla",
    "name": "La Stalla",
    "lat": 46.1373473,
    "lng": 8.480478,
    "candidateSource": "osm",
    "candidateFoundAt": "2026-02-11",
    "candidateOsmType": "node",
    "candidateOsmId": 2429044720,
    "candidateUrl": "https://www.instagram.com/la_stalla_craveggia/?hl=en",
    "candidatePhone": "+39 333 287 9218",
    "candidateHours": "Wed-Mo 12:00-14:00 / 19:00-21:30"
  },
  {
    "id": "osm-node-2434765848-al-grott-caf",
    "name": "Al Grott Café",
    "lat": 46.1974884,
    "lng": 8.8132589,
    "candidateSource": "osm",
    "candidateFoundAt": "2026-02-11",
    "candidateOsmType": "node",
    "candidateOsmId": 2434765848,
    "candidateUrl": "http://www.algrottcafe.ch",
    "candidatePhone": "+41 79 329 42 58"
  },
  {
    "id": "osm-node-2434765860-grotto-al-ritrovo-dai-fusetti",
    "name": "Grotto al Ritrovo dai Fusetti",
    "lat": 46.1901296,
    "lng": 8.8242738,
    "candidateSource": "osm",
    "candidateFoundAt": "2026-02-11",
    "candidateOsmType": "node",
    "candidateOsmId": 2434765860,
    "candidateUrl": "https://grottoalritrovo.ch/",
    "candidatePhone": "+41 91 743 55 95",
    "candidateHours": "Mo-Su 12:00-22:30"
  },
  {
    "id": "osm-node-2509175784-la-pescheria-pizzeria",
    "name": "La Pescheria - Pizzeria",
    "lat": 46.1310313,
    "lng": 8.4898406,
    "candidateSource": "osm",
    "candidateFoundAt": "2026-02-11",
    "candidateOsmType": "node",
    "candidateOsmId": 2509175784,
    "candidateUrl": "http://www.ielmoli.com",
    "candidatePhone": "+39 0324 94458"
  },
  {
    "id": "osm-node-2524038993-grotto-sgambada",
    "name": "Grotto Sgambada",
    "lat": 46.0418294,
    "lng": 8.8995152,
    "candidateSource": "osm",
    "candidateFoundAt": "2026-02-11",
    "candidateOsmType": "node",
    "candidateOsmId": 2524038993,
    "candidateUrl": "https://www.grottosgambada.ch/",
    "candidatePhone": "+4191 6003242"
  },
  {
    "id": "osm-node-2618914664-l-ortobistrot",
    "name": "l_ortobistrot",
    "lat": 45.9235209,
    "lng": 8.9182837,
    "candidateSource": "osm",
    "candidateFoundAt": "2026-02-11",
    "candidateOsmType": "node",
    "candidateOsmId": 2618914664,
    "candidateUrl": "http://www.ortobistrot.ch",
    "candidatePhone": "+41 91 996 10 00"
  },
  {
    "id": "osm-node-2618914666-oasi",
    "name": "Oasi",
    "lat": 45.9236632,
    "lng": 8.9185214,
    "candidateSource": "osm",
    "candidateFoundAt": "2026-02-11",
    "candidateOsmType": "node",
    "candidateOsmId": 2618914666,
    "candidateUrl": "http://ristoranteoasi.ch",
    "candidatePhone": "+41 91 980 27 00"
  },
  {
    "id": "osm-node-2628665499-la-quartina",
    "name": "La Quartina",
    "lat": 45.9612289,
    "lng": 8.4553973,
    "candidateSource": "osm",
    "candidateFoundAt": "2026-02-11",
    "candidateOsmType": "node",
    "candidateOsmId": 2628665499,
    "candidateUrl": "https://www.laquartina.com",
    "candidatePhone": "+39 032380118"
  },
  {
    "id": "osm-node-2707235064-grotto-del-parco",
    "name": "Grotto del Parco",
    "lat": 45.9242341,
    "lng": 8.9102592,
    "candidateSource": "osm",
    "candidateFoundAt": "2026-02-11",
    "candidateOsmType": "node",
    "candidateOsmId": 2707235064,
    "candidateUrl": "http://www.grottodelparco.ch",
    "candidatePhone": "+41 91 996 22 07"
  },
  {
    "id": "osm-node-2741895277-la-perla",
    "name": "La Perla",
    "lat": 46.1419037,
    "lng": 8.4831242,
    "candidateSource": "osm",
    "candidateFoundAt": "2026-02-11",
    "candidateOsmType": "node",
    "candidateOsmId": 2741895277,
    "candidateUrl": "https://www.hlaperla.com/"
  },
  {
    "id": "osm-node-2781959743-pizza-style",
    "name": "Pizza Style",
    "lat": 46.0107538,
    "lng": 8.9556276,
    "candidateSource": "osm",
    "candidateFoundAt": "2026-02-11",
    "candidateOsmType": "node",
    "candidateOsmId": 2781959743,
    "candidateUrl": "https://www.pizzastyle.ch/"
  },
  {
    "id": "osm-node-2870403591-azienda-agricola-piccinelli-massimo",
    "name": "Azienda Agricola \"Piccinelli Massimo\"",
    "lat": 45.8890972,
    "lng": 8.7837386,
    "candidateSource": "osm",
    "candidateFoundAt": "2026-02-11",
    "candidateOsmType": "node",
    "candidateOsmId": 2870403591,
    "candidateUrl": "https://www.consorziocastanicoltori.it/index.php/aziende-nascosto/piccinelli",
    "candidatePhone": "+39 333 721 4095"
  },
  {
    "id": "osm-node-2870773333-locanda-del-brinsc",
    "name": "Locanda del Brinsc",
    "lat": 45.8894135,
    "lng": 8.7882323,
    "candidateSource": "osm",
    "candidateFoundAt": "2026-02-11",
    "candidateOsmType": "node",
    "candidateOsmId": 2870773333,
    "candidateUrl": "https://www.locandadelbrinsc.com"
  },
  {
    "id": "osm-node-2870794703-ristorante-pizzeria-il-borgo-il-linguaccione",
    "name": "Ristorante Pizzeria \"Il Borgo - Il Linguaccione\"",
    "lat": 45.8872251,
    "lng": 8.7906925,
    "candidateSource": "osm",
    "candidateFoundAt": "2026-02-11",
    "candidateOsmType": "node",
    "candidateOsmId": 2870794703,
    "candidateUrl": "https://www.facebook.com/illinguaccione"
  },
  {
    "id": "osm-node-2870796324-azienda-agricola-i-runchitt",
    "name": "Azienda agricola \"I Runchitt\"",
    "lat": 45.8884135,
    "lng": 8.7913564,
    "candidateSource": "osm",
    "candidateFoundAt": "2026-02-11",
    "candidateOsmType": "node",
    "candidateOsmId": 2870796324,
    "candidateUrl": "https://www.irunchitt.it"
  },
  {
    "id": "osm-node-2873740901-ristorante-piccolo-vigneto",
    "name": "Ristorante Piccolo Vigneto",
    "lat": 46.0083184,
    "lng": 8.9754524,
    "candidateSource": "osm",
    "candidateFoundAt": "2026-02-11",
    "candidateOsmType": "node",
    "candidateOsmId": 2873740901,
    "candidateUrl": "https://piccolo-vigneto.ch/",
    "candidatePhone": "+41 91 972 39 85",
    "candidateHours": "We-Su 10:00-14:30, 17:30-24:00; Tu 17:30-24:00"
  },
  {
    "id": "osm-node-2895132247-grotto-ca-rossa",
    "name": "Grotto Ca' Rossa",
    "lat": 46.2317767,
    "lng": 8.7338929,
    "candidateSource": "osm",
    "candidateFoundAt": "2026-02-11",
    "candidateOsmType": "node",
    "candidateOsmId": 2895132247,
    "candidateUrl": "http://www.grottocarossa.ch",
    "candidatePhone": "+41 91 753 28 32",
    "candidateHours": "Tu-Su 10:00-14:30,17:30-24:00"
  },
  {
    "id": "osm-node-2955157705-unione",
    "name": "Unione",
    "lat": 46.2274847,
    "lng": 8.7456618,
    "candidateSource": "osm",
    "candidateFoundAt": "2026-02-11",
    "candidateOsmType": "node",
    "candidateOsmId": 2955157705,
    "candidateUrl": "https://www.ristoranteunione.ch"
  },
  {
    "id": "osm-node-2978017045-osteria-battello",
    "name": "Osteria Battello",
    "lat": 45.9696989,
    "lng": 8.8834791,
    "candidateSource": "osm",
    "candidateFoundAt": "2026-02-11",
    "candidateOsmType": "node",
    "candidateOsmId": 2978017045,
    "candidateUrl": "https://www.osteriabattello.com",
    "candidatePhone": "+41 91 606 16 50"
  },
  {
    "id": "osm-node-2999633001-ristorante-del-ponte",
    "name": "Ristorante del Ponte",
    "lat": 46.1778233,
    "lng": 8.8154905,
    "candidateSource": "osm",
    "candidateFoundAt": "2026-02-11",
    "candidateOsmType": "node",
    "candidateOsmId": 2999633001,
    "candidateUrl": "https://www.ristorantedelponte.ch",
    "candidatePhone": "+41917516555"
  },
  {
    "id": "osm-node-3037261196-grotto-loverciano",
    "name": "Grotto Loverciano",
    "lat": 45.8679129,
    "lng": 9.0061314,
    "candidateSource": "osm",
    "candidateFoundAt": "2026-02-11",
    "candidateOsmType": "node",
    "candidateOsmId": 3037261196,
    "candidateUrl": "https://www.grottoloverciano.ch/"
  },
  {
    "id": "osm-node-3037562769-ristorante-essenziale",
    "name": "Ristorante Essenziale",
    "lat": 45.8699385,
    "lng": 8.9867456,
    "candidateSource": "osm",
    "candidateFoundAt": "2026-02-11",
    "candidateOsmType": "node",
    "candidateOsmId": 3037562769,
    "candidateUrl": "http://www.anatolia-tr.ch",
    "candidatePhone": "+41 91 630 22 55",
    "candidateHours": "Mo-Sa 08:00-01:00; Su 19:00-01:00; PH 19:00-01:00"
  },
  {
    "id": "osm-node-3046484859-ristorante-costa-azzurra",
    "name": "Ristorante Costa Azzurra",
    "lat": 46.1684304,
    "lng": 8.7742185,
    "candidateSource": "osm",
    "candidateFoundAt": "2026-02-11",
    "candidateOsmType": "node",
    "candidateOsmId": 3046484859,
    "candidateUrl": "https://www.costa-azzurra.ch/",
    "candidatePhone": "+41 91 751 38 02",
    "candidateHours": "Tu-Su 10:00-24:00"
  },
  {
    "id": "osm-node-3049274742-bar-pizzeria-liceo",
    "name": "Bar Pizzeria Liceo",
    "lat": 45.8634957,
    "lng": 8.9781399,
    "candidateSource": "osm",
    "candidateFoundAt": "2026-02-11",
    "candidateOsmType": "node",
    "candidateOsmId": 3049274742,
    "candidateUrl": "http://www.ristorantepizzerialiceo.ch",
    "candidateHours": "Mo-Th 07:15-14:00,18:00-24:00; Fr 07:15-14:00,18:00-01:00; Sa 18:00-01:00; Su off"
  },
  {
    "id": "osm-node-3053462681-al-battello",
    "name": "Al Battello",
    "lat": 45.9229213,
    "lng": 8.9170938,
    "candidateSource": "osm",
    "candidateFoundAt": "2026-02-11",
    "candidateOsmType": "node",
    "candidateOsmId": 3053462681,
    "candidateUrl": "https://www.albattello.com/",
    "candidatePhone": "+41 91 996 12 60"
  },
  {
    "id": "osm-node-3054581999-pizza-al-campanile",
    "name": "Pizza Al Campanile",
    "lat": 46.0613956,
    "lng": 8.6971252,
    "candidateSource": "osm",
    "candidateFoundAt": "2026-02-11",
    "candidateOsmType": "node",
    "candidateOsmId": 3054581999,
    "candidateUrl": "https://www.facebook.com/pizzaalcampanile/",
    "candidatePhone": "+39 0323 739513",
    "candidateHours": "Tu-Sa 10:30-14:00,18:00-21:00; Su 10:30-14:00,18:00-21:00 open \"summer;estiva\"; Su 18:00-21:00 open \"winter;invernale\"; Mo closed"
  },
  {
    "id": "osm-node-3106072685-ristorante-l-approdo",
    "name": "Ristorante L'Approdo",
    "lat": 46.1781849,
    "lng": 8.8411048,
    "candidateSource": "osm",
    "candidateFoundAt": "2026-02-11",
    "candidateOsmType": "node",
    "candidateOsmId": 3106072685,
    "candidateUrl": "https://www.lapprodo.ch/"
  },
  {
    "id": "osm-node-3112274689-ristorante-negresco",
    "name": "Ristorante Negresco",
    "lat": 46.0235523,
    "lng": 8.8564526,
    "candidateSource": "osm",
    "candidateFoundAt": "2026-02-11",
    "candidateOsmType": "node",
    "candidateOsmId": 3112274689,
    "candidateUrl": "http://www.negresco.info/"
  },
  {
    "id": "osm-node-3126895789-biancorosso",
    "name": "Biancorosso",
    "lat": 46.1683554,
    "lng": 8.7918982,
    "candidateSource": "osm",
    "candidateFoundAt": "2026-02-11",
    "candidateOsmType": "node",
    "candidateOsmId": 3126895789,
    "candidateUrl": "http://www.pizzeriaprimavera.ch",
    "candidateHours": "Su-Th 09:00-23:00, Fr,Sa 09:00-24:00"
  },
  {
    "id": "osm-node-3238476397-il-boccalino",
    "name": "Il Boccalino",
    "lat": 46.168773,
    "lng": 8.7935362,
    "candidateSource": "osm",
    "candidateFoundAt": "2026-02-11",
    "candidateOsmType": "node",
    "candidateOsmId": 3238476397,
    "candidateUrl": "http://www.ilboccalino.ch",
    "candidatePhone": "+41 91 751 96 81",
    "candidateHours": "Mo-Sa 11:30-14:00,17:30-24:00; Su 17:30-24:00"
  },
  {
    "id": "osm-node-3238476402-ristorante-dell-angelo",
    "name": "Ristorante Dell'Angelo",
    "lat": 46.1687116,
    "lng": 8.7944114,
    "candidateSource": "osm",
    "candidateFoundAt": "2026-02-11",
    "candidateOsmType": "node",
    "candidateOsmId": 3238476402,
    "candidateUrl": "https://www.dellangelo.ch/restaurant-bar/restaurant-pizzeria",
    "candidateHours": "Mo-Su 11:30-14:30,17:00-23:00"
  },
  {
    "id": "osm-node-3239149699-la-trattoria-cibo-e-passione",
    "name": "La Trattoria - Cibo e Passione",
    "lat": 46.1703716,
    "lng": 8.7947389,
    "candidateSource": "osm",
    "candidateFoundAt": "2026-02-11",
    "candidateOsmType": "node",
    "candidateOsmId": 3239149699,
    "candidateUrl": "https://www.latrattorialocarno.ch",
    "candidatePhone": "+41 91 751 64 44"
  },
  {
    "id": "osm-node-3256406528-ristorante-castelgrande",
    "name": "Ristorante Castelgrande",
    "lat": 46.1928136,
    "lng": 9.0219729,
    "candidateSource": "osm",
    "candidateFoundAt": "2026-02-11",
    "candidateOsmType": "node",
    "candidateOsmId": 3256406528,
    "candidateUrl": "http://www.ristorantecastelgrande.ch",
    "candidatePhone": "+41 91 814 87 81"
  },
  {
    "id": "osm-node-3256443039-osteria-sasso-corbaro",
    "name": "Osteria Sasso Corbaro",
    "lat": 46.1882026,
    "lng": 9.030082,
    "candidateSource": "osm",
    "candidateFoundAt": "2026-02-11",
    "candidateOsmType": "node",
    "candidateOsmId": 3256443039,
    "candidateUrl": "http://www.osteriasassocorbaro.ch",
    "candidatePhone": "+41 91 825 55 32",
    "candidateHours": "Mo off"
  },
  {
    "id": "osm-node-3293054568-ristorante-svizzero",
    "name": "Ristorante Svizzero",
    "lat": 45.9043598,
    "lng": 8.9793763,
    "candidateSource": "osm",
    "candidateFoundAt": "2026-02-11",
    "candidateOsmType": "node",
    "candidateOsmId": 3293054568,
    "candidateUrl": "https://www.albergoristorantesvizzero.com/",
    "candidatePhone": "+41 91 648 19 75"
  },
  {
    "id": "osm-node-3293420284-osteria-unione",
    "name": "Osteria Unione",
    "lat": 45.9049608,
    "lng": 8.973977,
    "candidateSource": "osm",
    "candidateFoundAt": "2026-02-11",
    "candidateOsmType": "node",
    "candidateOsmId": 3293420284,
    "candidateUrl": "http://www.osteriaunione.ch/",
    "candidatePhone": "+41 91 6482353",
    "candidateHours": "Mo,Th,Fr,Sa,Su 09:00-24:00; Tu 09:00-14:00; We off"
  },
  {
    "id": "osm-node-3303130294-ristorante-etnic",
    "name": "Ristorante Etnic",
    "lat": 46.005015,
    "lng": 8.954645,
    "candidateSource": "osm",
    "candidateFoundAt": "2026-02-11",
    "candidateOsmType": "node",
    "candidateOsmId": 3303130294,
    "candidateUrl": "https://www.etnic.ch/",
    "candidatePhone": "+41 91 923 38 25"
  },
  {
    "id": "osm-node-3308007340-ristorante-la-palma",
    "name": "Ristorante La Palma",
    "lat": 45.9510283,
    "lng": 8.9643759,
    "candidateSource": "osm",
    "candidateFoundAt": "2026-02-11",
    "candidateOsmType": "node",
    "candidateOsmId": 3308007340,
    "candidateUrl": "https://www.palmabissone.ch/",
    "candidatePhone": "+4191 649 84 06",
    "candidateHours": "Mo-Su 11:30-15:00,17:45-23:00"
  },
  {
    "id": "osm-node-3342881950-ristorante-pizzeria-del-sole",
    "name": "Ristorante-Pizzeria del Sole",
    "lat": 46.0197405,
    "lng": 8.9736515,
    "candidateSource": "osm",
    "candidateFoundAt": "2026-02-11",
    "candidateOsmType": "node",
    "candidateOsmId": 3342881950,
    "candidateUrl": "https://www.ristorantedelsole.ch/",
    "candidatePhone": "+41 91 941 74 61",
    "candidateHours": "Mo-Fr 07:30-00:00, Sa-Su 09:00-00:00"
  },
  {
    "id": "osm-node-3348617004-la-corte",
    "name": "La Corte",
    "lat": 45.8713632,
    "lng": 8.9874932,
    "candidateSource": "osm",
    "candidateFoundAt": "2026-02-11",
    "candidateOsmType": "node",
    "candidateOsmId": 3348617004,
    "candidateUrl": "https://ristorantelacorte.ch/",
    "candidatePhone": "+41 91 224 10 10"
  },
  {
    "id": "osm-node-3348691341-l-antica-osteria-del-leone-barberini",
    "name": "L'Antica Osteria del Leone Barberini",
    "lat": 45.8695445,
    "lng": 8.9861986,
    "candidateSource": "osm",
    "candidateFoundAt": "2026-02-11",
    "candidateOsmType": "node",
    "candidateOsmId": 3348691341,
    "candidateUrl": "https://osterialeonebarberini.ch/",
    "candidatePhone": "+41 91 630 06 36"
  },
  {
    "id": "osm-node-3423171714-officina-della-birra",
    "name": "Officina della Birra",
    "lat": 46.0147548,
    "lng": 8.9087318,
    "candidateSource": "osm",
    "candidateFoundAt": "2026-02-11",
    "candidateOsmType": "node",
    "candidateOsmId": 3423171714,
    "candidateUrl": "http://www.officinadellabirra.ch"
  },
  {
    "id": "osm-node-3478122771-bar-ristorante-pizzeria-piper",
    "name": "Bar Ristorante Pizzeria Piper",
    "lat": 46.0271106,
    "lng": 8.9185873,
    "candidateSource": "osm",
    "candidateFoundAt": "2026-02-11",
    "candidateOsmType": "node",
    "candidateOsmId": 3478122771,
    "candidateUrl": "http://www.pipermanno.ch",
    "candidatePhone": "+41 91 610 84 20"
  },
  {
    "id": "osm-node-3504787960-agriturismo-il-carpio",
    "name": "Agriturismo Il Carpio",
    "lat": 45.9371474,
    "lng": 8.8283416,
    "candidateSource": "osm",
    "candidateFoundAt": "2026-02-11",
    "candidateOsmType": "node",
    "candidateOsmId": 3504787960,
    "candidateUrl": "https://www.ilcarpio.it",
    "candidatePhone": "+39 328 2237006"
  },
  {
    "id": "osm-node-3524352038-ristorante-pizzeria-san-giorgio",
    "name": "Ristorante Pizzeria San Giorgio",
    "lat": 45.9218656,
    "lng": 8.9297439,
    "candidateSource": "osm",
    "candidateFoundAt": "2026-02-11",
    "candidateOsmType": "node",
    "candidateOsmId": 3524352038,
    "candidateUrl": "https://www.chaletsangiorgio.ch/"
  },
  {
    "id": "osm-node-3545129485-osteria-degli-amici",
    "name": "Osteria Degli Amici",
    "lat": 45.9538647,
    "lng": 8.9057755,
    "candidateSource": "osm",
    "candidateFoundAt": "2026-02-11",
    "candidateOsmType": "node",
    "candidateOsmId": 3545129485,
    "candidateUrl": "https://osteriadegliamici.ch",
    "candidatePhone": "+41919801072",
    "candidateHours": "We-Sa 11:00-15:00, 18:00-23:00; Su 11:00-23:00"
  },
  {
    "id": "osm-node-3545129486-osteria-grotto-del-paolin",
    "name": "Osteria Grotto del Paolin",
    "lat": 45.9511154,
    "lng": 8.90733,
    "candidateSource": "osm",
    "candidateFoundAt": "2026-02-11",
    "candidateOsmType": "node",
    "candidateOsmId": 3545129486,
    "candidateUrl": "https://www.grottodelpaolin.ch/",
    "candidatePhone": "+41 91 995 26 96"
  },
  {
    "id": "osm-node-3587474993-antico-ristorante-borromeo",
    "name": "Antico Ristorante Borromeo",
    "lat": 46.1552532,
    "lng": 8.7694101,
    "candidateSource": "osm",
    "candidateFoundAt": "2026-02-11",
    "candidateOsmType": "node",
    "candidateOsmId": 3587474993,
    "candidateUrl": "https://www.antico-borromeo.ch/",
    "candidatePhone": "+41 91 791 92 81"
  },
  {
    "id": "osm-node-3626234465-negromante",
    "name": "Negromante",
    "lat": 46.1703647,
    "lng": 8.7931652,
    "candidateSource": "osm",
    "candidateFoundAt": "2026-02-11",
    "candidateOsmType": "node",
    "candidateOsmId": 3626234465,
    "candidateUrl": "http://www.negromante.com"
  },
  {
    "id": "osm-node-3627591053-arancioamaro",
    "name": "Arancioamaro",
    "lat": 46.0198761,
    "lng": 8.6836346,
    "candidateSource": "osm",
    "candidateFoundAt": "2026-02-11",
    "candidateOsmType": "node",
    "candidateOsmId": 3627591053,
    "candidateUrl": "https://www.arancioamaro.it/",
    "candidatePhone": "+39 339 8318937"
  },
  {
    "id": "osm-node-3632079606-camarca",
    "name": "Camarca",
    "lat": 45.8999357,
    "lng": 8.5213017,
    "candidateSource": "osm",
    "candidateFoundAt": "2026-02-11",
    "candidateOsmType": "node",
    "candidateOsmId": 3632079606,
    "candidateUrl": "http://www.residenzacamarca.it/",
    "candidatePhone": "+39 347 6731548"
  },
  {
    "id": "osm-node-3660304162-ristorante-tentazioni",
    "name": "Ristorante Tentazioni",
    "lat": 46.184152,
    "lng": 8.7163469,
    "candidateSource": "osm",
    "candidateFoundAt": "2026-02-11",
    "candidateOsmType": "node",
    "candidateOsmId": 3660304162,
    "candidateUrl": "https://www.ristorante-tentazioni-cavigliano.ch",
    "candidatePhone": "+41 91 601 26 82"
  },
  {
    "id": "osm-node-3660315397-ristorante-pensione-peppino",
    "name": "Ristorante-Pensione Peppino",
    "lat": 46.1842272,
    "lng": 8.7210365,
    "candidateSource": "osm",
    "candidateFoundAt": "2026-02-11",
    "candidateOsmType": "node",
    "candidateOsmId": 3660315397,
    "candidateUrl": "https://www.dapeppino.ch/",
    "candidateHours": "24/7"
  },
  {
    "id": "osm-node-3660525257-ristorante-al-gabbiano",
    "name": "Ristorante al Gabbiano",
    "lat": 46.1531996,
    "lng": 8.7703511,
    "candidateSource": "osm",
    "candidateFoundAt": "2026-02-11",
    "candidateOsmType": "node",
    "candidateOsmId": 3660525257,
    "candidateUrl": "http://www.ristorantealgabbiano.ch"
  },
  {
    "id": "osm-node-3668734073-ristorante-piazzetta",
    "name": "Ristorante piazzetta",
    "lat": 46.1914753,
    "lng": 9.0236957,
    "candidateSource": "osm",
    "candidateFoundAt": "2026-02-11",
    "candidateOsmType": "node",
    "candidateOsmId": 3668734073,
    "candidateUrl": "https://www.ristobarpiazzetta.ch/",
    "candidatePhone": "+41 91 835 42 47",
    "candidateHours": "Mo-We 08:00-20:00; Th, Fr 08:00-23:00; Sa 07:00-23:00"
  },
  {
    "id": "osm-node-3668748201-cantinin-dal-gatt",
    "name": "Cantinin dal Gatt",
    "lat": 46.191307,
    "lng": 9.0222002,
    "candidateSource": "osm",
    "candidateFoundAt": "2026-02-11",
    "candidateOsmType": "node",
    "candidateOsmId": 3668748201,
    "candidateUrl": "https://www.cantinindalgatt.ch",
    "candidatePhone": "+41 91 825 27 71",
    "candidateHours": "Mo,Su off; Tu-Sa 11:30-15:00,18:30-24:00"
  },
  {
    "id": "osm-node-3688448893-antico-grotto-mai-morire",
    "name": "Antico Grotto Mai Morire",
    "lat": 46.2109103,
    "lng": 8.7456322,
    "candidateSource": "osm",
    "candidateFoundAt": "2026-02-11",
    "candidateOsmType": "node",
    "candidateOsmId": 3688448893,
    "candidateUrl": "https://grottomaimorire.ch/"
  },
  {
    "id": "osm-node-3716878601-dam-a-traa",
    "name": "Dam A Traa",
    "lat": 45.9306338,
    "lng": 8.5408745,
    "candidateSource": "osm",
    "candidateFoundAt": "2026-02-11",
    "candidateOsmType": "node",
    "candidateOsmId": 3716878601,
    "candidateUrl": "http://damatraa.it",
    "candidatePhone": "+39 0323 557152",
    "candidateHours": "Tu-Su 11:00-15:00,18:00-26:00"
  },
  {
    "id": "osm-node-3760356759-ristorante-olimpia",
    "name": "Ristorante Olimpia",
    "lat": 46.0035715,
    "lng": 8.9514348,
    "candidateSource": "osm",
    "candidateFoundAt": "2026-02-11",
    "candidateOsmType": "node",
    "candidateOsmId": 3760356759,
    "candidateUrl": "https://www.ristoranteolimpia.ch"
  },
  {
    "id": "osm-node-3771410441-antica-pizzeria-da-michele",
    "name": "Antica Pizzeria Da Michele",
    "lat": 46.190699,
    "lng": 9.0227038,
    "candidateSource": "osm",
    "candidateFoundAt": "2026-02-11",
    "candidateOsmType": "node",
    "candidateOsmId": 3771410441,
    "candidateUrl": "https://anticapizzeriadamichele.ch",
    "candidatePhone": "+41 91 825 28 44",
    "candidateHours": "Mo-Th 11:30-14:00, 18:00-22:00; Fr 11:30-14:00, 18:00-22:30; Sa-Su 12:00-22:30"
  },
  {
    "id": "osm-node-3866800668-grotto-san-martino",
    "name": "Grotto San Martino",
    "lat": 45.8786522,
    "lng": 8.9869106,
    "candidateSource": "osm",
    "candidateFoundAt": "2026-02-11",
    "candidateOsmType": "node",
    "candidateOsmId": 3866800668,
    "candidateUrl": "http://www.grottosanmartino.ch/"
  },
  {
    "id": "osm-node-3887406816-agriturismo-bon",
    "name": "Agriturismo Bonè",
    "lat": 45.863239,
    "lng": 8.6936749,
    "candidateSource": "osm",
    "candidateFoundAt": "2026-02-11",
    "candidateOsmType": "node",
    "candidateOsmId": 3887406816,
    "candidateUrl": "http://www.agriturismo-bone.com/",
    "candidatePhone": "+39 0332 700463"
  },
  {
    "id": "osm-node-4025713055-le-colonne",
    "name": "Le Colonne",
    "lat": 46.1350723,
    "lng": 8.4678288,
    "candidateSource": "osm",
    "candidateFoundAt": "2026-02-11",
    "candidateOsmType": "node",
    "candidateOsmId": 4025713055,
    "candidateUrl": "https://www.ristorantelecolonne.it",
    "candidatePhone": "+39 0324 94893",
    "candidateHours": "Mo 11:00-14:30; We-Su 11:00-14:30,18:30-23:00"
  },
  {
    "id": "osm-node-4032642234-osteria-grotto-del-nando",
    "name": "Osteria Grotto del Nando",
    "lat": 46.2032444,
    "lng": 9.014967,
    "candidateSource": "osm",
    "candidateFoundAt": "2026-02-11",
    "candidateOsmType": "node",
    "candidateOsmId": 4032642234,
    "candidateUrl": "http://www.osteria-delnando.ch",
    "candidatePhone": "+41918255562"
  },
  {
    "id": "osm-node-4065339034-bistrot-vecchio-torchio",
    "name": "Bistrot Vecchio Torchio",
    "lat": 46.0125389,
    "lng": 8.9648616,
    "candidateSource": "osm",
    "candidateFoundAt": "2026-02-11",
    "candidateOsmType": "node",
    "candidateOsmId": 4065339034,
    "candidateUrl": "https://www.residence-vecchiotorchio.ch/it/bistrot"
  },
  {
    "id": "osm-node-4068804792-grotto-eremo-san-nicolao",
    "name": "Grotto Eremo San Nicolao",
    "lat": 45.8817759,
    "lng": 8.9882313,
    "candidateSource": "osm",
    "candidateFoundAt": "2026-02-11",
    "candidateOsmType": "node",
    "candidateOsmId": 4068804792,
    "candidateUrl": "https://www.grottoeremosannicolao.ch/",
    "candidatePhone": "+41 91 646 40 50"
  },
  {
    "id": "osm-node-4069534609-ristorante-al-torchio-antico",
    "name": "Ristorante al Torchio Antico",
    "lat": 45.876332,
    "lng": 8.9411477,
    "candidateSource": "osm",
    "candidateFoundAt": "2026-02-11",
    "candidateOsmType": "node",
    "candidateOsmId": 4069534609,
    "candidateUrl": "https://altorchioantico.ch/"
  },
  {
    "id": "osm-node-4070452067-ristorante-la-pignatta",
    "name": "Ristorante la Pignatta",
    "lat": 45.9584399,
    "lng": 8.9879122,
    "candidateSource": "osm",
    "candidateFoundAt": "2026-02-11",
    "candidateOsmType": "node",
    "candidateOsmId": 4070452067,
    "candidateUrl": "https://www.lapignatta.ch/"
  },
  {
    "id": "osm-node-4095973581-la-cucina-di-alice",
    "name": "La Cucina di Alice",
    "lat": 46.0020854,
    "lng": 8.9500504,
    "candidateSource": "osm",
    "candidateFoundAt": "2026-02-11",
    "candidateOsmType": "node",
    "candidateOsmId": 4095973581,
    "candidateUrl": "https://www.lacucinadialice.ch/",
    "candidatePhone": "+41 91 922 01 03"
  },
  {
    "id": "osm-node-4128570497-al-ponte",
    "name": "Al Ponte",
    "lat": 46.0202457,
    "lng": 8.8930357,
    "candidateSource": "osm",
    "candidateFoundAt": "2026-02-11",
    "candidateOsmType": "node",
    "candidateOsmId": 4128570497,
    "candidateUrl": "https://al-ponte.ch/"
  },
  {
    "id": "osm-node-4185416138-grotto-del-bivio",
    "name": "Grotto del Bivio",
    "lat": 46.0051426,
    "lng": 8.8580236,
    "candidateSource": "osm",
    "candidateFoundAt": "2026-02-11",
    "candidateOsmType": "node",
    "candidateOsmId": 4185416138,
    "candidateUrl": "https://www.grottobivio.ch/",
    "candidatePhone": "+41 91 600 93 21"
  },
  {
    "id": "osm-node-4213596926-l-imbuto",
    "name": "l'imbuto",
    "lat": 46.0609338,
    "lng": 8.7004154,
    "candidateSource": "osm",
    "candidateFoundAt": "2026-02-11",
    "candidateOsmType": "node",
    "candidateOsmId": 4213596926,
    "candidateUrl": "http://www.ristorantelimbuto.it",
    "candidatePhone": "+39 0323 70026"
  },
  {
    "id": "osm-node-4223624094-osteria-camping-paradiso-lago",
    "name": "Osteria Camping Paradiso Lago",
    "lat": 45.9235091,
    "lng": 8.9790875,
    "candidateSource": "osm",
    "candidateFoundAt": "2026-02-11",
    "candidateOsmType": "node",
    "candidateOsmId": 4223624094,
    "candidateUrl": "http://www.camping-paradisi.ch",
    "candidatePhone": "+41 79 7097014",
    "candidateHours": "Mo-Su 08:00-22:00"
  },
  {
    "id": "osm-node-4225655824-ristorante-degli-angioli",
    "name": "Ristorante degli Angioli",
    "lat": 46.1523156,
    "lng": 8.7715031,
    "candidateSource": "osm",
    "candidateFoundAt": "2026-02-11",
    "candidateOsmType": "node",
    "candidateOsmId": 4225655824,
    "candidateUrl": "http://www.angioli.ch"
  },
  {
    "id": "osm-node-4244920094-grotto-grassi",
    "name": "Grotto Grassi",
    "lat": 45.8838034,
    "lng": 8.9643574,
    "candidateSource": "osm",
    "candidateFoundAt": "2026-02-11",
    "candidateOsmType": "node",
    "candidateOsmId": 4244920094,
    "candidateUrl": "https://www.grottograssitremona.ch/"
  },
  {
    "id": "osm-node-4257873256-agriturismo-alpe-zalto",
    "name": "Agriturismo Alpe Zalto",
    "lat": 46.1070396,
    "lng": 8.9768069,
    "candidateSource": "osm",
    "candidateFoundAt": "2026-02-11",
    "candidateOsmType": "node",
    "candidateOsmId": 4257873256,
    "candidateUrl": "https://www.agriturismo.ch/agriturismo/alpe_zalto",
    "candidatePhone": "+41 76 5634809",
    "candidateHours": "\"Periodo di apertura: Da metà maggio a fine agosto. Settembre e ottobre su riservazione.\""
  },
  {
    "id": "osm-node-4269527202-da-renato",
    "name": "Da Renato",
    "lat": 45.982159,
    "lng": 8.8791106,
    "candidateSource": "osm",
    "candidateFoundAt": "2026-02-11",
    "candidateOsmType": "node",
    "candidateOsmId": 4269527202,
    "candidateUrl": "https://www.darenato.ch/",
    "candidatePhone": "+4191 606 76 78",
    "candidateHours": "We-Mo 10:30-14:00, 17:00-24:00"
  },
  {
    "id": "osm-node-4341029534-ristorante-della-posta",
    "name": "Ristorante della Posta",
    "lat": 45.9226184,
    "lng": 8.915801,
    "candidateSource": "osm",
    "candidateFoundAt": "2026-02-11",
    "candidateOsmType": "node",
    "candidateOsmId": 4341029534,
    "candidateUrl": "https://www.hotelmorcote.com/"
  },
  {
    "id": "osm-node-4347096191-carillon",
    "name": "Carillon",
    "lat": 45.9615329,
    "lng": 8.8570188,
    "candidateSource": "osm",
    "candidateFoundAt": "2026-02-11",
    "candidateOsmType": "node",
    "candidateOsmId": 4347096191,
    "candidateUrl": "https://www.hotelcarillon.net",
    "candidatePhone": "+39 0332 550311",
    "candidateHours": "08:00-15:00,18:00-24:00"
  },
  {
    "id": "osm-node-4354548926-casa-della-neve",
    "name": "Casa della neve",
    "lat": 45.883983,
    "lng": 8.4531743,
    "candidateSource": "osm",
    "candidateFoundAt": "2026-02-11",
    "candidateOsmType": "node",
    "candidateOsmId": 4354548926,
    "candidateUrl": "http://www.casadellaneve.it/",
    "candidatePhone": "+390323923516"
  },
  {
    "id": "osm-node-4401116389-cafe-vergnano-1882",
    "name": "Cafe Vergnano 1882",
    "lat": 46.0118061,
    "lng": 8.9636868,
    "candidateSource": "osm",
    "candidateFoundAt": "2026-02-11",
    "candidateOsmType": "node",
    "candidateOsmId": 4401116389,
    "candidateUrl": "https://www.caffevergnano.com/",
    "candidateHours": "Mo-Sa 05:00-00:00"
  },
  {
    "id": "osm-node-4447882190-taverna-concordia",
    "name": "Taverna Concordia",
    "lat": 45.9112439,
    "lng": 8.6183073,
    "candidateSource": "osm",
    "candidateFoundAt": "2026-02-11",
    "candidateOsmType": "node",
    "candidateOsmId": 4447882190,
    "candidateUrl": "https://concordialaveno.it/",
    "candidatePhone": "+39 0332 666320",
    "candidateHours": "Sa 11:00-15:30,17:00-01:00; Su 11:00-16:00,17:30-22:30; We-Th 17:00-24:00; Fr 17:00-01:00; Mo-Tu closed; PH closed"
  },
  {
    "id": "osm-node-4450997872-trattoria-per-bacco",
    "name": "Trattoria Per Bacco",
    "lat": 45.8719001,
    "lng": 8.6099556,
    "candidateSource": "osm",
    "candidateFoundAt": "2026-02-11",
    "candidateOsmType": "node",
    "candidateOsmId": 4450997872,
    "candidateUrl": "http://www.trattoria-per-bacco.it/",
    "candidatePhone": "++39 0332 649047"
  },
  {
    "id": "osm-node-4466734549-st-louis-ristorante-di-costantino-ciro",
    "name": "St. Louis Ristorante Di Costantino Ciro",
    "lat": 46.0117143,
    "lng": 8.9679236,
    "candidateSource": "osm",
    "candidateFoundAt": "2026-02-11",
    "candidateOsmType": "node",
    "candidateOsmId": 4466734549,
    "candidateUrl": "http://www.pizzeriastlouis.ch"
  },
  {
    "id": "osm-node-4485648844-il-burchiello",
    "name": "Il Burchiello",
    "lat": 45.9119115,
    "lng": 8.6175076,
    "candidateSource": "osm",
    "candidateFoundAt": "2026-02-11",
    "candidateOsmType": "node",
    "candidateOsmId": 4485648844,
    "candidateUrl": "https://ristoranteilburchiello.eatbu.com",
    "candidatePhone": "+39 0332 316390",
    "candidateHours": "Mo-Su 11:00-15:30,18:00-23:30"
  },
  {
    "id": "osm-node-4485648845-kopi-club",
    "name": "Kopi Club",
    "lat": 45.9116436,
    "lng": 8.6176867,
    "candidateSource": "osm",
    "candidateFoundAt": "2026-02-11",
    "candidateOsmType": "node",
    "candidateOsmId": 4485648845,
    "candidateUrl": "http://www.theoldkopiclub.com/",
    "candidatePhone": "+39 0332 669776",
    "candidateHours": "Mo-Tu,Th-Su 10:00-22:30; We 09:00-22:30; PH closed"
  },
  {
    "id": "osm-node-4539975063-grotto-posmonte",
    "name": "Grotto Posmonte",
    "lat": 45.9704793,
    "lng": 8.9116442,
    "candidateSource": "osm",
    "candidateFoundAt": "2026-02-11",
    "candidateOsmType": "node",
    "candidateOsmId": 4539975063,
    "candidateUrl": "https://www.grottoposmonte.ch/",
    "candidatePhone": "+41 91 994 11 11",
    "candidateHours": "We-Fr 18:00-23:00, Sa-Su 11:30-23:00"
  },
  {
    "id": "osm-node-4577939990-spaghetti-pomodoro",
    "name": "Spaghetti Pomodoro",
    "lat": 46.004562,
    "lng": 8.9502441,
    "candidateSource": "osm",
    "candidateFoundAt": "2026-02-11",
    "candidateOsmType": "node",
    "candidateOsmId": 4577939990,
    "candidateUrl": "https://spaghettipomodoro.ch/",
    "candidatePhone": "+41 91 922 01 70",
    "candidateHours": "Su-Th 09:00-23:30; Fr-Sa 09:00-00:00"
  },
  {
    "id": "osm-node-4581779494-osteria-caprino",
    "name": "Osteria Caprino",
    "lat": 45.9876965,
    "lng": 8.9452507,
    "candidateSource": "osm",
    "candidateFoundAt": "2026-02-11",
    "candidateOsmType": "node",
    "candidateOsmId": 4581779494,
    "candidateUrl": "http://www.osteria-calprino.ch/",
    "candidatePhone": "+41 78 240 33 33",
    "candidateHours": "Mo-Sa 18:30-23:00"
  },
  {
    "id": "osm-node-4602958926-hotel-primavera",
    "name": "Hotel Primavera",
    "lat": 46.123032,
    "lng": 8.7112691,
    "candidateSource": "osm",
    "candidateFoundAt": "2026-02-11",
    "candidateOsmType": "node",
    "candidateOsmId": 4602958926,
    "candidateUrl": "http://www.primavera-hotel.com",
    "candidatePhone": "+41 91 7931251"
  },
  {
    "id": "osm-node-4613221589-osteria-chiara",
    "name": "Osteria Chiara",
    "lat": 46.171889,
    "lng": 8.8060983,
    "candidateSource": "osm",
    "candidateFoundAt": "2026-02-11",
    "candidateOsmType": "node",
    "candidateOsmId": 4613221589,
    "candidateUrl": "https://www.osteriachiara.ch/",
    "candidatePhone": "+41917433296"
  },
  {
    "id": "osm-node-4729383677-le-tre-grotte",
    "name": "Le Tre Grotte",
    "lat": 45.9330456,
    "lng": 8.8876837,
    "candidateSource": "osm",
    "candidateFoundAt": "2026-02-11",
    "candidateOsmType": "node",
    "candidateOsmId": 4729383677,
    "candidateUrl": "http://www.letregrotte.it/"
  },
  {
    "id": "osm-node-4731712230-la-gardenia",
    "name": "La Gardenia",
    "lat": 46.0091823,
    "lng": 8.9428523,
    "candidateSource": "osm",
    "candidateFoundAt": "2026-02-11",
    "candidateOsmType": "node",
    "candidateOsmId": 4731712230,
    "candidateUrl": "https://www.ristorantegardenia.com/",
    "candidatePhone": "+41 91 966 41 43"
  },
  {
    "id": "osm-node-4741707329-mary",
    "name": "Mary",
    "lat": 46.0033518,
    "lng": 8.9508701,
    "candidateSource": "osm",
    "candidateFoundAt": "2026-02-11",
    "candidateOsmType": "node",
    "candidateOsmId": 4741707329,
    "candidateUrl": "https://ristorantemary.ch/",
    "candidatePhone": "+41 91 923 38 06",
    "candidateHours": "Mo-So 11:30-00:00"
  },
  {
    "id": "osm-node-4743459726-domino",
    "name": "Domino",
    "lat": 45.9933985,
    "lng": 8.9460481,
    "candidateSource": "osm",
    "candidateFoundAt": "2026-02-11",
    "candidateOsmType": "node",
    "candidateOsmId": 4743459726,
    "candidateUrl": "https://www.dominolugano.com/",
    "candidatePhone": "+41 91 994 20 61",
    "candidateHours": "Mo-Su 18:00-24:00"
  },
  {
    "id": "osm-node-4760805623-breva",
    "name": "Breva",
    "lat": 46.006052,
    "lng": 8.966219,
    "candidateSource": "osm",
    "candidateFoundAt": "2026-02-11",
    "candidateOsmType": "node",
    "candidateOsmId": 4760805623,
    "candidateUrl": "https://pizzeriabreva.ch/",
    "candidatePhone": "+41 91 976 07 07",
    "candidateHours": "Tu-Th 07:00-00:00; Fr-Sa 08:00-01:00; Su 08:00-00:00"
  },
  {
    "id": "osm-node-4767654800-yama",
    "name": "Yama",
    "lat": 45.9601097,
    "lng": 8.8627701,
    "candidateSource": "osm",
    "candidateFoundAt": "2026-02-11",
    "candidateOsmType": "node",
    "candidateOsmId": 4767654800,
    "candidateUrl": "http://www.yama-restaurant.com/",
    "candidatePhone": "+39 0332 523343",
    "candidateHours": "Mo-We 19:00-24:00; Th-Su 12:00-15:00,19:00-24:00"
  },
  {
    "id": "osm-node-4790130923-gli-artisti",
    "name": "Gli artisti",
    "lat": 46.0010013,
    "lng": 8.7427029,
    "candidateSource": "osm",
    "candidateFoundAt": "2026-02-11",
    "candidateOsmType": "node",
    "candidateOsmId": 4790130923,
    "candidateUrl": "https://www.ristorantepizzeriagliartisti.it",
    "candidatePhone": "+39 0332 530335",
    "candidateHours": "Tu-Su 12:00-14:30,18:00-22:30"
  },
  {
    "id": "osm-node-4856387734-agriturismo-kedo",
    "name": "Agriturismo Kedo",
    "lat": 46.0760142,
    "lng": 8.8166658,
    "candidateSource": "osm",
    "candidateFoundAt": "2026-02-11",
    "candidateOsmType": "node",
    "candidateOsmId": 4856387734,
    "candidateUrl": "http://www.agriturismokedo.it/",
    "candidatePhone": "+39 0332 568501"
  },
  {
    "id": "osm-node-4903323421-curz-tt",
    "name": "Curzútt",
    "lat": 46.1946067,
    "lng": 8.9930733,
    "candidateSource": "osm",
    "candidateFoundAt": "2026-02-11",
    "candidateOsmType": "node",
    "candidateOsmId": 4903323421,
    "candidateUrl": "https://www.curzutt.ch/",
    "candidatePhone": "+41 91 835 57 23"
  },
  {
    "id": "osm-node-4935784743-lo-stornello",
    "name": "Lo Stornello",
    "lat": 45.8840503,
    "lng": 8.5394251,
    "candidateSource": "osm",
    "candidateFoundAt": "2026-02-11",
    "candidateOsmType": "node",
    "candidateOsmId": 4935784743,
    "candidateUrl": "https://www.ristorantelostornello-stresa.it/"
  },
  {
    "id": "osm-node-4936420561-trattoria-la-botte",
    "name": "Trattoria La Botte",
    "lat": 45.8835829,
    "lng": 8.5410547,
    "candidateSource": "osm",
    "candidateFoundAt": "2026-02-11",
    "candidateOsmType": "node",
    "candidateOsmId": 4936420561,
    "candidateUrl": "https://www.trattorialabottestresa.it/",
    "candidatePhone": "+39 0323 30462"
  },
  {
    "id": "osm-node-4973453021-osteria-vittoria",
    "name": "Osteria Vittoria",
    "lat": 46.257718,
    "lng": 8.8402568,
    "candidateSource": "osm",
    "candidateFoundAt": "2026-02-11",
    "candidateOsmType": "node",
    "candidateOsmId": 4973453021,
    "candidateUrl": "https://osteriavittoriaverzasca.ch/",
    "candidatePhone": "+41 91 746 1111",
    "candidateHours": "Mo 17:00-21:00; Tu-Su 12:00-21:00"
  },
  {
    "id": "osm-node-4987772832-ristoranti-il-porticciolo",
    "name": "Ristoranti Il Porticciolo",
    "lat": 45.906593,
    "lng": 8.6127865,
    "candidateSource": "osm",
    "candidateFoundAt": "2026-02-11",
    "candidateOsmType": "node",
    "candidateOsmId": 4987772832,
    "candidateUrl": "https://ilporticciolo.com/ristoranti/",
    "candidatePhone": "+39 0332 667257"
  },
  {
    "id": "osm-node-5150438583-lastressa",
    "name": "Lastressa",
    "lat": 45.8841541,
    "lng": 8.539201,
    "candidateSource": "osm",
    "candidateFoundAt": "2026-02-11",
    "candidateOsmType": "node",
    "candidateOsmId": 5150438583,
    "candidateUrl": "http://www.ristorantelastressa.it",
    "candidatePhone": "+39 0322 7083"
  },
  {
    "id": "osm-node-5165857021-hotel-santanna",
    "name": "Hotel Santanna",
    "lat": 45.929108,
    "lng": 8.5609831,
    "candidateSource": "osm",
    "candidateFoundAt": "2026-02-11",
    "candidateOsmType": "node",
    "candidateOsmId": 5165857021,
    "candidateUrl": "https://hotelsantanna.it/",
    "candidatePhone": "+39 0323 556086"
  },
  {
    "id": "osm-node-5236756007-monte-verit-restaurant",
    "name": "Monte Verità restaurant",
    "lat": 46.1585397,
    "lng": 8.7628978,
    "candidateSource": "osm",
    "candidateFoundAt": "2026-02-11",
    "candidateOsmType": "node",
    "candidateOsmId": 5236756007,
    "candidateUrl": "https://www.monteverita.org/en/hospitality/monte-verita-restaurant",
    "candidatePhone": "+41 91 785 40 40"
  },
  {
    "id": "osm-node-5277788701-grotto-ca-nostra",
    "name": "Grotto Ca' Nostra",
    "lat": 46.1816832,
    "lng": 8.8058247,
    "candidateSource": "osm",
    "candidateFoundAt": "2026-02-11",
    "candidateOsmType": "node",
    "candidateOsmId": 5277788701,
    "candidateUrl": "https://ca-nostra.ch",
    "candidatePhone": "+41 91 743 58 52",
    "candidateHours": "Mo,We-Su 11:30-14:30,18:00-23:00; Tu off"
  },
  {
    "id": "osm-node-5576763222-casa-emilia",
    "name": "Casa Emilia",
    "lat": 46.0076258,
    "lng": 8.9584836,
    "candidateSource": "osm",
    "candidateFoundAt": "2026-02-11",
    "candidateOsmType": "node",
    "candidateOsmId": 5576763222,
    "candidateUrl": "https://www.casaemilialugano.ch",
    "candidatePhone": "+41 91 922 26 26",
    "candidateHours": "Mo-We 07:30-17:00; Th 07:30-21:00; PH off"
  },
  {
    "id": "osm-node-5586940221-osteria-dell-enoteca",
    "name": "Osteria dell Enoteca",
    "lat": 46.168204,
    "lng": 8.7577266,
    "candidateSource": "osm",
    "candidateFoundAt": "2026-02-11",
    "candidateOsmType": "node",
    "candidateOsmId": 5586940221,
    "candidateUrl": "https://www.osteriaenoteca.ch/",
    "candidatePhone": "+41917917817"
  },
  {
    "id": "osm-node-5696905909-al-tulipano-bianco",
    "name": "Al Tulipano Bianco",
    "lat": 46.1706055,
    "lng": 8.7996259,
    "candidateSource": "osm",
    "candidateFoundAt": "2026-02-11",
    "candidateOsmType": "node",
    "candidateOsmId": 5696905909,
    "candidateUrl": "https://altulipanobianco.ch"
  },
  {
    "id": "osm-node-5834921401-autentiko-gusto-napoletano",
    "name": "Autentiko - Gusto Napoletano",
    "lat": 46.0037799,
    "lng": 8.9547911,
    "candidateSource": "osm",
    "candidateFoundAt": "2026-02-11",
    "candidateOsmType": "node",
    "candidateOsmId": 5834921401,
    "candidateUrl": "https://autentiko.it",
    "candidateHours": "Mo-Th 11:30-15:00; Mo-Th 18:30-22:00; Fr-Su 11:30-22:00; Su,PH 11:30-22:00"
  },
  {
    "id": "osm-node-5835931686-ristorante-cinese-lungolago",
    "name": "Ristorante Cinese Lungolago",
    "lat": 46.1793239,
    "lng": 8.8440359,
    "candidateSource": "osm",
    "candidateFoundAt": "2026-02-11",
    "candidateOsmType": "node",
    "candidateOsmId": 5835931686,
    "candidateUrl": "http://cinese.ch"
  },
  {
    "id": "osm-node-5852981285-osteria-all-undici",
    "name": "Osteria all'undici",
    "lat": 46.1883438,
    "lng": 9.0209308,
    "candidateSource": "osm",
    "candidateFoundAt": "2026-02-11",
    "candidateOsmType": "node",
    "candidateOsmId": 5852981285,
    "candidateUrl": "https://allundici.ch/"
  },
  {
    "id": "osm-node-6173322868-tabla",
    "name": "Tabla",
    "lat": 45.9891844,
    "lng": 8.9218069,
    "candidateSource": "osm",
    "candidateFoundAt": "2026-02-11",
    "candidateOsmType": "node",
    "candidateOsmId": 6173322868,
    "candidateUrl": "https://www.tablalugano.ch/",
    "candidatePhone": "+41 91 968 19 00",
    "candidateHours": "Mo-Sa 17:00-25:00, Su off"
  },
  {
    "id": "osm-node-6173322869-circolo-sociale-di-montagnola",
    "name": "Circolo sociale di Montagnola",
    "lat": 45.9892515,
    "lng": 8.9221824,
    "candidateSource": "osm",
    "candidateFoundAt": "2026-02-11",
    "candidateOsmType": "node",
    "candidateOsmId": 6173322869,
    "candidateUrl": "https://www.grottocircolosociale.ch",
    "candidatePhone": "+41919946919",
    "candidateHours": "Mo-Tu 9:00 - 24:00, Th-Su 9:00-24:00, Kitchen 11.30-14.30,18.30-22.30"
  },
  {
    "id": "osm-node-6430566299-lido-2-0",
    "name": "Lido 2.0",
    "lat": 45.9061174,
    "lng": 8.8961712,
    "candidateSource": "osm",
    "candidateFoundAt": "2026-02-11",
    "candidateOsmType": "node",
    "candidateOsmId": 6430566299,
    "candidateUrl": "http://www.lidoduepuntozero.it/",
    "candidatePhone": "+39 0332 916581",
    "candidateHours": "Tu-Su 12:00-15:00,19:00-23:00"
  },
  {
    "id": "osm-node-6432560831-grotto-morchino",
    "name": "Grotto Morchino",
    "lat": 45.985268,
    "lng": 8.9436703,
    "candidateSource": "osm",
    "candidateFoundAt": "2026-02-11",
    "candidateOsmType": "node",
    "candidateOsmId": 6432560831,
    "candidateUrl": "https://grottomorchino.ch",
    "candidatePhone": "+41 91 994 60 44",
    "candidateHours": "Mo-We,Fr-Su 10:30-14:30,18:30-22:30; Th off"
  },
  {
    "id": "osm-node-6475027135-piazza",
    "name": "Piazza",
    "lat": 46.1811434,
    "lng": 8.851225,
    "candidateSource": "osm",
    "candidateFoundAt": "2026-02-11",
    "candidateOsmType": "node",
    "candidateOsmId": 6475027135,
    "candidateUrl": "https://www.ristorantepiazzatenero.ch/",
    "candidatePhone": "+41 91 745 82 26",
    "candidateHours": "Mo-Sa 07:00-23:00"
  },
  {
    "id": "osm-node-6510465713-osteria-del-crimine",
    "name": "Osteria del Crimine",
    "lat": 45.8958114,
    "lng": 8.5263193,
    "candidateSource": "osm",
    "candidateFoundAt": "2026-02-11",
    "candidateOsmType": "node",
    "candidateOsmId": 6510465713,
    "candidateUrl": "https://www.ristoranteisolabella.it/",
    "candidateHours": "Mo-Su 10:00-22:00"
  },
  {
    "id": "osm-node-6533511490-salotto-br",
    "name": "Salotto Brè",
    "lat": 46.0109952,
    "lng": 8.9960091,
    "candidateSource": "osm",
    "candidateFoundAt": "2026-02-11",
    "candidateOsmType": "node",
    "candidateOsmId": 6533511490,
    "candidateUrl": "http://salottobre.ch/",
    "candidatePhone": "+41 91 971 50 00",
    "candidateHours": "We-Su 10:00-21:00; Mo 11:30-17:00"
  },
  {
    "id": "osm-node-6633171255-agua",
    "name": "Agua",
    "lat": 46.0031636,
    "lng": 8.9512896,
    "candidateSource": "osm",
    "candidateFoundAt": "2026-02-11",
    "candidateOsmType": "node",
    "candidateOsmId": 6633171255,
    "candidateUrl": "https://agualugano.ch/",
    "candidatePhone": "+41 91 923 80 80",
    "candidateHours": "Mo-Su 08:00-01:00"
  },
  {
    "id": "osm-node-6666745187-trattur",
    "name": "Tratturì",
    "lat": 46.0009229,
    "lng": 8.7395455,
    "candidateSource": "osm",
    "candidateFoundAt": "2026-02-11",
    "candidateOsmType": "node",
    "candidateOsmId": 6666745187,
    "candidateUrl": "https://mazzardit.it/tratturi/",
    "candidatePhone": "+39 0332 532508",
    "candidateHours": "Su, Tu-Th 10:00-01:00; Fr-Sa 10:00-02:00"
  },
  {
    "id": "osm-node-6671271687-osteria-del-castello",
    "name": "Osteria del Castello",
    "lat": 45.9351823,
    "lng": 8.5728835,
    "candidateSource": "osm",
    "candidateFoundAt": "2026-02-11",
    "candidateOsmType": "node",
    "candidateOsmId": 6671271687,
    "candidateUrl": "http://www.osteriacastello.com/en/home-uk/"
  },
  {
    "id": "osm-node-6687555923-il-portale",
    "name": "Il Portale",
    "lat": 45.9218104,
    "lng": 8.5523727,
    "candidateSource": "osm",
    "candidateFoundAt": "2026-02-11",
    "candidateOsmType": "node",
    "candidateOsmId": 6687555923,
    "candidateUrl": "https://www.ristoranteilportale.it/",
    "candidatePhone": "+39 0323 505486",
    "candidateHours": "Mo-Su 12:00-14:30,19:30-22:30; Tu-We 12:00-14:30 off"
  },
  {
    "id": "osm-node-6903786959-trattoria-gudese",
    "name": "Trattoria Gudese",
    "lat": 46.1749646,
    "lng": 8.9511165,
    "candidateSource": "osm",
    "candidateFoundAt": "2026-02-11",
    "candidateOsmType": "node",
    "candidateOsmId": 6903786959,
    "candidateUrl": "https://www.trattoriagudese.ch"
  },
  {
    "id": "osm-node-6908827207-la-rupe-di-san-zeno",
    "name": "La Rupe di San Zeno",
    "lat": 46.0444557,
    "lng": 8.9268924,
    "candidateSource": "osm",
    "candidateFoundAt": "2026-02-11",
    "candidateOsmType": "node",
    "candidateOsmId": 6908827207,
    "candidateUrl": "https://www.larupedisanzeno.ch",
    "candidatePhone": "+41 91 950 90 10",
    "candidateHours": "Tu-Fr 11:00-14:30,18:00-23:30; Sa-Su 18:00-23:30"
  },
  {
    "id": "osm-node-7088033632-grotto-scalinata",
    "name": "Grotto Scalinata",
    "lat": 46.1812573,
    "lng": 8.8465845,
    "candidateSource": "osm",
    "candidateFoundAt": "2026-02-11",
    "candidateOsmType": "node",
    "candidateOsmId": 7088033632,
    "candidateUrl": "https://www.grotto-scalinata.ch/"
  },
  {
    "id": "osm-node-7090713454-moros",
    "name": "Moros",
    "lat": 45.9574575,
    "lng": 8.919585,
    "candidateSource": "osm",
    "candidateFoundAt": "2026-02-11",
    "candidateOsmType": "node",
    "candidateOsmId": 7090713454,
    "candidateUrl": "https://de-de.facebook.com/MorosBarbengo/"
  },
  {
    "id": "osm-node-7099842029-ristorante-pizzeria-okay",
    "name": "Ristorante Pizzeria Okay",
    "lat": 45.966546,
    "lng": 8.8560185,
    "candidateSource": "osm",
    "candidateFoundAt": "2026-02-11",
    "candidateOsmType": "node",
    "candidateOsmId": 7099842029,
    "candidateUrl": "https://www.ristoranteokay.it/"
  },
  {
    "id": "osm-node-7200751915-ristorante-fiorentina",
    "name": "Ristorante Fiorentina",
    "lat": 46.1695885,
    "lng": 8.7924767,
    "candidateSource": "osm",
    "candidateFoundAt": "2026-02-11",
    "candidateOsmType": "node",
    "candidateOsmId": 7200751915,
    "candidateUrl": "https://ristorantefiorentina.ch"
  },
  {
    "id": "osm-node-7200783384-govinda",
    "name": "Govinda",
    "lat": 46.1690726,
    "lng": 8.7934772,
    "candidateSource": "osm",
    "candidateFoundAt": "2026-02-11",
    "candidateOsmType": "node",
    "candidateOsmId": 7200783384,
    "candidateUrl": "https://www.govinda-locarno.ch",
    "candidatePhone": "+41917523852",
    "candidateHours": "Mo-We 09:00-15:00; Th-Sa 09:00-15:00, 18:30-22:30"
  },
  {
    "id": "osm-node-7288630663-ristorante-cardini",
    "name": "Ristorante Cardini",
    "lat": 45.8880894,
    "lng": 8.5125714,
    "candidateSource": "osm",
    "candidateFoundAt": "2026-02-11",
    "candidateOsmType": "node",
    "candidateOsmId": 7288630663,
    "candidateUrl": "http://ristorantecardini.it",
    "candidatePhone": "+39 349 141 9052"
  },
  {
    "id": "osm-node-7291910543-ristorante-la-cascinetta",
    "name": "Ristorante La Cascinetta",
    "lat": 45.8670037,
    "lng": 8.528075,
    "candidateSource": "osm",
    "candidateFoundAt": "2026-02-11",
    "candidateOsmType": "node",
    "candidateOsmId": 7291910543,
    "candidateUrl": "http://www.cascinetta.it/",
    "candidatePhone": "+39  0323 20780"
  },
  {
    "id": "osm-node-7728314479-osteria-di-bordei",
    "name": "Osteria di Bordei",
    "lat": 46.1483001,
    "lng": 8.6457817,
    "candidateSource": "osm",
    "candidateFoundAt": "2026-02-11",
    "candidateOsmType": "node",
    "candidateOsmId": 7728314479,
    "candidateUrl": "https://www.bordei.ch",
    "candidatePhone": "+41917808005"
  },
  {
    "id": "osm-node-7771273684-hotel-ristorante-miramonti",
    "name": "Hotel Ristorante Miramonti",
    "lat": 45.8810884,
    "lng": 8.4514244,
    "candidateSource": "osm",
    "candidateFoundAt": "2026-02-11",
    "candidateOsmType": "node",
    "candidateOsmId": 7771273684,
    "candidateUrl": "https://www.miramonti-mottarone.it/it/",
    "candidatePhone": "+39 0323 924822"
  },
  {
    "id": "osm-node-7820970103-osteria-trani",
    "name": "Osteria Trani",
    "lat": 46.0051623,
    "lng": 8.9490459,
    "candidateSource": "osm",
    "candidateFoundAt": "2026-02-11",
    "candidateOsmType": "node",
    "candidateOsmId": 7820970103,
    "candidateUrl": "https://www.trani.ch/",
    "candidatePhone": "+41 91 922 05 05",
    "candidateHours": "Mo-Fr 11:45-14:00,18:45-24:00; Sa 18:45-24:00; Su off"
  },
  {
    "id": "osm-node-7950521585-pizzeria-fiore-di-latte",
    "name": "Pizzeria Fiore Di Latte",
    "lat": 45.9292251,
    "lng": 8.4801214,
    "candidateSource": "osm",
    "candidateFoundAt": "2026-02-11",
    "candidateOsmType": "node",
    "candidateOsmId": 7950521585,
    "candidateUrl": "https://www.fioredilatte.it",
    "candidatePhone": "+39032380630"
  },
  {
    "id": "osm-node-8006364695-grotto-la-baita",
    "name": "Grotto La Baita",
    "lat": 46.144556,
    "lng": 8.8620981,
    "candidateSource": "osm",
    "candidateFoundAt": "2026-02-11",
    "candidateOsmType": "node",
    "candidateOsmId": 8006364695,
    "candidateUrl": "https://grottolabaita.ch"
  },
  {
    "id": "osm-node-8072414119-trattoria-gargino",
    "name": "Trattoria Gargino",
    "lat": 46.1277347,
    "lng": 8.5401675,
    "candidateSource": "osm",
    "candidateFoundAt": "2026-02-11",
    "candidateOsmType": "node",
    "candidateOsmId": 8072414119,
    "candidateUrl": "http://www.trattoriagargino.it/",
    "candidatePhone": "+39 324 97257"
  },
  {
    "id": "osm-node-8809050404-ristorante-la-veranda-del-sole",
    "name": "Ristorante La Veranda del Sole",
    "lat": 45.9614931,
    "lng": 8.6805294,
    "candidateSource": "osm",
    "candidateFoundAt": "2026-02-11",
    "candidateOsmType": "node",
    "candidateOsmId": 8809050404,
    "candidateUrl": "https://www.hoteldelsolelagomaggiore.com/",
    "candidatePhone": "+39 0332 547747"
  },
  {
    "id": "osm-node-8874948204-beirut",
    "name": "Beirut",
    "lat": 45.9909647,
    "lng": 8.9469279,
    "candidateSource": "osm",
    "candidateFoundAt": "2026-02-11",
    "candidateOsmType": "node",
    "candidateOsmId": 8874948204,
    "candidateUrl": "https://ristorantebeirut.ch"
  },
  {
    "id": "osm-node-8880027179-osteria-funicolare",
    "name": "Osteria Funicolare",
    "lat": 46.0090597,
    "lng": 8.9864371,
    "candidateSource": "osm",
    "candidateFoundAt": "2026-02-11",
    "candidateOsmType": "node",
    "candidateOsmId": 8880027179,
    "candidateUrl": "https://www.osteriafunicolare.ch",
    "candidatePhone": "+41 91 971 36 33",
    "candidateHours": "Mo-Su 08:00-19:00"
  },
  {
    "id": "osm-node-8882012690-casa-libanese",
    "name": "Casa Libanese البيت اللبناني",
    "lat": 46.0072032,
    "lng": 8.9681441,
    "candidateSource": "osm",
    "candidateFoundAt": "2026-02-11",
    "candidateOsmType": "node",
    "candidateOsmId": 8882012690,
    "candidateUrl": "http://www.casalibanesemenu.byethost31.com/?i=1",
    "candidatePhone": "+41 91 222 90 00",
    "candidateHours": "Tu-Sa 11:00-21:00; Su 12:00-21:00"
  },
  {
    "id": "osm-node-8892208217-ristorante-la-veranda",
    "name": "Ristorante La Veranda",
    "lat": 46.0194909,
    "lng": 8.9573375,
    "candidateSource": "osm",
    "candidateFoundAt": "2026-02-11",
    "candidateOsmType": "node",
    "candidateOsmId": 8892208217,
    "candidateUrl": "https://www.ristorantelaveranda.ch/",
    "candidatePhone": "+41919703964"
  },
  {
    "id": "osm-node-8910404312-fiore-di-pietra",
    "name": "Fiore di pietra",
    "lat": 45.9281164,
    "lng": 9.0186977,
    "candidateSource": "osm",
    "candidateFoundAt": "2026-02-11",
    "candidateOsmType": "node",
    "candidateOsmId": 8910404312,
    "candidateUrl": "https://www.montegeneroso.ch/it/gastronomia-banchetti/ristorante-fiore-di-pietra",
    "candidatePhone": "+41 91 649 77 22",
    "candidateHours": "Tu,Th-Su,PH 11:30-14:30; Mo,We off"
  },
  {
    "id": "osm-node-8910404313-generoso",
    "name": "Generoso",
    "lat": 45.9281452,
    "lng": 9.0187687,
    "candidateSource": "osm",
    "candidateFoundAt": "2026-02-11",
    "candidateOsmType": "node",
    "candidateOsmId": 8910404313,
    "candidateUrl": "https://www.montegeneroso.ch/it/gastronomia-banchetti/self-service-generoso",
    "candidateHours": "Mo-Su,PH 10:00-16:30"
  },
  {
    "id": "osm-node-8919612333-ristorante-la-fortuna",
    "name": "Ristorante La Fortuna",
    "lat": 45.8692997,
    "lng": 8.9744779,
    "candidateSource": "osm",
    "candidateFoundAt": "2026-02-11",
    "candidateOsmType": "node",
    "candidateOsmId": 8919612333,
    "candidateUrl": "http://quadrifogliotombola-dancing.ch/"
  },
  {
    "id": "osm-node-8946804641-locanda-dal-bigatt",
    "name": "Locanda dal Bigatt",
    "lat": 45.9864293,
    "lng": 8.9441218,
    "candidateSource": "osm",
    "candidateFoundAt": "2026-02-11",
    "candidateOsmType": "node",
    "candidateOsmId": 8946804641,
    "candidateUrl": "https://hotelbigatt.com/it",
    "candidatePhone": "+41 91 985 28 82",
    "candidateHours": "We-Mo,12:00-14:30, 18:00-23:00"
  },
  {
    "id": "osm-node-8977157872-cubo",
    "name": "Cubo",
    "lat": 46.00136,
    "lng": 8.7432735,
    "candidateSource": "osm",
    "candidateFoundAt": "2026-02-11",
    "candidateOsmType": "node",
    "candidateOsmId": 8977157872,
    "candidateUrl": "https://cubo-cucina-e-bottega.business.site/",
    "candidatePhone": "+39 366 700 1204"
  },
  {
    "id": "osm-node-8988100996-meta",
    "name": "Meta",
    "lat": 45.9929101,
    "lng": 8.9462602,
    "candidateSource": "osm",
    "candidateFoundAt": "2026-02-11",
    "candidateOsmType": "node",
    "candidateOsmId": 8988100996,
    "candidateUrl": "https://metaworld.ch/",
    "candidatePhone": "+41 91 994 68 68",
    "candidateHours": "Mo-Fr 12:00-15:00; Su 00:00-24:00"
  },
  {
    "id": "osm-node-9025836736-blu-restaurant-lounge",
    "name": "BLU Restaurant & Lounge",
    "lat": 46.1621814,
    "lng": 8.8033825,
    "candidateSource": "osm",
    "candidateFoundAt": "2026-02-11",
    "candidateOsmType": "node",
    "candidateOsmId": 9025836736,
    "candidateUrl": "https://www.blu-locarno.ch",
    "candidatePhone": "+41917590090"
  },
  {
    "id": "osm-node-9032581717-ristorante-bar-ranch-augusto",
    "name": "Ristorante Bar Ranch Augusto",
    "lat": 45.9768742,
    "lng": 9.027527,
    "candidateSource": "osm",
    "candidateFoundAt": "2026-02-11",
    "candidateOsmType": "node",
    "candidateOsmId": 9032581717,
    "candidateUrl": "https://www.facebook.com/ranchaugusto.dabosi",
    "candidatePhone": "+39031841369",
    "candidateHours": "Th-Su 12:00-15:00 19:00-22:00"
  },
  {
    "id": "osm-node-9056803317-locanda-81",
    "name": "Locanda '81",
    "lat": 45.9212637,
    "lng": 8.5534296,
    "candidateSource": "osm",
    "candidateFoundAt": "2026-02-11",
    "candidateOsmType": "node",
    "candidateOsmId": 9056803317,
    "candidateUrl": "https://locanda81.business.site/",
    "candidatePhone": "+390323361528"
  },
  {
    "id": "osm-node-9067056917-la-casera",
    "name": "La Casera",
    "lat": 45.9357841,
    "lng": 8.5739591,
    "candidateSource": "osm",
    "candidateFoundAt": "2026-02-11",
    "candidateOsmType": "node",
    "candidateOsmId": 9067056917,
    "candidateUrl": "https://www.formaggidieros.it",
    "candidatePhone": "+39 0323 581123",
    "candidateHours": "Mo,Tu,Th-Sa 09:00-22:00; We 09:00-19:00; Su off"
  },
  {
    "id": "osm-node-9113069630-grotto-san-michele",
    "name": "Grotto san Michele",
    "lat": 46.1923512,
    "lng": 9.0222049,
    "candidateSource": "osm",
    "candidateFoundAt": "2026-02-11",
    "candidateOsmType": "node",
    "candidateOsmId": 9113069630,
    "candidateUrl": "https://castelgrande.ch/?page_id=61&lang=it",
    "candidatePhone": "+41 91 814 87 81",
    "candidateHours": "Tu-Sa 10:30-24:00, Sa 10:30-17:00"
  },
  {
    "id": "osm-node-9144822154-ristorante-al-braciere",
    "name": "Ristorante Al Braciere",
    "lat": 46.1500923,
    "lng": 8.733826,
    "candidateSource": "osm",
    "candidateFoundAt": "2026-02-11",
    "candidateOsmType": "node",
    "candidateOsmId": 9144822154,
    "candidateUrl": "https://www.ph-elisabetta.ch/restaurant_¬_terrasse_de",
    "candidatePhone": "+41 91 791 93 96"
  },
  {
    "id": "osm-node-9153014798-luini6",
    "name": "Luini6",
    "lat": 45.9993553,
    "lng": 8.9481663,
    "candidateSource": "osm",
    "candidateFoundAt": "2026-02-11",
    "candidateOsmType": "node",
    "candidateOsmId": 9153014798,
    "candidateUrl": "https://luini6.ch/",
    "candidatePhone": "+41 91 208 31 07"
  },
  {
    "id": "osm-node-9208472645-grotto-flora",
    "name": "Grotto Flora",
    "lat": 45.9737897,
    "lng": 8.9145233,
    "candidateSource": "osm",
    "candidateFoundAt": "2026-02-11",
    "candidateOsmType": "node",
    "candidateOsmId": 9208472645,
    "candidateUrl": "https://www.grottoflora.com/",
    "candidatePhone": "+41 91 994 15 67"
  },
  {
    "id": "osm-node-9269182086-al-grottino",
    "name": "Al Grottino",
    "lat": 46.135477,
    "lng": 8.8277155,
    "candidateSource": "osm",
    "candidateFoundAt": "2026-02-11",
    "candidateOsmType": "node",
    "candidateOsmId": 9269182086,
    "candidateUrl": "https://grottino-piazzogna.ch"
  },
  {
    "id": "osm-node-9339748020-amalo-pinsa-e-gelato",
    "name": "AMALO pinsa e gelato",
    "lat": 46.0109159,
    "lng": 8.9554293,
    "candidateSource": "osm",
    "candidateFoundAt": "2026-02-11",
    "candidateOsmType": "node",
    "candidateOsmId": 9339748020,
    "candidateUrl": "https://www.amalo.ch/https://www.amalo.ch/"
  },
  {
    "id": "osm-node-9741411237-crotto-san-filippo",
    "name": "Crotto San Filippo",
    "lat": 45.9298317,
    "lng": 8.862464,
    "candidateSource": "osm",
    "candidateFoundAt": "2026-02-11",
    "candidateOsmType": "node",
    "candidateOsmId": 9741411237,
    "candidateUrl": "https://www.crottosanfilippo.it/",
    "candidatePhone": "+390332727859"
  },
  {
    "id": "osm-node-9798477487-ristorante-sunshine",
    "name": "Ristorante Sunshine",
    "lat": 45.9298804,
    "lng": 8.5683655,
    "candidateSource": "osm",
    "candidateFoundAt": "2026-02-11",
    "candidateOsmType": "node",
    "candidateOsmId": 9798477487,
    "candidateUrl": "https://www.sunshineristorante.com/",
    "candidatePhone": "+39 0323 198 0725",
    "candidateHours": "Mo,We-Su 12:00-14:30,19:00-23:00"
  },
  {
    "id": "osm-node-9862600455-ascona-square-garden",
    "name": "Ascona Square Garden",
    "lat": 46.1559598,
    "lng": 8.7674977,
    "candidateSource": "osm",
    "candidateFoundAt": "2026-02-11",
    "candidateOsmType": "node",
    "candidateOsmId": 9862600455,
    "candidateUrl": "https://asconasquaregarden.com"
  },
  {
    "id": "osm-node-9889728349-ristorante-ii-barone-ascona",
    "name": "Ristorante II Barone Ascona",
    "lat": 46.159275,
    "lng": 8.7726295,
    "candidateSource": "osm",
    "candidateFoundAt": "2026-02-11",
    "candidateOsmType": "node",
    "candidateOsmId": 9889728349,
    "candidateUrl": "https://www.facebook.com/ristoranteilbaroneascona/",
    "candidatePhone": "+41 91 780 51 66"
  },
  {
    "id": "osm-node-9894634490-kin-d-thai-take-away",
    "name": "Kin-D Thai Take Away",
    "lat": 46.0058521,
    "lng": 8.9447382,
    "candidateSource": "osm",
    "candidateFoundAt": "2026-02-11",
    "candidateOsmType": "node",
    "candidateOsmId": 9894634490,
    "candidateUrl": "https://info@kindthaitakeaway.ch",
    "candidatePhone": "+41912294505"
  },
  {
    "id": "osm-node-9894664589-thai-orchid-resaurant-bar",
    "name": "Thai Orchid Resaurant & Bar",
    "lat": 46.0068046,
    "lng": 8.9569109,
    "candidateSource": "osm",
    "candidateFoundAt": "2026-02-11",
    "candidateOsmType": "node",
    "candidateOsmId": 9894664589,
    "candidateUrl": "https://www.thaiorchidlugano.ch",
    "candidatePhone": "+41919233766"
  },
  {
    "id": "osm-node-9903930041-osteria-cantinone-elvezia",
    "name": "Osteria Cantinone Elvezia",
    "lat": 46.1481712,
    "lng": 8.8574058,
    "candidateSource": "osm",
    "candidateFoundAt": "2026-02-11",
    "candidateOsmType": "node",
    "candidateOsmId": 9903930041,
    "candidateUrl": "https://osteria-cantinone-elvezia.business.site/"
  },
  {
    "id": "osm-node-9903949990-osteria-pizzeria",
    "name": "Osteria Pizzeria",
    "lat": 46.1506936,
    "lng": 8.8939429,
    "candidateSource": "osm",
    "candidateFoundAt": "2026-02-11",
    "candidateOsmType": "node",
    "candidateOsmId": 9903949990,
    "candidateUrl": "https://osteria-pizzeria-dal-paes-quartino.business.site"
  },
  {
    "id": "osm-node-9917764551-la-piratera",
    "name": "La Piratera",
    "lat": 45.9108194,
    "lng": 8.5362029,
    "candidateSource": "osm",
    "candidateFoundAt": "2026-02-11",
    "candidateOsmType": "node",
    "candidateOsmId": 9917764551,
    "candidateUrl": "https://www.isoleborromee.it/experience/ristorante-la-piratera/"
  },
  {
    "id": "osm-node-10011069455-gabbani-enoteca",
    "name": "Gabbani Enoteca",
    "lat": 46.0042728,
    "lng": 8.9502477,
    "candidateSource": "osm",
    "candidateFoundAt": "2026-02-11",
    "candidateOsmType": "node",
    "candidateOsmId": 10011069455,
    "candidateUrl": "https://www.gabbani.com/home/",
    "candidatePhone": "+41 91 911 30 80"
  },
  {
    "id": "osm-node-10025376768-il-centro",
    "name": "Il Centro",
    "lat": 45.9283747,
    "lng": 8.5612778,
    "candidateSource": "osm",
    "candidateFoundAt": "2026-02-11",
    "candidateOsmType": "node",
    "candidateOsmId": 10025376768,
    "candidateUrl": "https://hotelsantanna.it/ristorante/",
    "candidatePhone": "+39 0323 556086"
  },
  {
    "id": "osm-node-10050958859-ristorante-sociale-gattabuia",
    "name": "Ristorante sociale Gattabuia",
    "lat": 45.9238221,
    "lng": 8.5525035,
    "candidateSource": "osm",
    "candidateFoundAt": "2026-02-11",
    "candidateOsmType": "node",
    "candidateOsmId": 10050958859,
    "candidateUrl": "https://gattabuia.org/",
    "candidatePhone": "+393466129920"
  },
  {
    "id": "osm-node-10079345845-la-latteria",
    "name": "La Latteria",
    "lat": 45.9365692,
    "lng": 8.5754632,
    "candidateSource": "osm",
    "candidateFoundAt": "2026-02-11",
    "candidateOsmType": "node",
    "candidateOsmId": 10079345845,
    "candidateUrl": "http://www.ristorantelalatteria.it/",
    "candidatePhone": "+39 0323 53447"
  },
  {
    "id": "osm-node-10217022957-level-sushi",
    "name": "Level Sushi",
    "lat": 46.0048227,
    "lng": 8.9502072,
    "candidateSource": "osm",
    "candidateFoundAt": "2026-02-11",
    "candidateOsmType": "node",
    "candidateOsmId": 10217022957,
    "candidateUrl": "https://www.facebook.com/levelsushilugano/",
    "candidatePhone": "+41919220808",
    "candidateHours": "Tu-Su 11:45-22:30"
  },
  {
    "id": "osm-node-10296489494-caff-delle-rose",
    "name": "Caffè delle Rose",
    "lat": 45.9226303,
    "lng": 8.5512765,
    "candidateSource": "osm",
    "candidateFoundAt": "2026-02-11",
    "candidateOsmType": "node",
    "candidateOsmId": 10296489494,
    "candidateUrl": "https://www.caffedellerosebistrot.it"
  },
  {
    "id": "osm-node-10296600341-isolino",
    "name": "Isolino",
    "lat": 46.165861,
    "lng": 8.7981169,
    "candidateSource": "osm",
    "candidateFoundAt": "2026-02-11",
    "candidateOsmType": "node",
    "candidateOsmId": 10296600341,
    "candidateUrl": "https://www.isolino.ch/"
  },
  {
    "id": "osm-node-10587562887-tiffany-villa-porta",
    "name": "Tiffany Villa Porta",
    "lat": 46.0256467,
    "lng": 8.7504142,
    "candidateSource": "osm",
    "candidateFoundAt": "2026-02-11",
    "candidateOsmType": "node",
    "candidateOsmId": 10587562887,
    "candidateUrl": "https://www.villaporta.style/en/tiffany-restaurant/",
    "candidatePhone": "+39 0332 510855",
    "candidateHours": "Mo-Su 12:00-22:00"
  },
  {
    "id": "osm-node-10596226064-il-canap",
    "name": "Il Canapé",
    "lat": 46.0043375,
    "lng": 8.9516867,
    "candidateSource": "osm",
    "candidateFoundAt": "2026-02-11",
    "candidateOsmType": "node",
    "candidateOsmId": 10596226064,
    "candidateUrl": "https://www.canapelugano.ch/",
    "candidatePhone": "+41 91 225 60 00",
    "candidateHours": "Mo-Sa 07:00-20:00"
  },