[
  {
    "id": "osm-node-367028639-ristorante-seven-lugano",
    "name": "Ristorante Seven Lugano",
    "lat": 46.0039026,
    "lng": 8.9551141,
    "candidateSource": "osm",
    "candidateFoundAt": "2026-02-17",
    "candidateOsmType": "node",
    "candidateOsmId": 367028639,
    "candidateUrl": "https://www.seven.ch/restaurants/seven-lugano-restaurant",
    "candidatePhone": "+41 912 90 77 77",
    "candidateHours": "Mo-Su 12:00-15:00,19:30-01:00",
    "candidateUrlKind": "web"
  },
  {
    "id": "osm-node-663870157-porto-ronco-beach-club",
    "name": "Porto Ronco Beach Club",
    "lat": 46.1332318,
    "lng": 8.719419,
    "candidateSource": "osm",
    "candidateFoundAt": "2026-02-17",
    "candidateOsmType": "node",
    "candidateOsmId": 663870157,
    "candidateUrl": "https://portoroncobeach.ch/",
    "candidateUrlKind": "web"
  },
  {
    "id": "osm-node-664833749-grotto-baldoria",
    "name": "Grotto Baldoria",
    "lat": 46.1542843,
    "lng": 8.7695385,
    "candidateSource": "osm",
    "candidateFoundAt": "2026-02-17",
    "candidateOsmType": "node",
    "candidateOsmId": 664833749,
    "candidateUrl": "https://www.grottobaldoria.ch/",
    "candidateHours": "Mo-Su 12:00-14:00, 18:00-22:00",
    "candidateUrlKind": "web"
  },
  {
    "id": "osm-node-664906634-sensi",
    "name": "Sensi",
    "lat": 46.1716501,
    "lng": 8.8017482,
    "candidateSource": "osm",
    "candidateFoundAt": "2026-02-17",
    "candidateOsmType": "node",
    "candidateOsmId": 664906634,
    "candidateUrl": "https://www.ristoranti-ff.ch/it/ristorante-sensi-muralto",
    "candidatePhone": "+41 91 743 17 17",
    "candidateUrlKind": "web"
  },
  {
    "id": "osm-node-798528549-100-cento",
    "name": "100 ~ Cento",
    "lat": 46.1486402,
    "lng": 8.8617343,
    "candidateSource": "osm",
    "candidateFoundAt": "2026-02-17",
    "candidateOsmType": "node",
    "candidateOsmId": 798528549,
    "candidateUrl": "https://ristorante100.ch/",
    "candidatePhone": "+41 91 795 12 12",
    "candidateHours": "Mo-Fr 06:00-23:00; Sa-Su 07:00-23:00",
    "candidateUrlKind": "web"
  },
  {
    "id": "osm-node-806521348-seven",
    "name": "Seven",
    "lat": 46.1548077,
    "lng": 8.7662785,
    "candidateSource": "osm",
    "candidateFoundAt": "2026-02-17",
    "candidateOsmType": "node",
    "candidateOsmId": 806521348,
    "candidateUrl": "https://seven.ch/",
    "candidateUrlKind": "web"
  },
  {
    "id": "osm-node-832079499-al-torchio",
    "name": "Al Torchio",
    "lat": 46.1718306,
    "lng": 8.8028905,
    "candidateSource": "osm",
    "candidateFoundAt": "2026-02-17",
    "candidateOsmType": "node",
    "candidateOsmId": 832079499,
    "candidateUrl": "https://www.altorchio.ch/",
    "candidatePhone": "+41 91 743 43 77",
    "candidateUrlKind": "web"
  },
  {
    "id": "osm-node-892455573-seven-asia",
    "name": "Seven Asia",
    "lat": 46.1558992,
    "lng": 8.7676928,
    "candidateSource": "osm",
    "candidateFoundAt": "2026-02-17",
    "candidateOsmType": "node",
    "candidateOsmId": 892455573,
    "candidateUrl": "https://seven.ch",
    "candidatePhone": "+41 91 786 96 76",
    "candidateUrlKind": "web"
  },
  {
    "id": "osm-node-1264080929-europa",
    "name": "Europa",
    "lat": 46.0218418,
    "lng": 8.6855383,
    "candidateSource": "osm",
    "candidateFoundAt": "2026-02-17",
    "candidateOsmType": "node",
    "candidateOsmId": 1264080929,
    "candidateUrl": "https://www.europa-ristorante.com/de/",
    "candidatePhone": "+39 0323 788292",
    "candidateHours": "10:00-23:00",
    "candidateUrlKind": "web"
  },
  {
    "id": "osm-node-1264080949-park-hotel-italia",
    "name": "Park Hotel Italia",
    "lat": 46.0205158,
    "lng": 8.6840255,
    "candidateSource": "osm",
    "candidateFoundAt": "2026-02-17",
    "candidateOsmType": "node",
    "candidateOsmId": 1264080949,
    "candidateUrl": "https://www.parkhotelitalia.com",
    "candidatePhone": "+39 0323 788488",
    "candidateUrlKind": "web"
  },
  {
    "id": "osm-node-1264080952-magnolia",
    "name": "Magnolia",
    "lat": 46.0193705,
    "lng": 8.6824402,
    "candidateSource": "osm",
    "candidateFoundAt": "2026-02-17",
    "candidateOsmType": "node",
    "candidateOsmId": 1264080952,
    "candidateUrl": "https://www.ristorantemagnolia.it/",
    "candidatePhone": "+39 323 788066",
    "candidateUrlKind": "web"
  },
  {
    "id": "osm-node-1264080955-cannero",
    "name": "Cannero",
    "lat": 46.022043,
    "lng": 8.6856777,
    "candidateSource": "osm",
    "candidateFoundAt": "2026-02-17",
    "candidateOsmType": "node",
    "candidateOsmId": 1264080955,
    "candidateUrl": "https://www.hotelcannero.com/",
    "candidatePhone": "+39 0323 788046",
    "candidateUrlKind": "web"
  },
  {
    "id": "osm-node-1807078778-lago",
    "name": "Lago",
    "lat": 45.991458,
    "lng": 8.6489035,
    "candidateSource": "osm",
    "candidateFoundAt": "2026-02-17",
    "candidateOsmType": "node",
    "candidateOsmId": 1807078778,
    "candidateUrl": "https://ristorantepizzerialago.it",
    "candidatePhone": "+393883619935",
    "candidateHours": "Mo-Su 12:00-14:30,18:30-23:00",
    "candidateUrlKind": "web"
  },
  {
    "id": "osm-node-1859270971-l-idrovolante-caf",
    "name": "L'idrovolante Café",
    "lat": 45.8906535,
    "lng": 8.5244988,
    "candidateSource": "osm",
    "candidateFoundAt": "2026-02-17",
    "candidateOsmType": "node",
    "candidateOsmId": 1859270971,
    "candidatePhone": "+39 0323 934475",
    "candidateUrl": ""
  },
  {
    "id": "osm-node-1869124525-laguna-blu",
    "name": "Laguna Blu",
    "lat": 45.8812453,
    "lng": 8.5995179,
    "candidateSource": "osm",
    "candidateFoundAt": "2026-02-17",
    "candidateOsmType": "node",
    "candidateOsmId": 1869124525,
    "candidateUrl": "https://www.bistrotlagunablu.it/",
    "candidatePhone": "+39 332 647545",
    "candidateHours": "We-Mo 09:00-22:00",
    "candidateUrlKind": "web"
  },
  {
    "id": "osm-node-1893978349-bistrot-imbarcadero",
    "name": "Bistrot Imbarcadero",
    "lat": 45.9624007,
    "lng": 8.6805364,
    "candidateSource": "osm",
    "candidateFoundAt": "2026-02-17",
    "candidateOsmType": "node",
    "candidateOsmId": 1893978349,
    "candidateUrl": "https://bistrotimbarcadero.it/",
    "candidatePhone": "+39 0332 157 3849",
    "candidateUrlKind": "web"
  },
  {
    "id": "osm-node-2178946419-vistaqua",
    "name": "Vistaqua",
    "lat": 45.9293732,
    "lng": 8.4810277,
    "candidateSource": "osm",
    "candidateFoundAt": "2026-02-17",
    "candidateOsmType": "node",
    "candidateOsmId": 2178946419,
    "candidatePhone": "+39 0323 28568"
  },
  {
    "id": "osm-node-2288142607-pane-e-zucchero",
    "name": "Pane e Zucchero",
    "lat": 46.0061878,
    "lng": 8.9655999,
    "candidateSource": "osm",
    "candidateFoundAt": "2026-02-17",
    "candidateOsmType": "node",
    "candidateOsmId": 2288142607,
    "candidateUrl": "https://spaghettigastrogroup.com/home/pane-e-zucchero",
    "candidatePhone": "+41 91 9701000",
    "candidateHours": "Mo-Th 07:00-24:00, Fr 07:00-01:00, Sa 15:30-01:00, Su off",
    "candidateUrlKind": "web"
  },
  {
    "id": "osm-node-2299811432-la-lanterna",
    "name": "La Lanterna",
    "lat": 45.9298175,
    "lng": 8.5418125,
    "candidateSource": "osm",
    "candidateFoundAt": "2026-02-17",
    "candidateOsmType": "node",
    "candidateOsmId": 2299811432,
    "candidatePhone": "+39 0323 506070"
  },
  {
    "id": "osm-node-2299811474-la-tentazione",
    "name": "La Tentazione",
    "lat": 45.9213259,
    "lng": 8.5529162,
    "candidateSource": "osm",
    "candidateFoundAt": "2026-02-17",
    "candidateOsmType": "node",
    "candidateOsmId": 2299811474,
    "candidateUrl": "https://www.hotelnovara.com/ristorante/",
    "candidateUrlKind": "web"
  },
  {
    "id": "osm-node-2299811539-osteria-antica-il-monte-rosso",
    "name": "Osteria Antica Il Monte Rosso",
    "lat": 45.9311735,
    "lng": 8.5400885,
    "candidateSource": "osm",
    "candidateFoundAt": "2026-02-17",
    "candidateOsmType": "node",
    "candidateOsmId": 2299811539,
    "candidateUrl": "https://www.osteriamonterosso.com/",
    "candidatePhone": "+39 0323 506056",
    "candidateUrlKind": "web"
  },
  {
    "id": "osm-node-2446125421-dai-monelli",
    "name": "Dai Monelli",
    "lat": 46.0041586,
    "lng": 8.7433686,
    "candidateSource": "osm",
    "candidateFoundAt": "2026-02-17",
    "candidateOsmType": "node",
    "candidateOsmId": 2446125421,
    "candidatePhone": "+39 329 3988055",
    "candidateUrl": ""
  },
  {
    "id": "osm-node-2446201010-ristorante-duescale",
    "name": "Ristorante Duescale",
    "lat": 46.0034199,
    "lng": 8.7431534,
    "candidateSource": "osm",
    "candidateFoundAt": "2026-02-17",
    "candidateOsmType": "node",
    "candidateOsmId": 2446201010,
    "candidatePhone": "+39 0332 158 5870",
    "candidateUrl": ""
  },
  {
    "id": "osm-node-2495227338-miralago",
    "name": "Miralago",
    "lat": 46.0243511,
    "lng": 8.751761,
    "candidateSource": "osm",
    "candidateFoundAt": "2026-02-17",
    "candidateOsmType": "node",
    "candidateOsmId": 2495227338,
    "candidatePhone": "+39 332532140",
    "candidateHours": "Mo-Su 18:30-22:00"
  },
  {
    "id": "osm-node-2934629304-pizza-pasta-e-basta",
    "name": "Pizza pasta e basta",
    "lat": 45.9467633,
    "lng": 8.661473,
    "candidateSource": "osm",
    "candidateFoundAt": "2026-02-17",
    "candidateOsmType": "node",
    "candidateOsmId": 2934629304,
    "candidatePhone": "+39 337 105 7903",
    "candidateHours": "Mo-Su 12:00-24:00",
    "candidateUrl": ""
  },
  {
    "id": "osm-node-2937984344-osteria-la-riva",
    "name": "Osteria La Riva",
    "lat": 46.1734125,
    "lng": 8.8193074,
    "candidateSource": "osm",
    "candidateFoundAt": "2026-02-17",
    "candidateOsmType": "node",
    "candidateOsmId": 2937984344,
    "candidatePhone": "+41917432093",
    "candidateUrl": ""
  },
  {
    "id": "osm-node-3106072685-ristorante-l-approdo",
    "name": "Ristorante L'Approdo",
    "lat": 46.1781849,
    "lng": 8.8411048,
    "candidateSource": "osm",
    "candidateFoundAt": "2026-02-17",
    "candidateOsmType": "node",
    "candidateOsmId": 3106072685,
    "candidateUrl": "https://www.lapprodo.ch/",
    "candidateUrlKind": "web"
  },
  {
    "id": "osm-node-3293054568-ristorante-svizzero",
    "name": "Ristorante Svizzero",
    "lat": 45.9043598,
    "lng": 8.9793763,
    "candidateSource": "osm",
    "candidateFoundAt": "2026-02-17",
    "candidateOsmType": "node",
    "candidateOsmId": 3293054568,
    "candidateUrl": "https://www.albergoristorantesvizzero.com/",
    "candidatePhone": "+41 91 648 19 75",
    "candidateUrlKind": "web"
  },
  {
    "id": "osm-node-3524352038-ristorante-pizzeria-san-giorgio",
    "name": "Ristorante Pizzeria San Giorgio",
    "lat": 45.9218656,
    "lng": 8.9297439,
    "candidateSource": "osm",
    "candidateFoundAt": "2026-02-17",
    "candidateOsmType": "node",
    "candidateOsmId": 3524352038,
    "candidateUrl": "https://www.chaletsangiorgio.ch/",
    "candidateUrlKind": "web"
  },
  {
    "id": "osm-node-3627591053-arancioamaro",
    "name": "Arancioamaro",
    "lat": 46.0198761,
    "lng": 8.6836346,
    "candidateSource": "osm",
    "candidateFoundAt": "2026-02-17",
    "candidateOsmType": "node",
    "candidateOsmId": 3627591053,
    "candidateUrl": "https://www.arancioamaro.it/",
    "candidatePhone": "+39 339 8318937",
    "candidateUrlKind": "web"
  },
  {
    "id": "osm-node-3660525257-ristorante-al-gabbiano",
    "name": "Ristorante al Gabbiano",
    "lat": 46.1531996,
    "lng": 8.7703511,
    "candidateSource": "osm",
    "candidateFoundAt": "2026-02-17",
    "candidateOsmType": "node",
    "candidateOsmId": 3660525257,
    "candidateUrl": "https://www.ristorantealgabbiano.ch",
    "candidateUrlKind": "web"
  },
  {
    "id": "osm-node-3716878601-dam-a-traa",
    "name": "Dam A Traa",
    "lat": 45.9306338,
    "lng": 8.5408745,
    "candidateSource": "osm",
    "candidateFoundAt": "2026-02-17",
    "candidateOsmType": "node",
    "candidateOsmId": 3716878601,
    "candidateUrl": "https://damatraa.it",
    "candidatePhone": "+39 0323 557152",
    "candidateHours": "Tu-Su 11:00-15:00,18:00-26:00",
    "candidateUrlKind": "web"
  },
  {
    "id": "osm-node-3725482746-amy-sushi",
    "name": "Amy Sushi",
    "lat": 45.9095745,
    "lng": 8.6197353,
    "candidateSource": "osm",
    "candidateFoundAt": "2026-02-17",
    "candidateOsmType": "node",
    "candidateOsmId": 3725482746,
    "candidatePhone": "+39 0332 628041",
    "candidateHours": "Mo,We-Su 12:00-15:00,19:00-23:30; Tu off",
    "candidateUrl": ""
  },
  {
    "id": "osm-node-4177090216-calianna",
    "name": "Calianna",
    "lat": 45.9116993,
    "lng": 8.6185761,
    "candidateSource": "osm",
    "candidateFoundAt": "2026-02-17",
    "candidateOsmType": "node",
    "candidateOsmId": 4177090216,
    "candidatePhone": "+39 0332 667315"
  },
  {
    "id": "osm-node-4213596926-l-imbuto",
    "name": "l'imbuto",
    "lat": 46.0609338,
    "lng": 8.7004154,
    "candidateSource": "osm",
    "candidateFoundAt": "2026-02-17",
    "candidateOsmType": "node",
    "candidateOsmId": 4213596926,
    "candidateUrl": "https://www.ristorantelimbuto.it",
    "candidatePhone": "+39 0323 70026",
    "candidateUrlKind": "web"
  },
  {
    "id": "osm-node-4447882190-taverna-concordia",
    "name": "Taverna Concordia",
    "lat": 45.9112439,
    "lng": 8.6183073,
    "candidateSource": "osm",
    "candidateFoundAt": "2026-02-17",
    "candidateOsmType": "node",
    "candidateOsmId": 4447882190,
    "candidateUrl": "https://concordialaveno.it/",
    "candidatePhone": "+39 0332 666320",
    "candidateHours": "Sa 11:00-15:30,17:00-01:00; Su 11:00-16:00,17:30-22:30; We-Th 17:00-24:00; Fr 17:00-01:00; Mo-Tu closed; PH closed",
    "candidateUrlKind": "web"
  },
  {
    "id": "osm-node-4485648844-il-burchiello",
    "name": "Il Burchiello",
    "lat": 45.9119115,
    "lng": 8.6175076,
    "candidateSource": "osm",
    "candidateFoundAt": "2026-02-17",
    "candidateOsmType": "node",
    "candidateOsmId": 4485648844,
    "candidateUrl": "https://ristoranteilburchiello.eatbu.com",
    "candidatePhone": "+39 0332 316390",
    "candidateHours": "Mo-Su 11:00-15:30,18:00-23:30",
    "candidateUrlKind": "web"
  },
  {
    "id": "osm-node-4485648845-kopi-club",
    "name": "Kopi Club",
    "lat": 45.9116436,
    "lng": 8.6176867,
    "candidateSource": "osm",
    "candidateFoundAt": "2026-02-17",
    "candidateOsmType": "node",
    "candidateOsmId": 4485648845,
    "candidateUrl": "https://www.theoldkopiclub.com/",
    "candidatePhone": "+39 0332 669776",
    "candidateHours": "Mo-Tu,Th-Su 10:00-22:30; We 09:00-22:30; PH closed",
    "candidateUrlKind": "web"
  },
  {
    "id": "osm-node-4760805623-breva",
    "name": "Breva",
    "lat": 46.006052,
    "lng": 8.966219,
    "candidateSource": "osm",
    "candidateFoundAt": "2026-02-17",
    "candidateOsmType": "node",
    "candidateOsmId": 4760805623,
    "candidateUrl": "https://pizzeriabreva.ch/",
    "candidatePhone": "+41 91 976 07 07",
    "candidateHours": "Tu-Th 07:00-00:00; Fr-Sa 08:00-01:00; Su 08:00-00:00",
    "candidateUrlKind": "web"
  },
  {
    "id": "osm-node-4761601722-come-a-casa",
    "name": "Come a Casa",
    "lat": 45.9104782,
    "lng": 8.6186941,
    "candidateSource": "osm",
    "candidateFoundAt": "2026-02-17",
    "candidateOsmType": "node",
    "candidateOsmId": 4761601722,
    "candidatePhone": "+39 0332 666001",
    "candidateHours": "Tu-Th,Su 12:00-14:00,19:00-21:30+; Fr-Sa 12:00-14:00,19:00-22:00+; Mo closed; PH closed",
    "candidateUrl": ""
  },
  {
    "id": "osm-node-4795307627-la-nuova-sella-d-oro",
    "name": "La Nuova Sella d'Oro",
    "lat": 45.9535859,
    "lng": 8.8761943,
    "candidateSource": "osm",
    "candidateFoundAt": "2026-02-17",
    "candidateOsmType": "node",
    "candidateOsmId": 4795307627,
    "candidatePhone": "+39 0332 523450",
    "candidateUrl": ""
  },
  {
    "id": "osm-node-4935784743-lo-stornello",
    "name": "Lo Stornello",
    "lat": 45.8840503,
    "lng": 8.5394251,
    "candidateSource": "osm",
    "candidateFoundAt": "2026-02-17",
    "candidateOsmType": "node",
    "candidateOsmId": 4935784743,
    "candidateUrl": "https://www.ristorantelostornello-stresa.it/",
    "candidateUrlKind": "web"
  },
  {
    "id": "osm-node-4936420561-trattoria-la-botte",
    "name": "Trattoria La Botte",
    "lat": 45.8835829,
    "lng": 8.5410547,
    "candidateSource": "osm",
    "candidateFoundAt": "2026-02-17",
    "candidateOsmType": "node",
    "candidateOsmId": 4936420561,
    "candidateUrl": "https://www.trattorialabottestresa.it/",
    "candidatePhone": "+39 0323 30462",
    "candidateUrlKind": "web"
  },
  {
    "id": "osm-node-4959781127-hostaria-del-golfo",
    "name": "Hostaria del Golfo",
    "lat": 45.9110797,
    "lng": 8.6181222,
    "candidateSource": "osm",
    "candidateFoundAt": "2026-02-17",
    "candidateOsmType": "node",
    "candidateOsmId": 4959781127,
    "candidatePhone": "+39 0332 666975",
    "candidateUrl": ""
  },
  {
    "id": "osm-node-5155823121-osteria-della-luna-piena",
    "name": "Osteria della Luna Piena",
    "lat": 45.9352782,
    "lng": 8.573349,
    "candidateSource": "osm",
    "candidateFoundAt": "2026-02-17",
    "candidateOsmType": "node",
    "candidateOsmId": 5155823121,
    "candidatePhone": "+39 0323 404145",
    "candidateUrl": ""
  },
  {
    "id": "osm-node-5834921401-autentiko-gusto-napoletano",
    "name": "Autentiko - Gusto Napoletano",
    "lat": 46.0037799,
    "lng": 8.9547911,
    "candidateSource": "osm",
    "candidateFoundAt": "2026-02-17",
    "candidateOsmType": "node",
    "candidateOsmId": 5834921401,
    "candidateUrl": "https://autentiko.it",
    "candidateHours": "Mo-Th 11:30-15:00; Mo-Th 18:30-22:00; Fr-Su 11:30-22:00; Su,PH 11:30-22:00",
    "candidateUrlKind": "web"
  },
  {
    "id": "osm-node-6137632810-skipper-kebab-pizza-d-asporto",
    "name": "Skipper kebab & pizza d'asporto",
    "lat": 45.92216,
    "lng": 8.5534316,
    "candidateSource": "osm",
    "candidateFoundAt": "2026-02-17",
    "candidateOsmType": "node",
    "candidateOsmId": 6137632810,
    "candidatePhone": "+39 0323 557068",
    "candidateUrl": ""
  },
  {
    "id": "osm-node-6227647535-grotto-sassalto",
    "name": "Grotto Sassalto",
    "lat": 45.9649689,
    "lng": 8.8846055,
    "candidateSource": "osm",
    "candidateFoundAt": "2026-02-17",
    "candidateOsmType": "node",
    "candidateOsmId": 6227647535,
    "candidatePhone": "+41 91 600 90 94",
    "candidateUrl": ""
  },
  {
    "id": "osm-node-6443935786-il-calderone",
    "name": "Il Calderone",
    "lat": 45.9469533,
    "lng": 8.6612815,
    "candidateSource": "osm",
    "candidateFoundAt": "2026-02-17",
    "candidateOsmType": "node",
    "candidateOsmId": 6443935786,
    "candidatePhone": "+39 380 492 1728"
  },
  {
    "id": "osm-node-6671271687-osteria-del-castello",
    "name": "Osteria del Castello",
    "lat": 45.9351823,
    "lng": 8.5728835,
    "candidateSource": "osm",
    "candidateFoundAt": "2026-02-17",
    "candidateOsmType": "node",
    "candidateOsmId": 6671271687,
    "candidateUrl": "https://www.osteriacastello.com/en/home-uk/",
    "candidateUrlKind": "web"
  },
  {
    "id": "osm-node-6687555923-il-portale",
    "name": "Il Portale",
    "lat": 45.9218104,
    "lng": 8.5523727,
    "candidateSource": "osm",
    "candidateFoundAt": "2026-02-17",
    "candidateOsmType": "node",
    "candidateOsmId": 6687555923,
    "candidateUrl": "https://www.ristoranteilportale.it/",
    "candidatePhone": "+39 0323 505486",
    "candidateHours": "Mo-Su 12:00-14:30,19:30-22:30; Tu-We 12:00-14:30 off",
    "candidateUrlKind": "web"
  },
  {
    "id": "osm-node-6796947687-la-barca",
    "name": "La Barca",
    "lat": 46.1671302,
    "lng": 8.8028329,
    "candidateSource": "osm",
    "candidateFoundAt": "2026-02-17",
    "candidateOsmType": "node",
    "candidateOsmId": 6796947687,
    "candidateHours": "We 16:00-00:00; Th-Fr 11:00-00:00; Sa-Su 10:00-00:00"
  },
  {
    "id": "osm-node-7096311754-ristorante-dal-pescatore",
    "name": "Ristorante dal Pescatore",
    "lat": 45.9588994,
    "lng": 8.8724149,
    "candidateSource": "osm",
    "candidateFoundAt": "2026-02-17",
    "candidateOsmType": "node",
    "candidateOsmId": 7096311754,
    "candidatePhone": "+39 0332 550165",
    "candidateUrl": ""
  },
  {
    "id": "osm-node-7950521585-pizzeria-fiore-di-latte",
    "name": "Pizzeria Fiore Di Latte",
    "lat": 45.9292251,
    "lng": 8.4801214,
    "candidateSource": "osm",
    "candidateFoundAt": "2026-02-17",
    "candidateOsmType": "node",
    "candidateOsmId": 7950521585,
    "candidateUrl": "https://www.fioredilatte.it",
    "candidatePhone": "+39032380630",
    "candidateUrlKind": "web"
  },
  {
    "id": "osm-node-8809050404-ristorante-la-veranda-del-sole",
    "name": "Ristorante La Veranda del Sole",
    "lat": 45.9614931,
    "lng": 8.6805294,
    "candidateSource": "osm",
    "candidateFoundAt": "2026-02-17",
    "candidateOsmType": "node",
    "candidateOsmId": 8809050404,
    "candidateUrl": "https://www.hoteldelsolelagomaggiore.com/",
    "candidatePhone": "+39 0332 547747",
    "candidateUrlKind": "web"
  },
  {
    "id": "osm-node-9056803317-locanda-81",
    "name": "Locanda '81",
    "lat": 45.9212637,
    "lng": 8.5534296,
    "candidateSource": "osm",
    "candidateFoundAt": "2026-02-17",
    "candidateOsmType": "node",
    "candidateOsmId": 9056803317,
    "candidateUrl": "https://locanda81.business.site/",
    "candidatePhone": "+390323361528",
    "candidateUrlKind": "web"
  },
  {
    "id": "osm-node-9067056917-la-casera",
    "name": "La Casera",
    "lat": 45.9357841,
    "lng": 8.5739591,
    "candidateSource": "osm",
    "candidateFoundAt": "2026-02-17",
    "candidateOsmType": "node",
    "candidateOsmId": 9067056917,
    "candidateUrl": "https://www.formaggidieros.it",
    "candidatePhone": "+39 0323 581123",
    "candidateHours": "Mo,Tu,Th-Sa 09:00-22:00; We 09:00-19:00; Su off",
    "candidateUrlKind": "web"
  },
  {
    "id": "osm-node-9153014798-luini6",
    "name": "Luini6",
    "lat": 45.9993553,
    "lng": 8.9481663,
    "candidateSource": "osm",
    "candidateFoundAt": "2026-02-17",
    "candidateOsmType": "node",
    "candidateOsmId": 9153014798,
    "candidateUrl": "https://luini6.ch/",
    "candidatePhone": "+41 91 208 31 07",
    "candidateUrlKind": "web"
  },
  {
    "id": "osm-node-9359227034-shun",
    "name": "Shun",
    "lat": 45.9988234,
    "lng": 8.7359661,
    "candidateSource": "osm",
    "candidateFoundAt": "2026-02-17",
    "candidateOsmType": "node",
    "candidateOsmId": 9359227034,
    "candidatePhone": "+39 0332 511940",
    "candidateHours": "We-Mo 11:00-14:30,18:00-23:30; Tu off"
  },
  {
    "id": "osm-node-9862600455-ascona-square-garden",
    "name": "Ascona Square Garden",
    "lat": 46.1559598,
    "lng": 8.7674977,
    "candidateSource": "osm",
    "candidateFoundAt": "2026-02-17",
    "candidateOsmType": "node",
    "candidateOsmId": 9862600455,
    "candidateUrl": "https://asconasquaregarden.com",
    "candidateUrlKind": "web"
  },
  {
    "id": "osm-node-9903930041-osteria-cantinone-elvezia",
    "name": "Osteria Cantinone Elvezia",
    "lat": 46.1481712,
    "lng": 8.8574058,
    "candidateSource": "osm",
    "candidateFoundAt": "2026-02-17",
    "candidateOsmType": "node",
    "candidateOsmId": 9903930041,
    "candidateUrl": "https://osteria-cantinone-elvezia.business.site/",
    "candidateUrlKind": "web"
  },
  {
    "id": "osm-node-10065125328-trattoria-cannobio-da-ale-vale",
    "name": "Trattoria Cannobio da Ale & Vale",
    "lat": 46.0616279,
    "lng": 8.7000335,
    "candidateSource": "osm",
    "candidateFoundAt": "2026-02-17",
    "candidateOsmType": "node",
    "candidateOsmId": 10065125328,
    "candidateHours": "PH,Th-Tu 12:00-14:00,18:00-21:30",
    "candidateUrl": ""
  },
  {
    "id": "osm-node-10587562887-tiffany-villa-porta",
    "name": "Tiffany Villa Porta",
    "lat": 46.0256467,
    "lng": 8.7504142,
    "candidateSource": "osm",
    "candidateFoundAt": "2026-02-17",
    "candidateOsmType": "node",
    "candidateOsmId": 10587562887,
    "candidateUrl": "https://www.villaporta.style/en/tiffany-restaurant/",
    "candidatePhone": "+39 0332 510855",
    "candidateHours": "Mo-Su 12:00-22:00",
    "candidateUrlKind": "web"
  },
  {
    "id": "osm-node-10887427388-ristorante-vistalago",
    "name": "Ristorante Vistalago",
    "lat": 46.003766,
    "lng": 8.9546385,
    "candidateSource": "osm",
    "candidateFoundAt": "2026-02-17",
    "candidateOsmType": "node",
    "candidateOsmId": 10887427388,
    "candidateUrl": "https://ristorantevistalago.ch",
    "candidatePhone": "+41919211048",
    "candidateHours": "Mo-Su 08:00-23:00",
    "candidateUrlKind": "web"
  },
  {
    "id": "osm-node-10908308390-bar-caff-tre-re",
    "name": "Bar Caffè Tre Re",
    "lat": 46.0224237,
    "lng": 8.6858272,
    "candidateSource": "osm",
    "candidateFoundAt": "2026-02-17",
    "candidateOsmType": "node",
    "candidateOsmId": 10908308390,
    "candidatePhone": "+39 0323 787122",
    "candidateUrl": ""
  },
  {
    "id": "osm-node-11528060631-porto-bello",
    "name": "Porto Bello!",
    "lat": 46.0027601,
    "lng": 8.9621682,
    "candidateSource": "osm",
    "candidateFoundAt": "2026-02-17",
    "candidateOsmType": "node",
    "candidateOsmId": 11528060631,
    "candidatePhone": "+41 91 9728888",
    "candidateHours": "Tu-Su 09:00-00:00",
    "candidateUrl": ""
  },
  {
    "id": "osm-node-11939974745-osteria-la-tiella",
    "name": "Osteria La Tiella",
    "lat": 45.9350382,
    "lng": 8.5719262,
    "candidateSource": "osm",
    "candidateFoundAt": "2026-02-17",
    "candidateOsmType": "node",
    "candidateOsmId": 11939974745,
    "candidateHours": "Mo-Fr 10:00-14:00,18:30-22:00; Sa 09:00-14:00,18:30-23:00; Su off",
    "candidateUrl": ""
  },
  {
    "id": "osm-node-12047744569-fatti-di-pizza",
    "name": "Fatti di Pizza",
    "lat": 45.9607106,
    "lng": 8.6810941,
    "candidateSource": "osm",
    "candidateFoundAt": "2026-02-17",
    "candidateOsmType": "node",
    "candidateOsmId": 12047744569,
    "candidatePhone": "+39 3516713059",
    "candidateHours": "Tu-Su 18:00-22:00",
    "candidateUrl": ""
  },
  {
    "id": "osm-node-12613395981-asia",
    "name": "Asia",
    "lat": 46.1547093,
    "lng": 8.7659622,
    "candidateSource": "osm",
    "candidateFoundAt": "2026-02-17",
    "candidateOsmType": "node",
    "candidateOsmId": 12613395981,
    "candidateUrl": "https://seven.ch/",
    "candidateUrlKind": "web"
  },
  {
    "id": "osm-node-12613623827-riva",
    "name": "Riva",
    "lat": 46.1541809,
    "lng": 8.7687302,
    "candidateSource": "osm",
    "candidateFoundAt": "2026-02-17",
    "candidateOsmType": "node",
    "candidateOsmId": 12613623827,
    "candidateUrl": "https://seven.ch/de/restaurants/riva-ascona",
    "candidateUrlKind": "web"
  },
  {
    "id": "osm-node-12744982869-le-rive",
    "name": "LE RIVE",
    "lat": 45.9533902,
    "lng": 8.953827,
    "candidateSource": "osm",
    "candidateFoundAt": "2026-02-17",
    "candidateOsmType": "node",
    "candidateOsmId": 12744982869,
    "candidatePhone": "+41 91 261 52 00"
  },
  {
    "id": "osm-node-12951101203-trattoria-del-lago",
    "name": "Trattoria del Lago",
    "lat": 46.1717131,
    "lng": 8.8061568,
    "candidateSource": "osm",
    "candidateFoundAt": "2026-02-17",
    "candidateOsmType": "node",
    "candidateOsmId": 12951101203,
    "candidatePhone": "+41 91 7435198",
    "candidateUrl": ""
  },
  {
    "id": "osm-node-13108835201-il-rifugio-sagl",
    "name": "IL RIFUGIO SAGL",
    "lat": 45.9986301,
    "lng": 8.9481816,
    "candidateSource": "osm",
    "candidateFoundAt": "2026-02-17",
    "candidateOsmType": "node",
    "candidateOsmId": 13108835201,
    "candidatePhone": "+41 91 994 35 51",
    "candidateHours": "Mo-Fr 06:30-19:00; Sa 09:00-17:00",
    "candidateUrl": ""
  },
  {
    "id": "osm-node-13151050503-i-filari",
    "name": "I Filari",
    "lat": 45.9577785,
    "lng": 8.6190524,
    "candidateSource": "osm",
    "candidateFoundAt": "2026-02-17",
    "candidateOsmType": "node",
    "candidateOsmId": 13151050503,
    "candidateUrl": "https://www.cantinazanello.it/en/i-filari/",
    "candidatePhone": "+393398831952",
    "candidateUrlKind": "web"
  },
  {
    "id": "osm-node-13151156102-lido-di-luino",
    "name": "Lido di Luino",
    "lat": 45.996633,
    "lng": 8.7315724,
    "candidateSource": "osm",
    "candidateFoundAt": "2026-02-17",
    "candidateOsmType": "node",
    "candidateOsmId": 13151156102,
    "candidatePhone": "+393520429223",
    "candidateUrl": ""
  },
  {
    "id": "osm-node-13158727401-il-pescatore",
    "name": "Il Pescatore",
    "lat": 45.9612309,
    "lng": 8.6821152,
    "candidateSource": "osm",
    "candidateFoundAt": "2026-02-17",
    "candidateOsmType": "node",
    "candidateOsmId": 13158727401,
    "candidateUrl": "https://albergopescatore.com/",
    "candidatePhone": "+3900332549530",
    "candidateUrlKind": "web"
  },
  {
    "id": "osm-way-171530861-lido-beach-lounge",
    "name": "Lido Beach Lounge",
    "lat": 46.0678741,
    "lng": 8.6996078,
    "candidateSource": "osm",
    "candidateFoundAt": "2026-02-17",
    "candidateOsmType": "way",
    "candidateOsmId": 171530861,
    "candidatePhone": "+39 0323 73 97 91",
    "candidateUrl": ""
  },
  {
    "id": "osm-way-202367896-acquadulza-live-food-bar",
    "name": "Acquadulza Live Food Bar",
    "lat": 46.0435095,
    "lng": 8.7326805,
    "candidateSource": "osm",
    "candidateFoundAt": "2026-02-17",
    "candidateOsmType": "way",
    "candidateOsmId": 202367896,
    "candidateHours": "closed",
    "candidateUrl": ""
  },
  {
    "id": "osm-way-220908698-dal",
    "name": "Dalì",
    "lat": 45.9356545,
    "lng": 8.575466,
    "candidateSource": "osm",
    "candidateFoundAt": "2026-02-17",
    "candidateOsmType": "way",
    "candidateOsmId": 220908698,
    "candidatePhone": "+39 340 533 7581",
    "candidateHours": "Mo-Su 07:30-02:00"
  },
  {
    "id": "osm-way-257779304-ristorante-pizzeria-la-concordia",
    "name": "Ristorante Pizzeria La Concordia",
    "lat": 46.0375385,
    "lng": 8.7408911,
    "candidateSource": "osm",
    "candidateFoundAt": "2026-02-17",
    "candidateOsmType": "way",
    "candidateOsmId": 257779304,
    "candidatePhone": "+39 0332 560218",
    "candidateHours": "Mo-Su 12:00-14:15,18:00-22:30",
    "candidateUrl": ""
  },
  {
    "id": "osm-way-917794543-antica-osteria-del-porto",
    "name": "Antica Osteria del Porto",
    "lat": 46.003353,
    "lng": 8.9617151,
    "candidateSource": "osm",
    "candidateFoundAt": "2026-02-17",
    "candidateOsmType": "way",
    "candidateOsmId": 917794543,
    "candidateUrl": "https://anticaosteriadelporto.ch/",
    "candidatePhone": "+41 91 971 42 00",
    "candidateUrlKind": "web"
  },
  {
    "id": "osm-way-1078048761-osteria-pizzeria-colibri",
    "name": "Osteria Pizzeria Colibri",
    "lat": 46.1174617,
    "lng": 8.7088188,
    "candidateSource": "osm",
    "candidateFoundAt": "2026-02-17",
    "candidateOsmType": "way",
    "candidateOsmId": 1078048761,
    "candidatePhone": "+41 91 793 14 53",
    "candidateUrl": ""
  },
  {
    "id": "osm-way-1432115156-molo-54",
    "name": "Molo 54",
    "lat": 45.9278703,
    "lng": 8.4821837,
    "candidateSource": "osm",
    "candidateFoundAt": "2026-02-17",
    "candidateOsmType": "way",
    "candidateOsmId": 1432115156,
    "candidateUrl": "https://www.molo54.it/",
    "candidatePhone": "+39 0323 350142",
    "candidateUrlKind": "web"
  }
]
