[
  {
    "id": "yachtcharter_konstanz",
    "name": "Yachtcharter Bodensee",
    "country": "DE",
    "location": "Konstanz",
    "lat": 47.658,
    "lng": 9.175,
    "fleetSize": 12,
    "priceFrom": "ab €180/Tag",
    "features": [
      "Segelyachten",
      "Katamarane",
      "Mit Skipper"
    ],
    "url": "",
    "source": "",
    "lastVerified": "",
    "candidateUrl": null,
    "candidateFoundAt": null,
    "candidateSource": null,
    "phone": "",
    "email": "",
    "hours": ""
  },
  {
    "id": "sail_fun",
    "name": "Sail & Fun",
    "country": "DE",
    "location": "Friedrichshafen",
    "lat": 47.65,
    "lng": 9.485,
    "fleetSize": 8,
    "priceFrom": "ab €150/Tag",
    "features": [
      "Jollen",
      "Segelyachten",
      "Kurse"
    ],
    "url": "",
    "source": "",
    "lastVerified": "",
    "candidateUrl": null,
    "candidateFoundAt": null,
    "candidateSource": null,
    "phone": "",
    "email": "",
    "hours": ""
  },
  {
    "id": "thurgau_sail",
    "name": "Thurgau Sail",
    "country": "CH",
    "location": "Romanshorn",
    "lat": 47.562,
    "lng": 9.375,
    "fleetSize": 6,
    "priceFrom": "ab CHF 200/Tag",
    "features": [
      "Segelyachten",
      "Bareboat"
    ],
    "url": "",
    "source": "",
    "lastVerified": "",
    "candidateUrl": null,
    "candidateFoundAt": null,
    "candidateSource": null,
    "phone": "",
    "email": "",
    "hours": ""
  },
  {
    "id": "sailpoint_bregenz",
    "name": "Sailpoint Bregenz",
    "country": "AT",
    "location": "Bregenz",
    "lat": 47.502,
    "lng": 9.745,
    "fleetSize": 10,
    "priceFrom": "ab €120/Tag",
    "features": [
      "Jollen",
      "Katamarane",
      "SUP"
    ],
    "url": "",
    "source": "",
    "lastVerified": "",
    "candidateUrl": null,
    "candidateFoundAt": null,
    "candidateSource": null,
    "phone": "",
    "email": "",
    "hours": ""
  },
  {
    "id": "bodensee_yachting",
    "name": "Bodensee Yachting",
    "country": "DE",
    "location": "Lindau",
    "lat": 47.542,
    "lng": 9.688,
    "fleetSize": 15,
    "priceFrom": "ab €200/Tag",
    "features": [
      "Segelyachten",
      "Motorboote",
      "Events"
    ],
    "url": "",
    "source": "",
    "lastVerified": "",
    "candidateUrl": null,
    "candidateFoundAt": null,
    "candidateSource": null,
    "phone": "",
    "email": "",
    "hours": ""
  },
  {
    "id": "segelschule_ueberlingen",
    "name": "Segelschule Überlingen",
    "country": "DE",
    "location": "Überlingen",
    "lat": 47.765,
    "lng": 9.168,
    "fleetSize": 20,
    "priceFrom": "ab €80/Tag",
    "features": [
      "Jollen",
      "Schulung",
      "Patente"
    ],
    "url": "",
    "source": "",
    "lastVerified": "",
    "candidateUrl": null,
    "candidateFoundAt": null,
    "candidateSource": null,
    "phone": "",
    "email": "",
    "hours": ""
  },
  {
    "id": "osm-node-829903752-bootsverleih-hodrius",
    "name": "Bootsverleih Hodrius",
    "lat": 47.5487911,
    "lng": 9.683018,
    "candidateSource": "osm",
    "candidateFoundAt": "2026-02-11",
    "candidateOsmType": "node",
    "candidateOsmId": 829903752,
    "candidateUrl": "https://bootsverleih-lindau.de/",
    "candidatePhone": "+49 8382 297771"
  },
  {
    "id": "osm-node-2426658722-bootsverleih-friedrichshafen",
    "name": "Bootsverleih Friedrichshafen",
    "lat": 47.6497138,
    "lng": 9.4783188,
    "candidateSource": "osm",
    "candidateFoundAt": "2026-02-11",
    "candidateOsmType": "node",
    "candidateOsmId": 2426658722,
    "candidateUrl": "http://www.bootsvermietung-christiane.de/",
    "candidatePhone": "+49 176 802 453 06",
    "candidateHours": "Apr-Sep: 09:00-20:00"
  },
  {
    "id": "osm-node-2688573734-bootsverleih-hard",
    "name": "Bootsverleih Hard",
    "lat": 47.4945986,
    "lng": 9.6863918,
    "candidateSource": "osm",
    "candidateFoundAt": "2026-02-11",
    "candidateOsmType": "node",
    "candidateOsmId": 2688573734,
    "candidateUrl": "https://www.bootsverleih-hard.at/"
  },
  {
    "id": "osm-node-3626495586-cap-rotach-la-canoa",
    "name": "CAP Rotach / La Canoa",
    "lat": 47.6492042,
    "lng": 9.4963455,
    "candidateSource": "osm",
    "candidateFoundAt": "2026-02-11",
    "candidateOsmType": "node",
    "candidateOsmId": 3626495586,
    "candidateUrl": "http://www.lacanoa.com/",
    "candidatePhone": "+49 7541 70077777"
  },
  {
    "id": "osm-node-3666025669-urs-grob-bootsbetrieb",
    "name": "Urs Grob Bootsbetrieb",
    "lat": 47.4796213,
    "lng": 9.4912009,
    "candidateSource": "osm",
    "candidateFoundAt": "2026-02-11",
    "candidateOsmType": "node",
    "candidateOsmId": 3666025669,
    "candidateUrl": "http://www.grob-bootsbetrieb.ch/",
    "candidatePhone": "+4171 841 44 44"
  },
  {
    "id": "osm-node-4331363664-micha-s-paddeloase",
    "name": "Micha's Paddeloase",
    "lat": 47.5873328,
    "lng": 9.5876082,
    "candidateSource": "osm",
    "candidateFoundAt": "2026-02-11",
    "candidateOsmType": "node",
    "candidateOsmId": 4331363664,
    "candidateUrl": "http://paddeloase.de/",
    "candidatePhone": "+49 171 1245596",
    "candidateHours": "May-Oct"
  },
  {
    "id": "osm-node-4394446079-bootsvermietung-friedrichshafen-marc-fluck",
    "name": "Bootsvermietung Friedrichshafen Marc Fluck",
    "lat": 47.650132,
    "lng": 9.4776347,
    "candidateSource": "osm",
    "candidateFoundAt": "2026-02-11",
    "candidateOsmType": "node",
    "candidateOsmId": 4394446079,
    "candidateUrl": "https://bootsvermietung-friedrichshafen.vpweb.de/",
    "candidatePhone": "+49 7541 21746",
    "candidateHours": "Mo-Fr 11:00-20:00; Sa,Su 10:00-19:00; Oct 16-Mar 24 off"
  },
  {
    "id": "osm-node-4865580144-wassersport-schattmaier",
    "name": "Wassersport Schattmaier",
    "lat": 47.586166,
    "lng": 9.5604815,
    "candidateSource": "osm",
    "candidateFoundAt": "2026-02-11",
    "candidateOsmType": "node",
    "candidateOsmId": 4865580144,
    "candidateUrl": "https://schattmaier.com/",
    "candidatePhone": "+49 7543 60540"
  },
  {
    "id": "osm-node-4938854291-bootsvermietung-christiane",
    "name": "Bootsvermietung Christiane",
    "lat": 47.5955924,
    "lng": 9.5408638,
    "candidateSource": "osm",
    "candidateFoundAt": "2026-02-11",
    "candidateOsmType": "node",
    "candidateOsmId": 4938854291,
    "candidateUrl": "http://www.bootsvermietung-christiane.de/bootsverleih-langenargen.html",
    "candidatePhone": "+49 176 80120626"
  },
  {
    "id": "osm-node-5792112656-bodenseepiraten",
    "name": "Bodenseepiraten",
    "lat": 47.6923138,
    "lng": 9.2717973,
    "candidateSource": "osm",
    "candidateFoundAt": "2026-02-11",
    "candidateOsmType": "node",
    "candidateOsmId": 5792112656,
    "candidateUrl": "https://bodensee-piraten.net",
    "candidateHours": "Mo-Su,PH 10:00-19:00"
  },
  {
    "id": "osm-node-6759193842-yachtcharter-konstanz",
    "name": "Yachtcharter Konstanz",
    "lat": 47.6572767,
    "lng": 9.1786977,
    "candidateSource": "osm",
    "candidateFoundAt": "2026-02-11",
    "candidateOsmType": "node",
    "candidateOsmId": 6759193842,
    "candidateUrl": "http://yachtcharter-konstanz.de",
    "candidatePhone": "+49 7531 3633970"
  },
  {
    "id": "osm-node-7096582317-wasserspass-bodensee",
    "name": "Wasserspass Bodensee",
    "lat": 47.6537307,
    "lng": 9.4551214,
    "candidateSource": "osm",
    "candidateFoundAt": "2026-02-11",
    "candidateOsmType": "node",
    "candidateOsmId": 7096582317,
    "candidateUrl": "https://www.wasserspass-bodensee.de/",
    "candidatePhone": "+49 7541 40 69 33 9"
  },
  {
    "id": "osm-node-7592335222-vdws-surfschule",
    "name": "VDWS Surfschule",
    "lat": 47.5474763,
    "lng": 9.7184934,
    "candidateSource": "osm",
    "candidateFoundAt": "2026-02-11",
    "candidateOsmType": "node",
    "candidateOsmId": 7592335222,
    "candidateUrl": "https://www.surfschulelindau.de/"
  },
  {
    "id": "osm-node-8584147508-die-paddler-sup-bodensee",
    "name": "die Paddler - SUP Bodensee",
    "lat": 47.5852214,
    "lng": 9.5624566,
    "candidateSource": "osm",
    "candidateFoundAt": "2026-02-11",
    "candidateOsmType": "node",
    "candidateOsmId": 8584147508,
    "candidateUrl": "https://www.diepaddler.de/"
  },
  {
    "id": "osm-node-8673029452-bootsvermietung-hagnau",
    "name": "Bootsvermietung Hagnau",
    "lat": 47.6730614,
    "lng": 9.3194526,
    "candidateSource": "osm",
    "candidateFoundAt": "2026-02-11",
    "candidateOsmType": "node",
    "candidateOsmId": 8673029452,
    "candidateUrl": "https://www.hagnau-bootsvermietung.de/",
    "candidatePhone": "+497532446372"
  },
  {
    "id": "osm-node-8889638963-la-canoa",
    "name": "La Canoa",
    "lat": 47.7472251,
    "lng": 9.1417246,
    "candidateSource": "osm",
    "candidateFoundAt": "2026-02-11",
    "candidateOsmType": "node",
    "candidateOsmId": 8889638963,
    "candidateUrl": "https://www.kanuverleih-wallhausen.de/",
    "candidatePhone": "+49 7531 959548"
  },
  {
    "id": "osm-node-11292495102-bootsvermietung-am-pfäffikersee",
    "name": "Bootsvermietung am Pfäffikersee",
    "lat": 47.3645352,
    "lng": 8.781493,
    "candidateSource": "osm",
    "candidateFoundAt": "2026-02-11",
    "candidateOsmType": "node",
    "candidateOsmId": 11292495102,
    "candidateUrl": "https://www.booti.ch/",
    "candidatePhone": "+41 44 950 15 03"
  },
  {
    "id": "osm-node-12947346548-kayakomat-sipplingen-naturbadestrand",
    "name": "Kayakomat Sipplingen Naturbadestrand",
    "lat": 47.7964938,
    "lng": 9.0929193,
    "candidateSource": "osm",
    "candidateFoundAt": "2026-02-11",
    "candidateOsmType": "node",
    "candidateOsmId": 12947346548,
    "candidateUrl": "https://www.kayakomat.com/de/location/669631f8e8d8b96f97c5a9e1",
    "candidateHours": "24/7"
  },
  {
    "id": "osm-node-12957260931-kayakomat",
    "name": "Kayakomat",
    "lat": 47.6715352,
    "lng": 9.3263993,
    "candidateSource": "osm",
    "candidateFoundAt": "2026-02-11",
    "candidateOsmType": "node",
    "candidateOsmId": 12957260931,
    "candidateUrl": "https://www.kayakomat.com/",
    "candidateHours": "Mo-Su,PH 00:00-00:00"
  },
  {
    "id": "osm-node-13098142297-bootsvermietung-bregenz",
    "name": "Bootsvermietung Bregenz",
    "lat": 47.5044274,
    "lng": 9.7416706,
    "candidateSource": "osm",
    "candidateFoundAt": "2026-02-11",
    "candidateOsmType": "node",
    "candidateOsmId": 13098142297,
    "candidateUrl": "https://www.bootsvermietung-bregenz.at",
    "candidateHours": "Apr-Oct: Mo-Su 09:00-sunset"
  },
  {
    "id": "osm-way-120664150-segelschule-insel-reichenau",
    "name": "Segelschule Insel Reichenau",
    "lat": 47.700768,
    "lng": 9.0629063,
    "candidateSource": "osm",
    "candidateFoundAt": "2026-02-11",
    "candidateOsmType": "way",
    "candidateOsmId": 120664150,
    "candidateUrl": "https://www.segelschule-insel-reichenau.de/",
    "candidatePhone": "+49 7534 799054",
    "candidateHours": "\"Nach vereinbarung\""
  },
  {
    "id": "osm-way-128269035-surfschule-bodensee",
    "name": "Surfschule Bodensee",
    "lat": 47.7595866,
    "lng": 9.1741588,
    "candidateSource": "osm",
    "candidateFoundAt": "2026-02-11",
    "candidateOsmType": "way",
    "candidateOsmId": 128269035,
    "candidateUrl": "https://surfschulebodensee.de/",
    "candidatePhone": "+49 174 6286981"
  },
  {
    "id": "osm-way-234814856-bootsvermietung-lindau",
    "name": "Bootsvermietung Lindau",
    "lat": 47.5493739,
    "lng": 9.6895109,
    "candidateSource": "osm",
    "candidateFoundAt": "2026-02-11",
    "candidateOsmType": "way",
    "candidateOsmId": 234814856,
    "candidateUrl": "http://www.bootsvermietung-lindau.de/",
    "candidatePhone": "+49 8382 9890882",
    "candidateHours": "\"Geöffnet bei schönem Wetter\""
  },
  {
    "id": "osm-way-376079793-bootsverleih-giess",
    "name": "Bootsverleih Giess",
    "lat": 47.766868,
    "lng": 9.1559608,
    "candidateSource": "osm",
    "candidateFoundAt": "2026-02-11",
    "candidateOsmType": "way",
    "candidateOsmId": 376079793,
    "candidateUrl": "https://www.bootsverleih-giess.de/",
    "candidatePhone": "+49 171 8100138"
  },
  {
    "id": "osm-way-715099637-bootsverleih",
    "name": "Bootsverleih",
    "lat": 47.6917931,
    "lng": 9.2742373,
    "candidateSource": "osm",
    "candidateFoundAt": "2026-02-11",
    "candidateOsmType": "way",
    "candidateOsmId": 715099637,
    "candidateUrl": "https://www.frey-meersburger-bootsbetriebe.de/bootsvermietung",
    "candidatePhone": "+49 7532 6824"
  },
  {
    "id": "osm-way-1197589320-bootsverleih-lang",
    "name": "Bootsverleih Lang",
    "lat": 47.6896044,
    "lng": 9.0007911,
    "candidateSource": "osm",
    "candidateFoundAt": "2026-02-11",
    "candidateOsmType": "way",
    "candidateOsmId": 1197589320,
    "candidateUrl": "https://www.gaienhofen.de/attraktion/bootsverleih-lang-db1e6bd1ac"
  },
  {
    "id": "osm-way-1267324154-marc-fluck-bootsvermietung",
    "name": "Marc Fluck Bootsvermietung",
    "lat": 47.6614475,
    "lng": 9.1791352,
    "candidateSource": "osm",
    "candidateFoundAt": "2026-02-11",
    "candidateOsmType": "way",
    "candidateOsmId": 1267324154,
    "candidateUrl": "https://regiostars.de/Profil/fluck_bootsvermietung_konstanz",
    "candidateHours": "Apr-Jun,Sep-Oct: Mo-Fr 11:00-19:00; Apr-Jun,Sep-Oct: Sa,Su,PH 11:00-19:00; Jul-Aug: Mo-Su,PH 11:00-19:00"
  },
  {
    "id": "osm-way-1346181337-bootsvermietung-wasserburg",
    "name": "Bootsvermietung Wasserburg",
    "lat": 47.5666705,
    "lng": 9.6305891,
    "candidateSource": "osm",
    "candidateFoundAt": "2026-02-11",
    "candidateOsmType": "way",
    "candidateOsmId": 1346181337,
    "candidateUrl": "https://bootsvermietung-wasserburg.de",
    "candidatePhone": "+49 8382 998117"
  }
]
