[
  {
    "id": "yachtcharter_konstanz",
    "name": "Yachtcharter Bodensee",
    "country": "DE",
    "location": "Konstanz",
    "lat": 47.658,
    "lng": 9.175,
    "fleetSize": 12,
    "priceFrom": "ab €180/Tag",
    "features": [
      "Segelyachten",
      "Katamarane",
      "Mit Skipper"
    ],
    "url": "",
    "source": "",
    "lastVerified": "",
    "candidateUrl": null,
    "candidateFoundAt": null,
    "candidateSource": null
  },
  {
    "id": "sail_fun",
    "name": "Sail & Fun",
    "country": "DE",
    "location": "Friedrichshafen",
    "lat": 47.65,
    "lng": 9.485,
    "fleetSize": 8,
    "priceFrom": "ab €150/Tag",
    "features": [
      "Jollen",
      "Segelyachten",
      "Kurse"
    ],
    "url": "",
    "source": "",
    "lastVerified": "",
    "candidateUrl": null,
    "candidateFoundAt": null,
    "candidateSource": null
  },
  {
    "id": "thurgau_sail",
    "name": "Thurgau Sail",
    "country": "CH",
    "location": "Romanshorn",
    "lat": 47.562,
    "lng": 9.375,
    "fleetSize": 6,
    "priceFrom": "ab CHF 200/Tag",
    "features": [
      "Segelyachten",
      "Bareboat"
    ],
    "url": "",
    "source": "",
    "lastVerified": "",
    "candidateUrl": null,
    "candidateFoundAt": null,
    "candidateSource": null
  },
  {
    "id": "sailpoint_bregenz",
    "name": "Sailpoint Bregenz",
    "country": "AT",
    "location": "Bregenz",
    "lat": 47.502,
    "lng": 9.745,
    "fleetSize": 10,
    "priceFrom": "ab €120/Tag",
    "features": [
      "Jollen",
      "Katamarane",
      "SUP"
    ],
    "url": "",
    "source": "",
    "lastVerified": "",
    "candidateUrl": null,
    "candidateFoundAt": null,
    "candidateSource": null
  },
  {
    "id": "bodensee_yachting",
    "name": "Bodensee Yachting",
    "country": "DE",
    "location": "Lindau",
    "lat": 47.542,
    "lng": 9.688,
    "fleetSize": 15,
    "priceFrom": "ab €200/Tag",
    "features": [
      "Segelyachten",
      "Motorboote",
      "Events"
    ],
    "url": "",
    "source": "",
    "lastVerified": "",
    "candidateUrl": null,
    "candidateFoundAt": null,
    "candidateSource": null
  },
  {
    "id": "segelschule_ueberlingen",
    "name": "Segelschule Überlingen",
    "country": "DE",
    "location": "Überlingen",
    "lat": 47.765,
    "lng": 9.168,
    "fleetSize": 20,
    "priceFrom": "ab €80/Tag",
    "features": [
      "Jollen",
      "Schulung",
      "Patente"
    ],
    "url": "",
    "source": "",
    "lastVerified": "",
    "candidateUrl": null,
    "candidateFoundAt": null,
    "candidateSource": null
  }
]
